original_id,original_deviceid,original_servertime,original_latitude,original_longitude,original_speed,distance,formatted,lat,lon,name,housenumber,street,postcode,district,suburb,city,county,state,country,country_code,attribution,attribution_license,attribution_url
51009150,1112,2019-12-09 06:38:22,27.695655,85.32123,0.04,0,"Singh Durbar, Saras Marg, Ghattekulo, Kathmandu 00446, Nepal",27.696478149999997,85.32461913495442,Singh Durbar,,Saras Marg,00446,Kathmandu-29,Ghattekulo,Kathmandu,Kathmandu,Bagmati Province,Nepal,np,© OpenStreetMap contributors,Open Database License,https://www.openstreetmap.org/copyright
51009668,1112,2019-12-09 06:38:52,27.695665,85.32124333333333,0.03,0,"Singh Durbar, Saras Marg, Ghattekulo, Kathmandu 00446, Nepal",27.696478149999997,85.32461913495442,Singh Durbar,,Saras Marg,00446,Kathmandu-29,Ghattekulo,Kathmandu,Kathmandu,Bagmati Province,Nepal,np,© OpenStreetMap contributors,Open Database License,https://www.openstreetmap.org/copyright
51010175,1112,2019-12-09 06:39:22,27.69567,85.32125166666667,0.07,0,"Singh Durbar, Saras Marg, Ghattekulo, Kathmandu 00446, Nepal",27.696478149999997,85.32461913495442,Singh Durbar,,Saras Marg,00446,Kathmandu-29,Ghattekulo,Kathmandu,Kathmandu,Bagmati Province,Nepal,np,© OpenStreetMap contributors,Open Database License,https://www.openstreetmap.org/copyright
51010722,1112,2019-12-09 06:39:53,27.69552,85.321045,0.07,0,"Singh Durbar, Saras Marg, Ghattekulo, Kathmandu 00446, Nepal",27.696478149999997,85.32461913495442,Singh Durbar,,Saras Marg,00446,Kathmandu-29,Ghattekulo,Kathmandu,Kathmandu,Bagmati Province,Nepal,np,© OpenStreetMap contributors,Open Database License,https://www.openstreetmap.org/copyright
51011202,1112,2019-12-09 06:40:21,27.695151666666668,85.32095333333334,0.08,2.2240789140064434,"Singh Durbar, Saras Marg, Ghattekulo, Kathmandu 00446, Nepal",27.696478149999997,85.32461913495442,Singh Durbar,,Saras Marg,00446,Kathmandu-29,Ghattekulo,Kathmandu,Kathmandu,Bagmati Province,Nepal,np,© OpenStreetMap contributors,Open Database License,https://www.openstreetmap.org/copyright
51011698,1112,2019-12-09 06:40:51,27.69437,85.32064,1.01,12.67475899395889,"Madan Bhandari Path, Kathmandu, Kathmandu 44617, Nepal",27.69428,85.320719,,,Madan Bhandari Path,44617,,,Kathmandu,Kathmandu,Three,Nepal,np,© OpenStreetMap contributors,Open Database License,https://www.openstreetmap.org/copyright
51012218,1112,2019-12-09 06:41:21,27.694356666666668,85.320635,0.02,11.877438967475761,"Madan Bhandari Path, Kathmandu, Kathmandu 44617, Nepal",27.69428,85.320719,,,Madan Bhandari Path,44617,,,Kathmandu,Kathmandu,Three,Nepal,np,© OpenStreetMap contributors,Open Database License,https://www.openstreetmap.org/copyright
51012735,1112,2019-12-09 06:41:51,27.694286666666667,85.32052166666666,6.25,2.7436649845811054,"माइतिघर सडक, Kathmandu, Kathmandu 44617, Nepal",27.694265,85.320535,,,माइतिघर सडक,44617,,,Kathmandu,Kathmandu,Three,Nepal,np,© OpenStreetMap contributors,Open Database License,https://www.openstreetmap.org/copyright
51013267,1112,2019-12-09 06:42:20,27.695401666666665,85.32092166666666,17.94,1.5425273326758555,"Ram Shah Path, Bansh Ghari, Kathmandu 00446, Nepal",27.695921,85.321048,Ram Shah Path,,Ram Shah Path,00446,Kathmandu-29,Bansh Ghari,Kathmandu,Kathmandu,Bagmati Province,Nepal,np,© OpenStreetMap contributors,Open Database License,https://www.openstreetmap.org/copyright
51013801,1112,2019-12-09 06:42:50,27.697758333333333,85.32141666666666,18.38,35.855484853480576,"Nepal Bar Association, Ram Shah Path, Bansh Ghari, Kathmandu 00446, Nepal",27.697582099999998,85.32172165,Nepal Bar Association,,Ram Shah Path,00446,Kathmandu-29,Bansh Ghari,Kathmandu,Kathmandu,Bagmati Province,Nepal,np,© OpenStreetMap contributors,Open Database License,https://www.openstreetmap.org/copyright
51014300,1112,2019-12-09 06:43:20,27.698735,85.31995166666667,29.04,1.8978808620996208,"Prithvi Path, Baghbazar, Kathmandu 44605, Nepal",27.6987436,85.3200018,Prithvi Path,,Prithvi Path,44605,Kathmandu-28,Baghbazar,Kathmandu,Kathmandu,Bagmati Province,Nepal,np,© OpenStreetMap contributors,Open Database License,https://www.openstreetmap.org/copyright
51602537,1112,2019-12-09 16:19:27,27.698871666666665,85.319595,30.04,30.418032984478835,"Prithvi Path, Kathmandu, Kathmandu 44066, Nepal",27.698828,85.3199,,,Prithvi Path,44066,,,Kathmandu,Kathmandu,Three,Nepal,np,© OpenStreetMap contributors,Open Database License,https://www.openstreetmap.org/copyright
51603075,1112,2019-12-09 16:20:01,27.697456666666668,85.32141833333333,24.16,31.67272299965225,"Supreme Court of Nepal, Ram Shah Path, Bansh Ghari, Kathmandu 00446, Nepal",27.696805750000003,85.32174221625255,Supreme Court of Nepal,,Ram Shah Path,00446,Kathmandu-29,Bansh Ghari,Kathmandu,Kathmandu,Bagmati Province,Nepal,np,© OpenStreetMap contributors,Open Database License,https://www.openstreetmap.org/copyright
51603497,1112,2019-12-09 16:20:26,27.69463333333333,85.32080500000001,14.37,4.473063287893035,"Thapathali, Kathmandu 44617, Nepal",27.6949897,85.3208456,,,,44617,Kathmandu-11,Thapathali,Kathmandu,Kathmandu,Bagmati Province,Nepal,np,© OpenStreetMap contributors,Open Database License,https://www.openstreetmap.org/copyright
51603979,1112,2019-12-09 16:20:56,27.693126666666668,85.322695,21.79,4.38462187482277,"Kathmandu, Kathmandu 44617, Nepal",27.6922553,85.324616,,,,44617,Kathmandu-11,,Kathmandu,Kathmandu,Bagmati Province,Nepal,np,© OpenStreetMap contributors,Open Database License,https://www.openstreetmap.org/copyright
51604454,1112,2019-12-09 16:21:26,27.69157333333333,85.325905,27.43,39.47168103175226,"Madan Bhandari Path, Kathmandu, Kathmandu 44617, Nepal",27.691344,85.326211,,,Madan Bhandari Path,44617,,,Kathmandu,Kathmandu,Three,Nepal,np,© OpenStreetMap contributors,Open Database License,https://www.openstreetmap.org/copyright
51604943,1112,2019-12-09 16:21:56,27.69003,85.32914833333334,24.03,21.243136132619693,"Tex World, Kathmandu, Kathmandu 44617, Nepal",27.689888,85.329004,Tex World,,,44617,,,Kathmandu,Kathmandu,Three,Nepal,np,© OpenStreetMap contributors,Open Database License,https://www.openstreetmap.org/copyright
51632691,1112,2019-12-09 16:50:32,27.69172333333333,85.32547666666666,25.41,3.1702125304270004,"Madan Bhandari Path, Kathmandu, Kathmandu 44617, Nepal",27.6916763,85.3255084,Madan Bhandari Path,,Madan Bhandari Path,44617,Kathmandu-11,,Kathmandu,Kathmandu,Bagmati Province,Nepal,np,© OpenStreetMap contributors,Open Database License,https://www.openstreetmap.org/copyright
51633054,1112,2019-12-09 16:50:53,27.69269333333333,85.32344833333333,22.59,3.2342758696833593,"Madan Bhandari Path, Kathmandu, Kathmandu 44617, Nepal",27.6934344,85.3219325,Madan Bhandari Path,,Madan Bhandari Path,44617,Kathmandu-11,,Kathmandu,Kathmandu,Bagmati Province,Nepal,np,© OpenStreetMap contributors,Open Database License,https://www.openstreetmap.org/copyright
51633239,1112,2019-12-09 16:51:03,27.688206666666662,85.33561333333333,15.65,29.90547768179289,"Provident Merchant Banking Limited प्रोभिडेन्ट मर्चेन्ट बैंकिङ्ग लिमिटेड, Sankhamul Marg 31, Shankhamul, Kathmandu 44617, Nepal",27.6879494,85.3355248,Provident Merchant Banking Limited प्रोभिडेन्ट मर्चेन्ट बैंकिङ्ग लिमिटेड,31,Sankhamul Marg,44617,Kathmandu-10,Shankhamul,Kathmandu,Kathmandu,Bagmati Province,Nepal,np,© OpenStreetMap contributors,Open Database License,https://www.openstreetmap.org/copyright
51633254,1112,2019-12-09 16:51:04,27.691088333333333,85.32681833333334,25.72,3.010994274616982,"Madan Bhandari Path, Kathmandu, Kathmandu 44617, Nepal",27.6916763,85.3255084,Madan Bhandari Path,,Madan Bhandari Path,44617,Kathmandu-11,,Kathmandu,Kathmandu,Bagmati Province,Nepal,np,© OpenStreetMap contributors,Open Database License,https://www.openstreetmap.org/copyright
51633506,1112,2019-12-09 16:51:20,27.69423,85.32026333333333,18.54,23.777070006214693,"Prabi Law Associates Pvt.Ltd, Thapathali Marg, Thapathali, Kathmandu 44617, Nepal",27.6941769,85.3200294,Prabi Law Associates Pvt.Ltd,,Thapathali Marg,44617,Kathmandu-11,Thapathali,Kathmandu,Kathmandu,Bagmati Province,Nepal,np,© OpenStreetMap contributors,Open Database License,https://www.openstreetmap.org/copyright
51634221,1112,2019-12-09 16:52:04,27.696545,85.32117833333334,23.94,1.5883166215930744,"Ram Shah Path, Bansh Ghari, Kathmandu 00446, Nepal",27.695921,85.321048,Ram Shah Path,,Ram Shah Path,00446,Kathmandu-29,Bansh Ghari,Kathmandu,Kathmandu,Bagmati Province,Nepal,np,© OpenStreetMap contributors,Open Database License,https://www.openstreetmap.org/copyright
51634473,1112,2019-12-09 16:52:20,27.698706666666663,85.320055,30.84,20.369022501710127,"Prithvi Path, Kathmandu, Kathmandu 44066, Nepal",27.698828,85.3199,,,Prithvi Path,44066,,,Kathmandu,Kathmandu,Three,Nepal,np,© OpenStreetMap contributors,Open Database License,https://www.openstreetmap.org/copyright
51658734,1112,2019-12-09 17:17:10,27.698698333333333,85.32048,31.35,1.9706916043353848,"Prithvi Path, Baghbazar, Kathmandu 00446, Nepal",27.698554,85.3213247,Prithvi Path,,Prithvi Path,00446,Kathmandu-28,Baghbazar,Kathmandu,Kathmandu,Bagmati Province,Nepal,np,© OpenStreetMap contributors,Open Database License,https://www.openstreetmap.org/copyright
51659186,1112,2019-12-09 17:17:39,27.696221666666663,85.32114333333334,25.83,2.37048070334605,"Ram Shah Path, Bansh Ghari, Kathmandu 00446, Nepal",27.695921,85.321048,Ram Shah Path,,Ram Shah Path,00446,Kathmandu-29,Bansh Ghari,Kathmandu,Kathmandu,Bagmati Province,Nepal,np,© OpenStreetMap contributors,Open Database License,https://www.openstreetmap.org/copyright
51659669,1112,2019-12-09 17:18:09,27.69436,85.319955,19.38,14.026462284356128,"Janaastha Lawyers Services Pvt.Ltd, Thapathali Marg, Thapathali, Kathmandu 44617, Nepal",27.6942864,85.3198393,Janaastha Lawyers Services Pvt.Ltd,,Thapathali Marg,44617,Kathmandu-11,Thapathali,Kathmandu,Kathmandu,Bagmati Province,Nepal,np,© OpenStreetMap contributors,Open Database License,https://www.openstreetmap.org/copyright
52400420,1112,2019-12-10 05:46:34,27.698543333333333,85.32121666666667,9.31,3.416923133797044,"Prithvi Path, Baghbazar, Kathmandu 00446, Nepal",27.698554,85.3213247,Prithvi Path,,Prithvi Path,00446,Kathmandu-28,Baghbazar,Kathmandu,Kathmandu,Bagmati Province,Nepal,np,© OpenStreetMap contributors,Open Database License,https://www.openstreetmap.org/copyright
52400918,1112,2019-12-10 05:47:03,27.69729,85.32137666666667,15.07,28.609973151124922,"Supreme Court of Nepal, Ram Shah Path, Bansh Ghari, Kathmandu 00446, Nepal",27.696805750000003,85.32174221625255,Supreme Court of Nepal,,Ram Shah Path,00446,Kathmandu-29,Bansh Ghari,Kathmandu,Kathmandu,Bagmati Province,Nepal,np,© OpenStreetMap contributors,Open Database License,https://www.openstreetmap.org/copyright
52401515,1112,2019-12-10 05:47:37,27.695715,85.32103,6.38,2.436231254579661,"Ram Shah Path, Bansh Ghari, Kathmandu 00446, Nepal",27.695921,85.321048,Ram Shah Path,,Ram Shah Path,00446,Kathmandu-29,Bansh Ghari,Kathmandu,Kathmandu,Bagmati Province,Nepal,np,© OpenStreetMap contributors,Open Database License,https://www.openstreetmap.org/copyright
52401938,1112,2019-12-10 05:48:02,27.69453833333333,85.320745,9.77,0.9740803555641879,"Thapathali, Kathmandu 44617, Nepal",27.6945001,85.3207225,,,,44617,Kathmandu-11,Thapathali,Kathmandu,Kathmandu,Bagmati Province,Nepal,np,© OpenStreetMap contributors,Open Database License,https://www.openstreetmap.org/copyright
52402435,1112,2019-12-10 05:48:32,27.694216666666662,85.31949333333333,11.28,6.2883031414419985,"Nepal Food Corporation, Thapathali Road, Thapathali, Kathmandu 44617, Nepal",27.6932088,85.319650891967,Nepal Food Corporation,,Thapathali Road,44617,Kathmandu-11,Thapathali,Kathmandu,Kathmandu,Bagmati Province,Nepal,np,© OpenStreetMap contributors,Open Database License,https://www.openstreetmap.org/copyright
52510356,1112,2019-12-10 07:32:47,27.694325,85.31954333333333,4.01,1.8574680100075203,"Thapathali, Kathmandu 44617, Nepal",27.6942618,85.3194402,,,,44617,Kathmandu-11,Thapathali,Kathmandu,Kathmandu,Bagmati Province,Nepal,np,© OpenStreetMap contributors,Open Database License,https://www.openstreetmap.org/copyright
52510839,1112,2019-12-10 07:33:17,27.69458333333333,85.319945,4.69,0.8585042396449117,"Thapathali, Kathmandu 44617, Nepal",27.6944768,85.3197665,,,,44617,Kathmandu-11,Thapathali,Kathmandu,Kathmandu,Bagmati Province,Nepal,np,© OpenStreetMap contributors,Open Database License,https://www.openstreetmap.org/copyright
52511354,1112,2019-12-10 07:33:47,27.696526666666667,85.31933,22.31,0.368565822203416,"Thapathali, Kathmandu 44617, Nepal",27.6963827,85.3194066,,,,44617,Kathmandu-11,Thapathali,Kathmandu,Kathmandu,Bagmati Province,Nepal,np,© OpenStreetMap contributors,Open Database License,https://www.openstreetmap.org/copyright
53006611,1112,2019-12-10 15:36:19,27.698716666666662,85.32061833333333,24.43,2.912560971050929,"Prithvi Path, Baghbazar, Kathmandu 00446, Nepal",27.698554,85.3213247,Prithvi Path,,Prithvi Path,00446,Kathmandu-28,Baghbazar,Kathmandu,Kathmandu,Bagmati Province,Nepal,np,© OpenStreetMap contributors,Open Database License,https://www.openstreetmap.org/copyright
53007103,1112,2019-12-10 15:36:49,27.70032,85.32196666666667,22.81,6.388876959637727,"City Express Money Transfer, Kathmandu, Kathmandu 44605, Nepal",27.700292,85.32191,City Express Money Transfer,,,44605,,,Kathmandu,Kathmandu,Three,Nepal,np,© OpenStreetMap contributors,Open Database License,https://www.openstreetmap.org/copyright
53007585,1112,2019-12-10 15:37:19,27.7007,85.32366833333333,19.88,18.32967141963095,"Global IME Bank, New Plaza Marg 29, Bansh Ghari, Kathmandu 44605, Nepal",27.700727,85.323852,Global IME Bank,29,New Plaza Marg,44605,Kathmandu-29,Bansh Ghari,Kathmandu,Kathmandu,Bagmati Province,Nepal,np,© OpenStreetMap contributors,Open Database License,https://www.openstreetmap.org/copyright
53008497,1112,2019-12-10 15:38:14,27.700126666666662,85.32575666666666,16.28,9.163944785984507,"Pani Tanki, Tanka Prasad Ghumti Sadak, Bansh Ghari, Kathmandu 00446, Nepal",27.7003456,85.32580343987958,Pani Tanki,,Tanka Prasad Ghumti Sadak,00446,Kathmandu-29,Bansh Ghari,Kathmandu,Kathmandu,Bagmati Province,Nepal,np,© OpenStreetMap contributors,Open Database License,https://www.openstreetmap.org/copyright
53008567,1112,2019-12-10 15:38:18,27.699565,85.32813,11.51,10.005310053539791,"KK meat shop, Tanka Prasad Ghumti Sadak, Bansh Ghari, Kathmandu 00446, Nepal",27.6996047,85.3282212,KK meat shop,,Tanka Prasad Ghumti Sadak,00446,Kathmandu-29,Bansh Ghari,Kathmandu,Kathmandu,Bagmati Province,Nepal,np,© OpenStreetMap contributors,Open Database License,https://www.openstreetmap.org/copyright
53009071,1112,2019-12-10 15:38:48,27.699695,85.32894,0.48,1.2525735733686005,"Ghattekulo, Kathmandu 00446, Nepal",27.699559,85.3287854,,,,00446,Kathmandu-29,Ghattekulo,Kathmandu,Kathmandu,Bagmati Province,Nepal,np,© OpenStreetMap contributors,Open Database License,https://www.openstreetmap.org/copyright
53009556,1112,2019-12-10 15:39:18,27.70063833333333,85.32871333333334,10.87,1.477048693297795,"Ghattekulo, Kathmandu 00446, Nepal",27.7006871,85.3287048,,,,00446,Kathmandu-29,Ghattekulo,Kathmandu,Kathmandu,Bagmati Province,Nepal,np,© OpenStreetMap contributors,Open Database License,https://www.openstreetmap.org/copyright
53010037,1112,2019-12-10 15:39:48,27.701616666666663,85.328265,2.29,0.6940158608588065,"Ghattekulo, Kathmandu 00446, Nepal",27.7013471,85.3289862,,,,00446,Kathmandu-29,Ghattekulo,Kathmandu,Kathmandu,Bagmati Province,Nepal,np,© OpenStreetMap contributors,Open Database License,https://www.openstreetmap.org/copyright
53010539,1112,2019-12-10 15:40:17,27.70258,85.32905,6.2,1.3196173553132835,"Birendra Marg, Ghattekulo, Kathmandu 00446, Nepal",27.7024535,85.3288678,Birendra Marg,,Birendra Marg,00446,Kathmandu-29,Ghattekulo,Kathmandu,Kathmandu,Bagmati Province,Nepal,np,© OpenStreetMap contributors,Open Database License,https://www.openstreetmap.org/copyright
53011051,1112,2019-12-10 15:40:47,27.70323,85.33005666666666,9.89,28.55903029926876,"Naran Dai Tea Shop, Kathmandu, Kathmandu 00446, Nepal",27.703289,85.330339,Naran Dai Tea Shop,,,00446,,,Kathmandu,Kathmandu,Three,Nepal,np,© OpenStreetMap contributors,Open Database License,https://www.openstreetmap.org/copyright
53011547,1112,2019-12-10 15:41:17,27.704465,85.33064333333333,7.49,16.060615026554768,"Bank of Asia, Dillibazar Sadak, Dillibazar, Kathmandu 44605, Nepal",27.7045673,85.3307585,Bank of Asia,,Dillibazar Sadak,44605,Kathmandu-30,Dillibazar,Kathmandu,Kathmandu,Bagmati Province,Nepal,np,© OpenStreetMap contributors,Open Database License,https://www.openstreetmap.org/copyright
53012043,1112,2019-12-10 15:41:47,27.704833333333333,85.32967333333333,13.29,8.89298748286522,"Ncell Shop, Kathmandu, Kathmandu 44605, Nepal",27.704792,85.329596,Ncell Shop,,,44605,,,Kathmandu,Kathmandu,Three,Nepal,np,© OpenStreetMap contributors,Open Database License,https://www.openstreetmap.org/copyright
53012555,1112,2019-12-10 15:42:18,27.705191666666668,85.32931333333333,0.05,14.970262192544794,"Kathmandu Metropolitan Ward 29, Gyaneshwar Marg, Dillibazar, Kathmandu 44605, Nepal",27.7050604,85.32927955286168,Kathmandu Metropolitan Ward 29,,Gyaneshwar Marg,44605,Kathmandu-30,Dillibazar,Kathmandu,Kathmandu,Bagmati Province,Nepal,np,© OpenStreetMap contributors,Open Database License,https://www.openstreetmap.org/copyright
53013041,1112,2019-12-10 15:42:46,27.705345,85.32943166666666,10.53,13.009485611541349,"Bal Bagaicha, Mahakavi Marg, Maitidevi, Kathmandu 44605, Nepal",27.7053181,85.32956027398437,Bal Bagaicha,,Mahakavi Marg,44605,Kathmandu-30,Maitidevi,Kathmandu,Kathmandu,Bagmati Province,Nepal,np,© OpenStreetMap contributors,Open Database License,https://www.openstreetmap.org/copyright
53013590,1112,2019-12-10 15:43:16,27.70649,85.33035833333334,10.51,32.192682485712844,"Mid-Valley International College, Gyaneshwar Marg, Dillibazar, Kathmandu 44605, Nepal",27.70678615,85.3307284406658,Mid-Valley International College,,Gyaneshwar Marg,44605,Kathmandu-30,Dillibazar,Kathmandu,Kathmandu,Bagmati Province,Nepal,np,© OpenStreetMap contributors,Open Database License,https://www.openstreetmap.org/copyright
53014131,1112,2019-12-10 15:43:46,27.707781666666666,85.33135,6.03,1.2677861133226374,"Galaxy Public School, Mahakavi Marg, Maitidevi, Kathmandu 44605, Nepal",27.70752745,85.3305025672373,Galaxy Public School,,Mahakavi Marg,44605,Kathmandu-30,Maitidevi,Kathmandu,Kathmandu,Bagmati Province,Nepal,np,© OpenStreetMap contributors,Open Database License,https://www.openstreetmap.org/copyright
53014636,1112,2019-12-10 15:44:16,27.709246666666665,85.332255,13.49,15.56265925195419,"International Centre for Academics, Kathmandu, Kathmandu 00975, Nepal",27.709242,85.332413,International Centre for Academics,,,00975,,,Kathmandu,Kathmandu,Three,Nepal,np,© OpenStreetMap contributors,Open Database License,https://www.openstreetmap.org/copyright
53015121,1112,2019-12-10 15:44:46,27.710615,85.33320666666667,16.4,19.43558976740519,"Prakash New Generation Motorcycle Workshop, Gyaneshwar Marg, Maitidevi, Kathmandu 00975, Nepal",27.7107895,85.333218,Prakash New Generation Motorcycle Workshop,,Gyaneshwar Marg,00975,Kathmandu-30,Maitidevi,Kathmandu,Kathmandu,Bagmati Province,Nepal,np,© OpenStreetMap contributors,Open Database License,https://www.openstreetmap.org/copyright
54452547,1112,2019-12-11 15:21:52,27.707901666666668,85.319895,6.29,9.504528553443865,"Yasuko International Education Consultancy Pvt.Ltd, Kathmandu, Kathmandu 46000, Nepal",27.70797,85.319953,Yasuko International Education Consultancy Pvt.Ltd,,,46000,,,Kathmandu,Kathmandu,Three,Nepal,np,© OpenStreetMap contributors,Open Database License,https://www.openstreetmap.org/copyright
54453063,1112,2019-12-11 15:22:24,27.708096666666663,85.32177,13.07,6.99003686625493,"Baghbazar, Kathmandu 46000, Nepal",27.708932,85.3219638,,,,46000,Kathmandu-28,Baghbazar,Kathmandu,Kathmandu,Bagmati Province,Nepal,np,© OpenStreetMap contributors,Open Database License,https://www.openstreetmap.org/copyright
54454000,1112,2019-12-11 15:23:21,27.710093333333333,85.32446333333333,16.54,48.72841126440918,"Central Diagnostic Laboratpry, Pashupati Sadak - 3 28, Narayan Chaur, Kathmandu 46000, Nepal",27.7100731,85.3249578,Central Diagnostic Laboratpry,28,Pashupati Sadak - 3,46000,Kathmandu-01,Narayan Chaur,Kathmandu,Kathmandu,Bagmati Province,Nepal,np,© OpenStreetMap contributors,Open Database License,https://www.openstreetmap.org/copyright
54454484,1112,2019-12-11 15:23:51,27.70962,85.32742666666667,16.45,12.439489701279689,"Kathmandu Fast Food, Kathmandu, Kathmandu 44605, Nepal",27.709566,85.327316,Kathmandu Fast Food,,,44605,,,Kathmandu,Kathmandu,Three,Nepal,np,© OpenStreetMap contributors,Open Database License,https://www.openstreetmap.org/copyright
54454990,1112,2019-12-11 15:24:21,27.70905833333333,85.329865,19.43,42.21625991098736,"KRISHNA BOUTIQUE, Radhe Marga 494, Kathmandu, Kathmandu 977, Nepal",27.708931,85.330269,KRISHNA BOUTIQUE,494,Radhe Marga,977,,,Kathmandu,Kathmandu,Three,Nepal,np,© OpenStreetMap contributors,Open Database License,https://www.openstreetmap.org/copyright
54455484,1112,2019-12-11 15:24:51,27.708368333333333,85.33285166666667,18.42,21.1320748817213,"Shrestha Motorcycle House, Pashupati Sadak, Maitidevi, Kathmandu 44605, Nepal",27.7081758,85.33300173384461,Shrestha Motorcycle House,,Pashupati Sadak,44605,Kathmandu-30,Maitidevi,Kathmandu,Kathmandu,Bagmati Province,Nepal,np,© OpenStreetMap contributors,Open Database License,https://www.openstreetmap.org/copyright
54456006,1112,2019-12-11 15:25:24,27.707271666666667,85.33340666666666,13.87,6.45120297134493,"AM/PM Cafe and Bar, Maiti Devi marg, Maitidevi, Kathmandu 44605, Nepal",27.7073033,85.3334616,AM/PM Cafe and Bar,,Maiti Devi marg,44605,Kathmandu-30,Maitidevi,Kathmandu,Kathmandu,Bagmati Province,Nepal,np,© OpenStreetMap contributors,Open Database License,https://www.openstreetmap.org/copyright
54456937,1112,2019-12-11 15:26:20,27.703996666666665,85.33255833333334,5.2,4.98529902045582,"APOLLO POLYCLINIC एपोलो पोलि क्लिनिक ।, Dillibazar Sadak, Dillibazar, Kathmandu 44605, Nepal",27.7040415,85.3325581,APOLLO POLYCLINIC एपोलो पोलि क्लिनिक ।,,Dillibazar Sadak,44605,Kathmandu-30,Dillibazar,Kathmandu,Kathmandu,Bagmati Province,Nepal,np,© OpenStreetMap contributors,Open Database License,https://www.openstreetmap.org/copyright
54457420,1112,2019-12-11 15:26:50,27.704561666666667,85.33071,15.81,4.815607710632505,"Bank of Asia, Dillibazar Sadak, Dillibazar, Kathmandu 44605, Nepal",27.7045673,85.3307585,Bank of Asia,,Dillibazar Sadak,44605,Kathmandu-30,Dillibazar,Kathmandu,Kathmandu,Bagmati Province,Nepal,np,© OpenStreetMap contributors,Open Database License,https://www.openstreetmap.org/copyright
54457903,1112,2019-12-11 15:27:20,27.70485,85.32966833333333,10.53,9.60725590267027,"Ncell Shop, Dillibazar Sadak, Dillibazar, Kathmandu 44605, Nepal",27.7047921,85.3295959,Ncell Shop,,Dillibazar Sadak,44605,Kathmandu-30,Dillibazar,Kathmandu,Kathmandu,Bagmati Province,Nepal,np,© OpenStreetMap contributors,Open Database License,https://www.openstreetmap.org/copyright
54458393,1112,2019-12-11 15:27:50,27.70442333333333,85.32889333333334,11.82,3.307004177877829,"Ghattekulo, Kathmandu 44605, Nepal",27.7040917,85.3298742,,,,44605,Kathmandu-29,Ghattekulo,Kathmandu,Kathmandu,Bagmati Province,Nepal,np,© OpenStreetMap contributors,Open Database License,https://www.openstreetmap.org/copyright
54458876,1112,2019-12-11 15:28:19,27.703121666666668,85.32875166666666,2.87,32.838873964447195,"Tulsi Marg, Kathmandu, Kathmandu 00446, Nepal",27.702963,85.329033,,,Tulsi Marg,00446,,,Kathmandu,Kathmandu,Three,Nepal,np,© OpenStreetMap contributors,Open Database License,https://www.openstreetmap.org/copyright
54459363,1112,2019-12-11 15:28:49,27.702111666666667,85.32824,6.13,3.1070653470390233,"Ghattekulo, Kathmandu 00446, Nepal",27.7033203,85.3286674,,,,00446,Kathmandu-29,Ghattekulo,Kathmandu,Kathmandu,Bagmati Province,Nepal,np,© OpenStreetMap contributors,Open Database License,https://www.openstreetmap.org/copyright
54459856,1112,2019-12-11 15:29:19,27.701608333333333,85.32842166666667,2.71,8.000189131298205,"Ghattekulo, Kathmandu 00446, Nepal",27.7013471,85.3289862,,,,00446,Kathmandu-29,Ghattekulo,Kathmandu,Kathmandu,Bagmati Province,Nepal,np,© OpenStreetMap contributors,Open Database License,https://www.openstreetmap.org/copyright
54460336,1112,2019-12-11 15:29:49,27.700701666666667,85.32879833333334,10.03,8.984425965450782,"Ghattekulo, Kathmandu 00446, Nepal",27.7006871,85.3287048,,,,00446,Kathmandu-29,Ghattekulo,Kathmandu,Kathmandu,Bagmati Province,Nepal,np,© OpenStreetMap contributors,Open Database License,https://www.openstreetmap.org/copyright
54460826,1112,2019-12-11 15:30:19,27.699826666666667,85.329025,0.24,4.132611107427082,"Ghattekulo, Kathmandu 00446, Nepal",27.7006871,85.3287048,,,,00446,Kathmandu-29,Ghattekulo,Kathmandu,Kathmandu,Bagmati Province,Nepal,np,© OpenStreetMap contributors,Open Database License,https://www.openstreetmap.org/copyright
54461798,1112,2019-12-11 15:31:18,27.700105,85.32559666666667,16.36,18.41031588179264,"Pani Tanki, Tanka Prasad Ghumti Sadak, Bansh Ghari, Kathmandu 00446, Nepal",27.7003456,85.32580343987958,Pani Tanki,,Tanka Prasad Ghumti Sadak,00446,Kathmandu-29,Bansh Ghari,Kathmandu,Kathmandu,Bagmati Province,Nepal,np,© OpenStreetMap contributors,Open Database License,https://www.openstreetmap.org/copyright
54462774,1112,2019-12-11 15:32:18,27.701643333333333,85.32193666666667,15.83,8.230287895029166,"Jayswal Fastfood, Kathmandu, Kathmandu 44605, Nepal",27.70157,85.321948,Jayswal Fastfood,,,44605,,,Kathmandu,Kathmandu,Three,Nepal,np,© OpenStreetMap contributors,Open Database License,https://www.openstreetmap.org/copyright
54497623,1112,2019-12-11 16:08:02,27.71108,85.32828833333333,18.87,9.444598855792043,"Gurung Cafee, Thirbam Sadak 3, Narayan Chaur, Kathmandu 44605, Nepal",27.711069,85.3281932,Gurung Cafee,,Thirbam Sadak 3,44605,Kathmandu-01,Narayan Chaur,Kathmandu,Kathmandu,Bagmati Province,Nepal,np,© OpenStreetMap contributors,Open Database License,https://www.openstreetmap.org/copyright
54498129,1112,2019-12-11 16:08:32,27.709035,85.32770333333333,19.83,6.979707799256774,"Siddhi Binayak Mandir, Kathmandu, Kathmandu 44605, Nepal",27.709086,85.327662,Siddhi Binayak Mandir,,,44605,,,Kathmandu,Kathmandu,Three,Nepal,np,© OpenStreetMap contributors,Open Database License,https://www.openstreetmap.org/copyright
54498634,1112,2019-12-11 16:09:02,27.70677166666667,85.32714166666666,9.34,46.77069907898506,"Thirbam Sadak 3, Kathmandu, Kathmandu 44605, Nepal",27.706936,85.327579,,,Thirbam Sadak 3,44605,,,Kathmandu,Kathmandu,Three,Nepal,np,© OpenStreetMap contributors,Open Database License,https://www.openstreetmap.org/copyright
54499143,1112,2019-12-11 16:09:32,27.70536333333333,85.32654,14.41,7.8121260550426035,"Friends Optical, Dillibazar Sadak, Ghattekulo, Kathmandu 44605, Nepal",27.705431249999997,85.32664962863288,Friends Optical,,Dillibazar Sadak,44605,Kathmandu-30,Ghattekulo,Kathmandu,Kathmandu,Bagmati Province,Nepal,np,© OpenStreetMap contributors,Open Database License,https://www.openstreetmap.org/copyright
54499625,1112,2019-12-11 16:10:02,27.705625,85.323775,18.62,28.673186566839565,"Punya Mansion, Dilli Bazaar Road 33, Kathmandu, Kathmandu 00977, Nepal",27.705795,85.323994,Punya Mansion,33,Dilli Bazaar Road,00977,,,Kathmandu,Kathmandu,Three,Nepal,np,© OpenStreetMap contributors,Open Database License,https://www.openstreetmap.org/copyright
54500105,1112,2019-12-11 16:10:31,27.703966666666663,85.32269833333334,25.93,2.698899187524008,"Office Trade Link, Hiuwa Galli, Bansh Ghari, Kathmandu 44605, Nepal",27.7039681,85.3227257,Office Trade Link,,Hiuwa Galli,44605,Kathmandu-29,Bansh Ghari,Kathmandu,Kathmandu,Bagmati Province,Nepal,np,© OpenStreetMap contributors,Open Database License,https://www.openstreetmap.org/copyright
54500582,1112,2019-12-11 16:11:01,27.701695,85.322285,4.79,7.035457312895695,"Laxmi Plaza, Putali Sadak, Bansh Ghari, Kathmandu 46600, Nepal",27.7016532,85.32245828207485,Laxmi Plaza,,Putali Sadak,46600,Kathmandu-29,Bansh Ghari,Kathmandu,Kathmandu,Bagmati Province,Nepal,np,© OpenStreetMap contributors,Open Database License,https://www.openstreetmap.org/copyright
54501070,1112,2019-12-11 16:11:31,27.70199833333333,85.31936166666667,25.94,3.437636899042058,"Nepal Law Campus, Exhibition Road, Baghbazar, Kathmandu 44605, Nepal",27.7025033,85.31945292669938,Nepal Law Campus,,Exhibition Road,44605,Kathmandu-28,Baghbazar,Kathmandu,Kathmandu,Bagmati Province,Nepal,np,© OpenStreetMap contributors,Open Database License,https://www.openstreetmap.org/copyright
54537060,1112,2019-12-11 16:48:15,27.698038333333333,85.32154833333334,20.66,19.01765837469891,"Office of the Attorney General, Ram Shah Path, Bansh Ghari, Kathmandu 00446, Nepal",27.69790675,85.32176045718202,Office of the Attorney General,,Ram Shah Path,00446,Kathmandu-29,Bansh Ghari,Kathmandu,Kathmandu,Bagmati Province,Nepal,np,© OpenStreetMap contributors,Open Database License,https://www.openstreetmap.org/copyright
54537607,1112,2019-12-11 16:48:49,27.69476,85.32080833333333,22.59,1.815253030757278,"Thapathali, Kathmandu 44617, Nepal",27.6949897,85.3208456,,,,44617,Kathmandu-11,Thapathali,Kathmandu,Kathmandu,Bagmati Province,Nepal,np,© OpenStreetMap contributors,Open Database License,https://www.openstreetmap.org/copyright
54538029,1112,2019-12-11 16:49:15,27.69336333333333,85.318855,22.54,11.88288292301316,"Kasapasa Sports Center, Trade Tower Road, Thapathali, Kathmandu 00779, Nepal",27.6932593,85.3188274,Kasapasa Sports Center,,Trade Tower Road,00779,Kathmandu-11,Thapathali,Kathmandu,Kathmandu,Bagmati Province,Nepal,np,© OpenStreetMap contributors,Open Database License,https://www.openstreetmap.org/copyright
54543335,1112,2019-12-11 16:54:43,27.694841666666665,85.32053166666667,14.89,3.8355425882631504,"Thapathali, Kathmandu 44617, Nepal",27.6948318,85.3207072,,,,44617,Kathmandu-11,Thapathali,Kathmandu,Kathmandu,Bagmati Province,Nepal,np,© OpenStreetMap contributors,Open Database License,https://www.openstreetmap.org/copyright
54543824,1112,2019-12-11 16:55:12,27.693241666666665,85.32243166666666,26.51,21.486338997556746,"उक्टी मार्गा, Kathmandu, Kathmandu 44617, Nepal",27.693049,85.322415,,,उक्टी मार्गा,44617,,,Kathmandu,Kathmandu,Three,Nepal,np,© OpenStreetMap contributors,Open Database License,https://www.openstreetmap.org/copyright
54544308,1112,2019-12-11 16:55:42,27.69123833333333,85.326645,32.25,23.028105516467637,"Nepal Telecom, Madan Bhandari Path, Kathmandu, Kathmandu 44617, Nepal",27.691415749999997,85.32694386086273,Nepal Telecom,,Madan Bhandari Path,44617,Kathmandu-11,,Kathmandu,Kathmandu,Bagmati Province,Nepal,np,© OpenStreetMap contributors,Open Database License,https://www.openstreetmap.org/copyright
54544780,1112,2019-12-11 16:56:12,27.689515,85.33041833333333,26.91,32.07907726050966,"Krishna Tower, Madan Bhandari Path, Buddha Nagar, Kathmandu 44617, Nepal",27.6897983,85.3306423028088,Krishna Tower,,Madan Bhandari Path,44617,Kathmandu-10,Buddha Nagar,Kathmandu,Kathmandu,Bagmati Province,Nepal,np,© OpenStreetMap contributors,Open Database License,https://www.openstreetmap.org/copyright
54545288,1112,2019-12-11 16:56:42,27.688581666666668,85.33431333333333,18.94,24.373427577999873,"The Bakery Cafe, ChhakkuBakku Marg, Buddha Nagar, Kathmandu 44617, Nepal",27.6887754,85.3344291313471,The Bakery Cafe,,ChhakkuBakku Marg,44617,Kathmandu-10,Buddha Nagar,Kathmandu,Kathmandu,Bagmati Province,Nepal,np,© OpenStreetMap contributors,Open Database License,https://www.openstreetmap.org/copyright
54545796,1112,2019-12-11 16:57:12,27.687855,85.33749833333333,29.0,0.5181896237287669,"Madan Bhandari Path, Minbhawan, Kathmandu 44617, Nepal",27.6879663,85.3369901,Madan Bhandari Path,,Madan Bhandari Path,44617,Kathmandu-31,Minbhawan,Kathmandu,Kathmandu,Bagmati Province,Nepal,np,© OpenStreetMap contributors,Open Database License,https://www.openstreetmap.org/copyright
55838205,1112,2019-12-12 14:27:30,27.71002,85.31904333333334,8.67,12.031560557514352,"Rising Mall, Tindhara Sadak, Narayan Chaur, Kathmandu 66400, Nepal",27.70974195,85.31915707249568,Rising Mall,,Tindhara Sadak,66400,Kathmandu-01,Narayan Chaur,Kathmandu,Kathmandu,Bagmati Province,Nepal,np,© OpenStreetMap contributors,Open Database License,https://www.openstreetmap.org/copyright
55838724,1112,2019-12-12 14:28:00,27.709861666666665,85.32070166666666,12.38,103.7981676402849,"Heavy Help Link Pvt. Ltd, Athak Marga 90, Kathmandu, Kathmandu 66400, Nepal",27.710728,85.320309,Heavy Help Link Pvt. Ltd,90,Athak Marga,66400,,,Kathmandu,Kathmandu,Three,Nepal,np,© OpenStreetMap contributors,Open Database License,https://www.openstreetmap.org/copyright
55839401,1112,2019-12-12 14:28:39,27.710093333333333,85.322085,10.0,11.754360013444838,"China Southern, Kathmandu, Kathmandu 46000, Nepal",27.710171,85.322004,China Southern,,,46000,,,Kathmandu,Kathmandu,Three,Nepal,np,© OpenStreetMap contributors,Open Database License,https://www.openstreetmap.org/copyright
55839767,1112,2019-12-12 14:29:00,27.71015833333333,85.32424833333333,16.3,8.58257591795117,"Sashi Plumbing, Pashupati Sadak - 3, Narayan Chaur, Kathmandu 46000, Nepal",27.7102328,85.3242254,Sashi Plumbing,,Pashupati Sadak - 3,46000,Kathmandu-01,Narayan Chaur,Kathmandu,Kathmandu,Bagmati Province,Nepal,np,© OpenStreetMap contributors,Open Database License,https://www.openstreetmap.org/copyright
55840283,1112,2019-12-12 14:29:29,27.709881666666668,85.326485,10.38,20.6226148467573,"Mazda, Pashupati Sadak, Narayan Chaur, Kathmandu 44605, Nepal",27.7098322,85.3266869,Mazda,,Pashupati Sadak,44605,Kathmandu-01,Narayan Chaur,Kathmandu,Kathmandu,Bagmati Province,Nepal,np,© OpenStreetMap contributors,Open Database License,https://www.openstreetmap.org/copyright
55840811,1112,2019-12-12 14:29:59,27.70946,85.32828166666667,14.07,10.69938168570172,"The Burger House & Crunchy Fried Chicken, Kathmandu, Kathmandu 44605, Nepal",27.709379,85.328223,The Burger House & Crunchy Fried Chicken,,,44605,,,Kathmandu,Kathmandu,Three,Nepal,np,© OpenStreetMap contributors,Open Database License,https://www.openstreetmap.org/copyright
55841328,1112,2019-12-12 14:30:29,27.708901666666662,85.33081833333334,17.38,11.697904699394684,"Danphe Energy Pvt. Ltd., Devi marg, Dillibazar, Kathmandu 44605, Nepal",27.70900685,85.33082055,Danphe Energy Pvt. Ltd.,,Devi marg,44605,Kathmandu-30,Dillibazar,Kathmandu,Kathmandu,Bagmati Province,Nepal,np,© OpenStreetMap contributors,Open Database License,https://www.openstreetmap.org/copyright
55841918,1112,2019-12-12 14:31:01,27.70826333333333,85.33320833333333,14.42,10.222109071407925,"Subidha Travel, Pashupati Marga, Kathmandu, Kathmandu 44605, Nepal",27.708218,85.333118,Subidha Travel,,Pashupati Marga,44605,,,Kathmandu,Kathmandu,Three,Nepal,np,© OpenStreetMap contributors,Open Database License,https://www.openstreetmap.org/copyright
55842394,1112,2019-12-12 14:31:28,27.708133333333333,85.33619,18.62,5.253039753388485,"Nikunj store, Pashupati Sadak, Maitidevi, Kathmandu 44605, Nepal",27.70818,85.3361983,Nikunj store,,Pashupati Sadak,44605,Kathmandu-30,Maitidevi,Kathmandu,Kathmandu,Bagmati Province,Nepal,np,© OpenStreetMap contributors,Open Database License,https://www.openstreetmap.org/copyright
55842938,1112,2019-12-12 14:31:58,27.708023333333333,85.33825,18.15,10.592547364241682,"Maharajan Stores and Gift Shop, Kathmandu, Kathmandu 44660, Nepal",27.708118,85.338238,Maharajan Stores and Gift Shop,,,44660,,,Kathmandu,Kathmandu,Three,Nepal,np,© OpenStreetMap contributors,Open Database License,https://www.openstreetmap.org/copyright
55897590,1112,2019-12-12 15:24:06,27.698845,85.31994,21.05,2.719334134813363,"Prithvi Path, Baghbazar, Kathmandu 44605, Nepal",27.6988499,85.3197807,Prithvi Path,,Prithvi Path,44605,Kathmandu-28,Baghbazar,Kathmandu,Kathmandu,Bagmati Province,Nepal,np,© OpenStreetMap contributors,Open Database License,https://www.openstreetmap.org/copyright
55898101,1112,2019-12-12 15:24:36,27.699645,85.32183833333333,22.05,7.9866115724474325,"Quality Books And Stationery, Kathmandu, Kathmandu 44605, Nepal",27.69963,85.321759,Quality Books And Stationery,,,44605,,,Kathmandu,Kathmandu,Three,Nepal,np,© OpenStreetMap contributors,Open Database License,https://www.openstreetmap.org/copyright
55898618,1112,2019-12-12 15:25:05,27.700838333333333,85.323015,17.8,7.213398416830214,"Fly Tech International Air hostess Academy, Tanka Prasad Ghumti Sadak, Bansh Ghari, Kathmandu 44605, Nepal",27.70096625,85.32297104428962,Fly Tech International Air hostess Academy,,Tanka Prasad Ghumti Sadak,44605,Kathmandu-29,Bansh Ghari,Kathmandu,Kathmandu,Bagmati Province,Nepal,np,© OpenStreetMap contributors,Open Database License,https://www.openstreetmap.org/copyright
55899150,1112,2019-12-12 15:25:35,27.700181666666666,85.32528333333333,16.28,18.192042115451496,"Office of the Auditor General, Anamnagar, Tanka Prasad Ghumti Sadak, Bansh Ghari, Kathmandu 00446, Nepal",27.700381399999998,85.32518350620504,"Office of the Auditor General, Anamnagar",,Tanka Prasad Ghumti Sadak,00446,Kathmandu-29,Bansh Ghari,Kathmandu,Kathmandu,Bagmati Province,Nepal,np,© OpenStreetMap contributors,Open Database License,https://www.openstreetmap.org/copyright
55899662,1112,2019-12-12 15:26:05,27.69956833333333,85.32816,17.25,7.256438805601796,"KK meat shop, Tanka Prasad Ghumti Sadak, Bansh Ghari, Kathmandu 00446, Nepal",27.6996047,85.3282212,KK meat shop,,Tanka Prasad Ghumti Sadak,00446,Kathmandu-29,Bansh Ghari,Kathmandu,Kathmandu,Bagmati Province,Nepal,np,© OpenStreetMap contributors,Open Database License,https://www.openstreetmap.org/copyright
55900178,1112,2019-12-12 15:26:35,27.699651666666668,85.32891,0.23,2.65236923276187,"Ghattekulo, Kathmandu 00446, Nepal",27.699559,85.3287854,,,,00446,Kathmandu-29,Ghattekulo,Kathmandu,Kathmandu,Bagmati Province,Nepal,np,© OpenStreetMap contributors,Open Database License,https://www.openstreetmap.org/copyright
55900690,1112,2019-12-12 15:27:04,27.699841666666668,85.32904333333333,5.52,5.594788600569402,"Ghattekulo, Kathmandu 00446, Nepal",27.7006871,85.3287048,,,,00446,Kathmandu-29,Ghattekulo,Kathmandu,Kathmandu,Bagmati Province,Nepal,np,© OpenStreetMap contributors,Open Database License,https://www.openstreetmap.org/copyright
55901203,1112,2019-12-12 15:27:34,27.70074,85.32871,10.88,3.0428955832068674,"Ghattekulo, Kathmandu 00446, Nepal",27.7006871,85.3287048,,,,00446,Kathmandu-29,Ghattekulo,Kathmandu,Kathmandu,Bagmati Province,Nepal,np,© OpenStreetMap contributors,Open Database License,https://www.openstreetmap.org/copyright
55901719,1112,2019-12-12 15:28:04,27.701535,85.328385,4.65,0.8194705773069343,"Ghattekulo, Kathmandu 00446, Nepal",27.7013471,85.3289862,,,,00446,Kathmandu-29,Ghattekulo,Kathmandu,Kathmandu,Bagmati Province,Nepal,np,© OpenStreetMap contributors,Open Database License,https://www.openstreetmap.org/copyright
55902226,1112,2019-12-12 15:28:34,27.70172833333333,85.32831,5.02,12.562619800186157,"Ganesh Temple, Birendra Marga, Ghattekulo, Kathmandu 00446, Nepal",27.7017756,85.3281941,Ganesh Temple,,Birendra Marga,00446,Kathmandu-29,Ghattekulo,Kathmandu,Kathmandu,Bagmati Province,Nepal,np,© OpenStreetMap contributors,Open Database License,https://www.openstreetmap.org/copyright
55902745,1112,2019-12-12 15:29:04,27.702746666666663,85.32934166666666,7.47,0.15940791719634764,"Birendra Marg, Ghattekulo, Kathmandu 00446, Nepal",27.7024535,85.3288678,Birendra Marg,,Birendra Marg,00446,Kathmandu-29,Ghattekulo,Kathmandu,Kathmandu,Bagmati Province,Nepal,np,© OpenStreetMap contributors,Open Database License,https://www.openstreetmap.org/copyright
55903259,1112,2019-12-12 15:29:34,27.70343,85.33035166666667,9.36,2.0533939807592603,"Suryodaya Jyoti Awasiya English Boarding School, Birendra Marg, Ghattekulo, Kathmandu 00446, Nepal",27.70357285,85.33032662590956,Suryodaya Jyoti Awasiya English Boarding School,,Birendra Marg,00446,Kathmandu-29,Ghattekulo,Kathmandu,Kathmandu,Bagmati Province,Nepal,np,© OpenStreetMap contributors,Open Database License,https://www.openstreetmap.org/copyright
55903767,1112,2019-12-12 15:30:03,27.704305,85.33068833333333,6.7,2.6752399072771613,"Ghattekulo, Kathmandu 00446, Nepal",27.7037706,85.3305005,,,,00446,Kathmandu-29,Ghattekulo,Kathmandu,Kathmandu,Bagmati Province,Nepal,np,© OpenStreetMap contributors,Open Database License,https://www.openstreetmap.org/copyright
55904273,1112,2019-12-12 15:30:33,27.704695,85.33016,6.49,38.46236308439292,"Nevolution Tech Pvt. Ltd., Dillibazar Sadak, Dillibazar, Kathmandu 44605, Nepal",27.7045265,85.3305012,Nevolution Tech Pvt. Ltd.,,Dillibazar Sadak,44605,Kathmandu-30,Dillibazar,Kathmandu,Kathmandu,Bagmati Province,Nepal,np,© OpenStreetMap contributors,Open Database License,https://www.openstreetmap.org/copyright
55904792,1112,2019-12-12 15:31:03,27.705366666666663,85.329475,12.54,9.981931221336469,"Bal Bagaicha, Mahakavi Marg, Maitidevi, Kathmandu 44605, Nepal",27.7053181,85.32956027398437,Bal Bagaicha,,Mahakavi Marg,44605,Kathmandu-30,Maitidevi,Kathmandu,Kathmandu,Bagmati Province,Nepal,np,© OpenStreetMap contributors,Open Database License,https://www.openstreetmap.org/copyright
55905293,1112,2019-12-12 15:31:33,27.706476666666667,85.33038,11.22,31.925493806657137,"Mid-Valley International College, Gyaneshwar Marg, Dillibazar, Kathmandu 44605, Nepal",27.70678615,85.3307284406658,Mid-Valley International College,,Gyaneshwar Marg,44605,Kathmandu-30,Dillibazar,Kathmandu,Kathmandu,Bagmati Province,Nepal,np,© OpenStreetMap contributors,Open Database License,https://www.openstreetmap.org/copyright
55905830,1112,2019-12-12 15:32:03,27.707725,85.33137,10.25,0,"Galaxy Public School, Mahakavi Marg, Maitidevi, Kathmandu 44605, Nepal",27.70752745,85.3305025672373,Galaxy Public School,,Mahakavi Marg,44605,Kathmandu-30,Maitidevi,Kathmandu,Kathmandu,Bagmati Province,Nepal,np,© OpenStreetMap contributors,Open Database License,https://www.openstreetmap.org/copyright
55906329,1112,2019-12-12 15:32:32,27.70903,85.33210666666666,14.23,0.6562258165200164,"Maitidevi, Kathmandu 44605, Nepal",27.7086839,85.3318427,,,,44605,Kathmandu-30,Maitidevi,Kathmandu,Kathmandu,Bagmati Province,Nepal,np,© OpenStreetMap contributors,Open Database License,https://www.openstreetmap.org/copyright
55906847,1112,2019-12-12 15:33:02,27.711068333333333,85.333535,14.98,34.22248988011196,"Bank of Kathmandu Ltd, Kathmandu, Kathmandu 00975, Nepal",27.711376,85.333526,Bank of Kathmandu Ltd,,,00975,,,Kathmandu,Kathmandu,Three,Nepal,np,© OpenStreetMap contributors,Open Database License,https://www.openstreetmap.org/copyright
56009706,1112,2019-12-12 17:12:46,27.694288333333333,85.31951166666667,25.31,8.267550868091824,"Thapathali Engineering Campus, Thapathali Road, Thapathali, Kathmandu 44617, Nepal",27.694567499999998,85.3189885018991,Thapathali Engineering Campus,,Thapathali Road,44617,Kathmandu-11,Thapathali,Kathmandu,Kathmandu,Bagmati Province,Nepal,np,© OpenStreetMap contributors,Open Database License,https://www.openstreetmap.org/copyright
56010160,1112,2019-12-12 17:13:13,27.697165,85.32130333333333,33.36,33.54199339391568,"Supreme Court of Nepal, Ram Shah Path, Bansh Ghari, Kathmandu 00446, Nepal",27.696805750000003,85.32174221625255,Supreme Court of Nepal,,Ram Shah Path,00446,Kathmandu-29,Bansh Ghari,Kathmandu,Kathmandu,Bagmati Province,Nepal,np,© OpenStreetMap contributors,Open Database License,https://www.openstreetmap.org/copyright
56010600,1112,2019-12-12 17:13:39,27.70047,85.32202833333334,29.48,9.285137071117838,"Laxman Pustak Bhandar, Kathmandu, Kathmandu 44605, Nepal",27.700458,85.321935,Laxman Pustak Bhandar,,,44605,,,Kathmandu,Kathmandu,Three,Nepal,np,© OpenStreetMap contributors,Open Database License,https://www.openstreetmap.org/copyright
56011110,1112,2019-12-12 17:14:09,27.70427833333333,85.32263,32.62,2.6479401448515665,"Manjushree Recording Studio, Kathmandu, Kathmandu 46600, Nepal",27.704258,85.322616,Manjushree Recording Studio,,,46600,,,Kathmandu,Kathmandu,Three,Nepal,np,© OpenStreetMap contributors,Open Database License,https://www.openstreetmap.org/copyright
56011618,1112,2019-12-12 17:14:39,27.70722333333333,85.322455,26.98,0.5222613140590432,"Ielts Center Nepal, Putali Sadak, Narayan Chaur, Kathmandu 46000, Nepal",27.707228,85.3224544,Ielts Center Nepal,,Putali Sadak,46000,Kathmandu-28,Narayan Chaur,Kathmandu,Kathmandu,Bagmati Province,Nepal,np,© OpenStreetMap contributors,Open Database License,https://www.openstreetmap.org/copyright
56012125,1112,2019-12-12 17:15:08,27.71006833333333,85.322105,17.45,9.77011361791214,"श्री हरी स्क्युरिटिज प्रा. लि, Tin Dhara Sadak, Narayan Chaur, Kathmandu 46000, Nepal",27.71004865,85.32227960375565,श्री हरी स्क्युरिटिज प्रा. लि,,Tin Dhara Sadak,46000,Kathmandu-01,Narayan Chaur,Kathmandu,Kathmandu,Bagmati Province,Nepal,np,© OpenStreetMap contributors,Open Database License,https://www.openstreetmap.org/copyright
56819545,1112,2019-12-13 05:58:26,27.698875,85.31955333333333,12.94,34.527992127618475,"Prithvi Path, Kathmandu, Kathmandu 44066, Nepal",27.698828,85.3199,,,Prithvi Path,44066,,,Kathmandu,Kathmandu,Three,Nepal,np,© OpenStreetMap contributors,Open Database License,https://www.openstreetmap.org/copyright
56820098,1112,2019-12-13 05:58:56,27.698641666666667,85.32071166666667,5.62,3.2863475086386504,"Prithvi Path, Baghbazar, Kathmandu 00446, Nepal",27.698554,85.3213247,Prithvi Path,,Prithvi Path,00446,Kathmandu-28,Baghbazar,Kathmandu,Kathmandu,Bagmati Province,Nepal,np,© OpenStreetMap contributors,Open Database License,https://www.openstreetmap.org/copyright
56820650,1112,2019-12-13 05:59:25,27.698365,85.32156,0.16,2.0436862083704246,"Ram Shah Path, Kathmandu, Kathmandu 00446, Nepal",27.6982599,85.3215173,Ram Shah Path,,Ram Shah Path,00446,Kathmandu-11,,Kathmandu,Kathmandu,Bagmati Province,Nepal,np,© OpenStreetMap contributors,Open Database License,https://www.openstreetmap.org/copyright
56821188,1112,2019-12-13 05:59:55,27.697938333333333,85.321525,9.67,17.170928268729334,"Office of the Attorney General, Ram Shah Path, Bansh Ghari, Kathmandu 00446, Nepal",27.69790675,85.32176045718202,Office of the Attorney General,,Ram Shah Path,00446,Kathmandu-29,Bansh Ghari,Kathmandu,Kathmandu,Bagmati Province,Nepal,np,© OpenStreetMap contributors,Open Database License,https://www.openstreetmap.org/copyright
56821719,1112,2019-12-13 06:00:25,27.69713833333333,85.32136,0.11,2.431296388754535,"Singh Durbar, Saras Marg, Ghattekulo, Kathmandu 00446, Nepal",27.696478149999997,85.32461913495442,Singh Durbar,,Saras Marg,00446,Kathmandu-29,Ghattekulo,Kathmandu,Kathmandu,Bagmati Province,Nepal,np,© OpenStreetMap contributors,Open Database License,https://www.openstreetmap.org/copyright
56822247,1112,2019-12-13 06:00:54,27.696266666666663,85.32117166666667,8.55,1.600585138948443,"Singh Durbar, Saras Marg, Ghattekulo, Kathmandu 00446, Nepal",27.696478149999997,85.32461913495442,Singh Durbar,,Saras Marg,00446,Kathmandu-29,Ghattekulo,Kathmandu,Kathmandu,Bagmati Province,Nepal,np,© OpenStreetMap contributors,Open Database License,https://www.openstreetmap.org/copyright
56822774,1112,2019-12-13 06:01:24,27.695578333333334,85.32102333333333,0.05,0.9071137962138148,"Singh Durbar, Saras Marg, Ghattekulo, Kathmandu 00446, Nepal",27.696478149999997,85.32461913495442,Singh Durbar,,Saras Marg,00446,Kathmandu-29,Ghattekulo,Kathmandu,Kathmandu,Bagmati Province,Nepal,np,© OpenStreetMap contributors,Open Database License,https://www.openstreetmap.org/copyright
56823300,1112,2019-12-13 06:01:54,27.69555,85.32101,0.08,1.5762832984176587,"Singh Durbar, Saras Marg, Ghattekulo, Kathmandu 00446, Nepal",27.696478149999997,85.32461913495442,Singh Durbar,,Saras Marg,00446,Kathmandu-29,Ghattekulo,Kathmandu,Kathmandu,Bagmati Province,Nepal,np,© OpenStreetMap contributors,Open Database License,https://www.openstreetmap.org/copyright
56823838,1112,2019-12-13 06:02:24,27.694746666666667,85.3208,9.45,1.3268753033285448,"Thapathali, Kathmandu 44617, Nepal",27.6949897,85.3208456,,,,44617,Kathmandu-11,Thapathali,Kathmandu,Kathmandu,Bagmati Province,Nepal,np,© OpenStreetMap contributors,Open Database License,https://www.openstreetmap.org/copyright
56824419,1112,2019-12-13 06:02:56,27.693885,85.31923166666667,11.0,5.801491766200921,"Nepal Food Corporation, Thapathali Road, Thapathali, Kathmandu 44617, Nepal",27.6932088,85.319650891967,Nepal Food Corporation,,Thapathali Road,44617,Kathmandu-11,Thapathali,Kathmandu,Kathmandu,Bagmati Province,Nepal,np,© OpenStreetMap contributors,Open Database License,https://www.openstreetmap.org/copyright
56906210,1112,2019-12-13 07:17:54,27.693675,85.31892666666667,4.74,19.440322918679215,"Sunita Chamena House, Thapathali Road, Thapathali, Kathmandu 00779, Nepal",27.693681,85.319124,Sunita Chamena House,,Thapathali Road,00779,Kathmandu-11,Thapathali,Kathmandu,Kathmandu,Bagmati Province,Nepal,np,© OpenStreetMap contributors,Open Database License,https://www.openstreetmap.org/copyright
56906769,1112,2019-12-13 07:18:22,27.694276666666667,85.31942333333333,5.97,2.3431702542922883,"Thapathali, Kathmandu 44617, Nepal",27.6942618,85.3194402,,,,44617,Kathmandu-11,Thapathali,Kathmandu,Kathmandu,Bagmati Province,Nepal,np,© OpenStreetMap contributors,Open Database License,https://www.openstreetmap.org/copyright
56907316,1112,2019-12-13 07:18:51,27.69472333333333,85.32014833333334,8.34,3.6011761087854244,"Thapathali, Kathmandu 44617, Nepal",27.6944768,85.3197665,,,,44617,Kathmandu-11,Thapathali,Kathmandu,Kathmandu,Bagmati Province,Nepal,np,© OpenStreetMap contributors,Open Database License,https://www.openstreetmap.org/copyright
56907858,1112,2019-12-13 07:19:21,27.695936666666668,85.31968,22.31,3.6060130318039105,"Thapathali, Kathmandu 44617, Nepal",27.6963827,85.3194066,,,,44617,Kathmandu-11,Thapathali,Kathmandu,Kathmandu,Bagmati Province,Nepal,np,© OpenStreetMap contributors,Open Database License,https://www.openstreetmap.org/copyright
57432193,1112,2019-12-13 15:28:20,27.698855,85.32166833333333,18.92,8.832916900211387,"Mulkharka Bhimsen Driving Center, Ram Shah Path, Baghbazar, Kathmandu 44605, Nepal",27.6989,85.3215944,Mulkharka Bhimsen Driving Center,,Ram Shah Path,44605,Kathmandu-28,Baghbazar,Kathmandu,Kathmandu,Bagmati Province,Nepal,np,© OpenStreetMap contributors,Open Database License,https://www.openstreetmap.org/copyright
57432706,1112,2019-12-13 15:28:50,27.70099833333333,85.32222,7.74,21.13261102187514,"Deoch an Doris, Kathmandu, Kathmandu 44605, Nepal",27.701161,85.322331,,,Deoch an Doris,44605,,,Kathmandu,Kathmandu,Three,Nepal,np,© OpenStreetMap contributors,Open Database License,https://www.openstreetmap.org/copyright
57433305,1112,2019-12-13 15:29:24,27.70109666666667,85.32432833333333,17.64,1.6350903265041312,"Bansh Ghari, Kathmandu 44605, Nepal",27.7027871,85.3262118,,,,44605,Kathmandu-29,Bansh Ghari,Kathmandu,Kathmandu,Bagmati Province,Nepal,np,© OpenStreetMap contributors,Open Database License,https://www.openstreetmap.org/copyright
57433734,1112,2019-12-13 15:29:50,27.701666666666668,85.32595166666667,12.59,46.32920138018829,"Kalika Marg 272/40, Kathmandu, Kathmandu Kathmandu - 32, Nepal",27.701902,85.32634,,272/40,Kalika Marg,Kathmandu - 32,,,Kathmandu,Kathmandu,Three,Nepal,np,© OpenStreetMap contributors,Open Database License,https://www.openstreetmap.org/copyright
57434234,1112,2019-12-13 15:30:19,27.70179333333333,85.32766,9.31,1.1078545764482326,"Ghattekulo, Kathmandu 00446, Nepal",27.7011748,85.3270014,,,,00446,Kathmandu-29,Ghattekulo,Kathmandu,Kathmandu,Bagmati Province,Nepal,np,© OpenStreetMap contributors,Open Database License,https://www.openstreetmap.org/copyright
57434745,1112,2019-12-13 15:30:49,27.702855,85.328535,9.64,2.3585338459726115,"Ghattekulo, Kathmandu 00446, Nepal",27.7033203,85.3286674,,,,00446,Kathmandu-29,Ghattekulo,Kathmandu,Kathmandu,Bagmati Province,Nepal,np,© OpenStreetMap contributors,Open Database License,https://www.openstreetmap.org/copyright
57435247,1112,2019-12-13 15:31:19,27.70396,85.32866333333334,14.62,0.9689678275285876,"Ghattekulo, Kathmandu 00446, Nepal",27.7033203,85.3286674,,,,00446,Kathmandu-29,Ghattekulo,Kathmandu,Kathmandu,Bagmati Province,Nepal,np,© OpenStreetMap contributors,Open Database License,https://www.openstreetmap.org/copyright
57435745,1112,2019-12-13 15:31:49,27.704911666666668,85.32907166666666,1.27,3.223926104942403,"Ghattekulo, Kathmandu 00446, Nepal",27.7033203,85.3286674,,,,00446,Kathmandu-29,Ghattekulo,Kathmandu,Kathmandu,Bagmati Province,Nepal,np,© OpenStreetMap contributors,Open Database License,https://www.openstreetmap.org/copyright
57436250,1112,2019-12-13 15:32:19,27.70537333333333,85.32717,12.67,30.27312959889764,"Ram Mandir, Kathmandu, Kathmandu 44605, Nepal",27.705502,85.326899,Ram Mandir,,,44605,,,Kathmandu,Kathmandu,Three,Nepal,np,© OpenStreetMap contributors,Open Database License,https://www.openstreetmap.org/copyright
57436749,1112,2019-12-13 15:32:48,27.706655,85.32706666666667,15.85,38.299404744341906,"Dillibazar Jail, Thirbam Sadak 3, Dillibazar, Kathmandu 44605, Nepal",27.706321,85.3271617,Dillibazar Jail,,Thirbam Sadak 3,44605,Kathmandu-30,Dillibazar,Kathmandu,Kathmandu,Bagmati Province,Nepal,np,© OpenStreetMap contributors,Open Database License,https://www.openstreetmap.org/copyright
57437241,1112,2019-12-13 15:33:18,27.708573333333334,85.32755833333333,13.71,4.773735546027951,"Hari Furniture Store, Kathmandu, Kathmandu 44605, Nepal",27.708586,85.327512,Hari Furniture Store,,,44605,,,Kathmandu,Kathmandu,Three,Nepal,np,© OpenStreetMap contributors,Open Database License,https://www.openstreetmap.org/copyright
57437742,1112,2019-12-13 15:33:48,27.71022,85.32803833333334,12.92,2.8323420421192087,"Himal Hospital, Thirbam Sadak 3, Narayan Chaur, Kathmandu 44605, Nepal",27.7103119,85.32823583509317,Himal Hospital,,Thirbam Sadak 3,44605,Kathmandu-30,Narayan Chaur,Kathmandu,Kathmandu,Bagmati Province,Nepal,np,© OpenStreetMap contributors,Open Database License,https://www.openstreetmap.org/copyright
57543666,1112,2019-12-13 17:17:58,27.68835,85.33495666666667,19.9,10.509758868779063,"New Baneshwar bus stop, Madan Bhandari Path, Buddha Nagar, Kathmandu 44617, Nepal",27.6883306,85.3348522,New Baneshwar bus stop,,Madan Bhandari Path,44617,Kathmandu-10,Buddha Nagar,Kathmandu,Kathmandu,Bagmati Province,Nepal,np,© OpenStreetMap contributors,Open Database License,https://www.openstreetmap.org/copyright
57544281,1112,2019-12-13 17:18:35,27.689145,85.331435,26.32,61.60912431532865,"Kantipur Handicrafts, Shram Marg 340, Buddha Nagar, Kathmandu 44617, Nepal",27.6886091,85.3312761,Kantipur Handicrafts,340,Shram Marg,44617,Kathmandu-10,Buddha Nagar,Kathmandu,Kathmandu,Bagmati Province,Nepal,np,© OpenStreetMap contributors,Open Database License,https://www.openstreetmap.org/copyright
57544516,1112,2019-12-13 17:18:50,27.690518333333333,85.32798,27.02,1.0880866639176183,"NH34, Kathmandu, Kathmandu 44617, Nepal",27.6905324,85.3279291,NH34,,NH34,44617,Kathmandu-11,,Kathmandu,Kathmandu,Bagmati Province,Nepal,np,© OpenStreetMap contributors,Open Database License,https://www.openstreetmap.org/copyright
57545010,1112,2019-12-13 17:19:20,27.69234,85.324165,21.97,3.067498984847142,"Madan Bhandari Path, Kathmandu, Kathmandu 44617, Nepal",27.6924617,85.3238578,Madan Bhandari Path,,Madan Bhandari Path,44617,Kathmandu-11,,Kathmandu,Kathmandu,Bagmati Province,Nepal,np,© OpenStreetMap contributors,Open Database License,https://www.openstreetmap.org/copyright
57545512,1112,2019-12-13 17:19:50,27.693815,85.32108666666667,20.86,3.187925621748806,"Madan Bhandari Path, Kathmandu, Kathmandu 44617, Nepal",27.6929902,85.3227105,Madan Bhandari Path,,Madan Bhandari Path,44617,Kathmandu-11,,Kathmandu,Kathmandu,Bagmati Province,Nepal,np,© OpenStreetMap contributors,Open Database License,https://www.openstreetmap.org/copyright
57546000,1112,2019-12-13 17:20:19,27.695516666666663,85.32093833333333,24.29,2.414225103085369,"Ram Shah Path, Bansh Ghari, Kathmandu 00446, Nepal",27.695921,85.321048,Ram Shah Path,,Ram Shah Path,00446,Kathmandu-29,Bansh Ghari,Kathmandu,Kathmandu,Bagmati Province,Nepal,np,© OpenStreetMap contributors,Open Database License,https://www.openstreetmap.org/copyright
57546487,1112,2019-12-13 17:20:49,27.698451666666667,85.32131333333334,14.71,28.275153819377604,"Prithvi Path, Kathmandu, Kathmandu 44605, Nepal",27.698418,85.321598,,,Prithvi Path,44605,,,Kathmandu,Kathmandu,Three,Nepal,np,© OpenStreetMap contributors,Open Database License,https://www.openstreetmap.org/copyright
57555867,1112,2019-12-13 17:30:15,27.69844833333333,85.32150166666666,10.81,10.066196549588993,"Prithvi Path, Kathmandu, Kathmandu 44605, Nepal",27.698418,85.321598,,,Prithvi Path,44605,,,Kathmandu,Kathmandu,Three,Nepal,np,© OpenStreetMap contributors,Open Database License,https://www.openstreetmap.org/copyright
57556480,1112,2019-12-13 17:30:51,27.695306666666667,85.32094333333333,20.11,2.637072806326278,"Ram Shah Path, Bansh Ghari, Kathmandu 00446, Nepal",27.695921,85.321048,Ram Shah Path,,Ram Shah Path,00446,Kathmandu-29,Bansh Ghari,Kathmandu,Kathmandu,Bagmati Province,Nepal,np,© OpenStreetMap contributors,Open Database License,https://www.openstreetmap.org/copyright
57556873,1112,2019-12-13 17:31:16,27.694175,85.319465,19.09,5.807675314095648,"Nepal Food Corporation, Thapathali Road, Thapathali, Kathmandu 44617, Nepal",27.6932088,85.319650891967,Nepal Food Corporation,,Thapathali Road,44617,Kathmandu-11,Thapathali,Kathmandu,Kathmandu,Bagmati Province,Nepal,np,© OpenStreetMap contributors,Open Database License,https://www.openstreetmap.org/copyright
58880572,1112,2019-12-14 15:05:14,27.698726666666666,85.32057333333333,21.7,3.0586775251830427,"Prithvi Path, Baghbazar, Kathmandu 00446, Nepal",27.698554,85.3213247,Prithvi Path,,Prithvi Path,00446,Kathmandu-28,Baghbazar,Kathmandu,Kathmandu,Bagmati Province,Nepal,np,© OpenStreetMap contributors,Open Database License,https://www.openstreetmap.org/copyright
58881073,1112,2019-12-14 15:05:44,27.699556666666663,85.32182166666666,17.48,6.988921494475148,"Bindabasini Driving and Washing Center, Ram Shah Path, Baghbazar, Kathmandu 44605, Nepal",27.6995975,85.3217677,Bindabasini Driving and Washing Center,,Ram Shah Path,44605,Kathmandu-28,Baghbazar,Kathmandu,Kathmandu,Bagmati Province,Nepal,np,© OpenStreetMap contributors,Open Database License,https://www.openstreetmap.org/copyright
58881583,1112,2019-12-14 15:06:14,27.700961666666668,85.322505,10.38,11.242222655028735,"Bravo cafe, Tanka Prasad Ghumti Sadak, Bansh Ghari, Kathmandu 44605, Nepal",27.7010153,85.3226018,Bravo cafe,,Tanka Prasad Ghumti Sadak,44605,Kathmandu-29,Bansh Ghari,Kathmandu,Kathmandu,Bagmati Province,Nepal,np,© OpenStreetMap contributors,Open Database License,https://www.openstreetmap.org/copyright
58882093,1112,2019-12-14 15:06:43,27.70087,85.32433,11.29,0.6123757606460479,"Bansh Ghari, Kathmandu 44605, Nepal",27.7027871,85.3262118,,,,44605,Kathmandu-29,Bansh Ghari,Kathmandu,Kathmandu,Bagmati Province,Nepal,np,© OpenStreetMap contributors,Open Database License,https://www.openstreetmap.org/copyright
58882598,1112,2019-12-14 15:07:13,27.70178333333333,85.32553166666666,4.77,0.6219072417213721,"Bansh Ghari, Kathmandu 44605, Nepal",27.7027871,85.3262118,,,,44605,Kathmandu-29,Bansh Ghari,Kathmandu,Kathmandu,Bagmati Province,Nepal,np,© OpenStreetMap contributors,Open Database License,https://www.openstreetmap.org/copyright
58883107,1112,2019-12-14 15:07:43,27.70172,85.32712333333333,9.59,7.9796759896073075,"Goshwara Marga, Kathmandu, Kathmandu 00446, Nepal",27.701656,85.32716,,,Goshwara Marga,00446,,,Kathmandu,Kathmandu,Three,Nepal,np,© OpenStreetMap contributors,Open Database License,https://www.openstreetmap.org/copyright
58883632,1112,2019-12-14 15:08:13,27.701821666666667,85.328075,5.45,4.505634820596063,"Ghattekulo, Kathmandu 00446, Nepal",27.7033203,85.3286674,,,,00446,Kathmandu-29,Ghattekulo,Kathmandu,Kathmandu,Bagmati Province,Nepal,np,© OpenStreetMap contributors,Open Database License,https://www.openstreetmap.org/copyright
58884127,1112,2019-12-14 15:08:42,27.703161666666663,85.328635,10.34,44.98082697618532,"Tulsi Marg, Kathmandu, Kathmandu 00446, Nepal",27.702963,85.329033,,,Tulsi Marg,00446,,,Kathmandu,Kathmandu,Three,Nepal,np,© OpenStreetMap contributors,Open Database License,https://www.openstreetmap.org/copyright
58884633,1112,2019-12-14 15:09:12,27.70428666666667,85.32880333333334,10.61,0.9780359568894912,"Ghattekulo, Kathmandu 00446, Nepal",27.7033203,85.3286674,,,,00446,Kathmandu-29,Ghattekulo,Kathmandu,Kathmandu,Bagmati Province,Nepal,np,© OpenStreetMap contributors,Open Database License,https://www.openstreetmap.org/copyright
58885126,1112,2019-12-14 15:09:42,27.704936666666665,85.32901666666666,4.67,5.223270506605857,"Radha Krishna Temple, Dillibazar Sadak, Dillibazar, Kathmandu 44605, Nepal",27.7048779,85.3290020480224,Radha Krishna Temple,,Dillibazar Sadak,44605,Kathmandu-29,Dillibazar,Kathmandu,Kathmandu,Bagmati Province,Nepal,np,© OpenStreetMap contributors,Open Database License,https://www.openstreetmap.org/copyright
58885630,1112,2019-12-14 15:10:12,27.705325,85.32713666666666,11.99,0,"Bijaya Smarak Higher Secondary School, Dillibazar Sadak, Ghattekulo, Kathmandu 44605, Nepal",27.70502425,85.32693955170585,Bijaya Smarak Higher Secondary School,,Dillibazar Sadak,44605,Kathmandu-29,Ghattekulo,Kathmandu,Kathmandu,Bagmati Province,Nepal,np,© OpenStreetMap contributors,Open Database License,https://www.openstreetmap.org/copyright
58886143,1112,2019-12-14 15:10:42,27.70562333333333,85.32444833333334,19.26,48.6303655516609,"Punya Mansion, Dilli Bazaar Road 33, Kathmandu, Kathmandu 00977, Nepal",27.705795,85.323994,Punya Mansion,33,Dilli Bazaar Road,00977,,,Kathmandu,Kathmandu,Three,Nepal,np,© OpenStreetMap contributors,Open Database License,https://www.openstreetmap.org/copyright
58886671,1112,2019-12-14 15:11:12,27.70654833333333,85.32288166666666,18.87,3.3932815885491054,"Computer Bazar, Putali Sadak, Dillibazar, Kathmandu 46600, Nepal",27.70656375,85.32302562449179,Computer Bazar,,Putali Sadak,46600,Kathmandu-28,Dillibazar,Kathmandu,Kathmandu,Bagmati Province,Nepal,np,© OpenStreetMap contributors,Open Database License,https://www.openstreetmap.org/copyright
58887204,1112,2019-12-14 15:11:43,27.70856833333333,85.32192166666667,19.99,0.7658400409149467,"Baghbazar, Kathmandu 46000, Nepal",27.708932,85.3219638,,,,46000,Kathmandu-28,Baghbazar,Kathmandu,Kathmandu,Bagmati Province,Nepal,np,© OpenStreetMap contributors,Open Database License,https://www.openstreetmap.org/copyright
58887674,1112,2019-12-14 15:12:11,27.711006666666663,85.32210666666667,18.42,6.2479967948279205,"Sumeru Securities, Hattisar Sadak, Narayan Chaur, Kathmandu 44600, Nepal",27.7109813,85.3221633,Sumeru Securities,,Hattisar Sadak,44600,Kathmandu-01,Narayan Chaur,Kathmandu,Kathmandu,Bagmati Province,Nepal,np,© OpenStreetMap contributors,Open Database License,https://www.openstreetmap.org/copyright
59001324,1112,2019-12-14 17:04:39,27.709633333333333,85.32789166666667,2.32,11.272854381459467,"Angan, Kathmandu, Kathmandu 44605, Nepal",27.709717,85.327827,Angan,,,44605,,,Kathmandu,Kathmandu,Three,Nepal,np,© OpenStreetMap contributors,Open Database License,https://www.openstreetmap.org/copyright
59001817,1112,2019-12-14 17:05:09,27.707891666666665,85.327395,29.66,7.397857981298546,"Merchantile Exchange Nepal Pvt Ltd, Kathmandu, Kathmandu 44605, Nepal",27.707842,85.327445,Merchantile Exchange Nepal Pvt Ltd,,,44605,,,Kathmandu,Kathmandu,Three,Nepal,np,© OpenStreetMap contributors,Open Database License,https://www.openstreetmap.org/copyright
59002351,1112,2019-12-14 17:05:39,27.705421666666663,85.32603166666667,22.5,1.3303940000958216,"R.D Suppliers Pvt.Ltd, Dillibazar Sadak, Ghattekulo, Kathmandu 44600, Nepal",27.7054148,85.3260206,R.D Suppliers Pvt.Ltd,,Dillibazar Sadak,44600,Kathmandu-30,Ghattekulo,Kathmandu,Kathmandu,Bagmati Province,Nepal,np,© OpenStreetMap contributors,Open Database License,https://www.openstreetmap.org/copyright
59002852,1112,2019-12-14 17:06:09,27.70516,85.32288,20.31,2.8029652086961505,"Madhvee Music School, Kathmandu, Kathmandu 46600, Nepal",27.705168,85.322907,Madhvee Music School,,,46600,,,Kathmandu,Kathmandu,Three,Nepal,np,© OpenStreetMap contributors,Open Database License,https://www.openstreetmap.org/copyright
59003365,1112,2019-12-14 17:06:40,27.701401666666666,85.32229166666667,25.78,5.005449539542442,"Nepal Accountancy Company Pvt.Ltd, Saya Patri Galli, Bansh Ghari, Kathmandu 44605, Nepal",27.7013723,85.3223302,Nepal Accountancy Company Pvt.Ltd,,Saya Patri Galli,44605,Kathmandu-29,Bansh Ghari,Kathmandu,Kathmandu,Bagmati Province,Nepal,np,© OpenStreetMap contributors,Open Database License,https://www.openstreetmap.org/copyright
59003843,1112,2019-12-14 17:07:08,27.69757166666667,85.32148166666667,31.72,0.13737830729235678,"Singh Durbar, Saras Marg, Ghattekulo, Kathmandu 00446, Nepal",27.696478149999997,85.32461913495442,Singh Durbar,,Saras Marg,00446,Kathmandu-29,Ghattekulo,Kathmandu,Kathmandu,Bagmati Province,Nepal,np,© OpenStreetMap contributors,Open Database License,https://www.openstreetmap.org/copyright
59004352,1112,2019-12-14 17:07:38,27.69438833333333,85.319975,18.38,17.52069792668149,"Janaastha Lawyers Services Pvt.Ltd, Thapathali Marg, Thapathali, Kathmandu 44617, Nepal",27.6942864,85.3198393,Janaastha Lawyers Services Pvt.Ltd,,Thapathali Marg,44617,Kathmandu-11,Thapathali,Kathmandu,Kathmandu,Bagmati Province,Nepal,np,© OpenStreetMap contributors,Open Database License,https://www.openstreetmap.org/copyright
60442425,1112,2019-12-15 15:36:22,27.698578333333334,85.32126166666667,20.01,1.3266943877305533,"Prithvi Path, Baghbazar, Kathmandu 00446, Nepal",27.698554,85.3213247,Prithvi Path,,Prithvi Path,00446,Kathmandu-28,Baghbazar,Kathmandu,Kathmandu,Bagmati Province,Nepal,np,© OpenStreetMap contributors,Open Database License,https://www.openstreetmap.org/copyright
60442934,1112,2019-12-15 15:36:51,27.700983333333333,85.32221,9.04,20.54837533437967,"Subham International Pvt.Ltd, Kathmandu, Kathmandu 44605, Nepal",27.700884,85.322034,Subham International Pvt.Ltd,,,44605,,,Kathmandu,Kathmandu,Three,Nepal,np,© OpenStreetMap contributors,Open Database License,https://www.openstreetmap.org/copyright
60443460,1112,2019-12-15 15:37:21,27.700591666666668,85.32406166666667,6.1,25.5448734738276,"Global IME Bank, New Plaza Marg 29, Bansh Ghari, Kathmandu 44605, Nepal",27.700727,85.323852,Global IME Bank,29,New Plaza Marg,44605,Kathmandu-29,Bansh Ghari,Kathmandu,Kathmandu,Bagmati Province,Nepal,np,© OpenStreetMap contributors,Open Database License,https://www.openstreetmap.org/copyright
60443967,1112,2019-12-15 15:37:51,27.7002,85.32501833333333,7.13,21.91942292510544,"Office of the Auditor General, Anamnagar, Tanka Prasad Ghumti Sadak, Bansh Ghari, Kathmandu 00446, Nepal",27.700381399999998,85.32518350620504,"Office of the Auditor General, Anamnagar",,Tanka Prasad Ghumti Sadak,00446,Kathmandu-29,Bansh Ghari,Kathmandu,Kathmandu,Bagmati Province,Nepal,np,© OpenStreetMap contributors,Open Database License,https://www.openstreetmap.org/copyright
60444493,1112,2019-12-15 15:38:21,27.699721666666665,85.32745333333334,19.29,22.191442129370255,"Nepal Gas, Sangam Galli, Ghattekulo, Kathmandu 00446, Nepal",27.6998928,85.3275693,Nepal Gas,,Sangam Galli,00446,Kathmandu-29,Ghattekulo,Kathmandu,Kathmandu,Bagmati Province,Nepal,np,© OpenStreetMap contributors,Open Database License,https://www.openstreetmap.org/copyright
60445021,1112,2019-12-15 15:38:50,27.699393333333333,85.32874833333334,9.34,9.71232635836806,"D R photo studio, Tanka Prasad Ghumti Sadak, Ghattekulo, Kathmandu 00446, Nepal",27.6994344,85.3288354,D R photo studio,,Tanka Prasad Ghumti Sadak,00446,Kathmandu-29,Ghattekulo,Kathmandu,Kathmandu,Bagmati Province,Nepal,np,© OpenStreetMap contributors,Open Database License,https://www.openstreetmap.org/copyright
60445542,1112,2019-12-15 15:39:20,27.697315,85.32833166666667,19.93,10.076619455604295,"CUBE Technologies Pvt. Ltd, Tanka Prasad Ghumti Sadak, Ghattekulo, Kathmandu 00446, Nepal",27.69719495,85.32861601582717,CUBE Technologies Pvt. Ltd,,Tanka Prasad Ghumti Sadak,00446,Kathmandu-29,Ghattekulo,Kathmandu,Kathmandu,Bagmati Province,Nepal,np,© OpenStreetMap contributors,Open Database License,https://www.openstreetmap.org/copyright
60446072,1112,2019-12-15 15:39:50,27.694265,85.32763666666666,18.62,69.59773081683649,"Upveda Technology Pvt. Ltd., Tanka Prasad Ghumti Sadak 2, Ghattekulo, Kathmandu 44600, Nepal",27.69438405,85.32833065,Upveda Technology Pvt. Ltd.,2,Tanka Prasad Ghumti Sadak,44600,Kathmandu-29,Ghattekulo,Kathmandu,Kathmandu,Bagmati Province,Nepal,np,© OpenStreetMap contributors,Open Database License,https://www.openstreetmap.org/copyright
60446598,1112,2019-12-15 15:40:20,27.693571666666667,85.32670666666667,16.96,0,"Singh Durbar, Saras Marg, Ghattekulo, Kathmandu 00446, Nepal",27.696478149999997,85.32461913495442,Singh Durbar,,Saras Marg,00446,Kathmandu-29,Ghattekulo,Kathmandu,Kathmandu,Bagmati Province,Nepal,np,© OpenStreetMap contributors,Open Database License,https://www.openstreetmap.org/copyright
60447202,1112,2019-12-15 15:40:55,27.6945,85.32375666666667,21.67,1.4176910499544981,"Singh Durbar, Saras Marg, Ghattekulo, Kathmandu 00446, Nepal",27.696478149999997,85.32461913495442,Singh Durbar,,Saras Marg,00446,Kathmandu-29,Ghattekulo,Kathmandu,Kathmandu,Bagmati Province,Nepal,np,© OpenStreetMap contributors,Open Database License,https://www.openstreetmap.org/copyright
60447631,1112,2019-12-15 15:41:19,27.695038333333333,85.32110833333333,12.12,17.354319898797335,"Department of Archaeology, Tanka Prasad Ghumti Sadak, Bansh Ghari, Kathmandu 44617, Nepal",27.69542885,85.32126437076936,Department of Archaeology,,Tanka Prasad Ghumti Sadak,44617,Kathmandu-29,Bansh Ghari,Kathmandu,Kathmandu,Bagmati Province,Nepal,np,© OpenStreetMap contributors,Open Database License,https://www.openstreetmap.org/copyright
60448148,1112,2019-12-15 15:41:49,27.695011666666662,85.32067833333333,19.43,1.309531151202199,"Thapathali, Kathmandu 44617, Nepal",27.6950287,85.320728,,,,44617,Kathmandu-11,Thapathali,Kathmandu,Kathmandu,Bagmati Province,Nepal,np,© OpenStreetMap contributors,Open Database License,https://www.openstreetmap.org/copyright
60448683,1112,2019-12-15 15:42:20,27.698155,85.321485,19.83,31.288962456413035,"Prithvi Path, Kathmandu, Kathmandu 44605, Nepal",27.698418,85.321598,,,Prithvi Path,44605,,,Kathmandu,Kathmandu,Three,Nepal,np,© OpenStreetMap contributors,Open Database License,https://www.openstreetmap.org/copyright
60529672,1112,2019-12-15 16:59:27,27.698525,85.32127833333334,15.2,4.120216044099941,"Prithvi Path, Baghbazar, Kathmandu 00446, Nepal",27.698554,85.3213247,Prithvi Path,,Prithvi Path,00446,Kathmandu-28,Baghbazar,Kathmandu,Kathmandu,Bagmati Province,Nepal,np,© OpenStreetMap contributors,Open Database License,https://www.openstreetmap.org/copyright
60530195,1112,2019-12-15 16:59:57,27.695525,85.32101,24.2,1.0310214010497787,"Singh Durbar, Saras Marg, Ghattekulo, Kathmandu 00446, Nepal",27.696478149999997,85.32461913495442,Singh Durbar,,Saras Marg,00446,Kathmandu-29,Ghattekulo,Kathmandu,Kathmandu,Bagmati Province,Nepal,np,© OpenStreetMap contributors,Open Database License,https://www.openstreetmap.org/copyright
60531476,1112,2019-12-15 17:01:11,27.693255,85.32245666666667,28.67,3.048799008145519,"Kathmandu, Kathmandu 44617, Nepal",27.6922553,85.324616,,,,44617,Kathmandu-11,,Kathmandu,Kathmandu,Bagmati Province,Nepal,np,© OpenStreetMap contributors,Open Database License,https://www.openstreetmap.org/copyright
60531503,1112,2019-12-15 17:01:13,27.69144333333333,85.32623,28.68,11.202677546289852,"Madan Bhandari Path, Kathmandu, Kathmandu 44617, Nepal",27.691344,85.326211,,,Madan Bhandari Path,44617,,,Kathmandu,Kathmandu,Three,Nepal,np,© OpenStreetMap contributors,Open Database License,https://www.openstreetmap.org/copyright
60531745,1112,2019-12-15 17:01:26,27.689755,85.32979166666667,27.0,14.857203008808533,"Department of Drug Administration, Madan Bhandari Path, Buddha Nagar, Kathmandu 44617, Nepal",27.690355,85.32991883915108,Department of Drug Administration,,Madan Bhandari Path,44617,Kathmandu-10,Buddha Nagar,Kathmandu,Kathmandu,Bagmati Province,Nepal,np,© OpenStreetMap contributors,Open Database License,https://www.openstreetmap.org/copyright
60532309,1112,2019-12-15 17:02:00,27.688803333333333,85.33337,24.23,14.476263829147209,"Madan Bhandari Path, Kathmandu, Kathmandu 44617, Nepal",27.688687,85.333436,,,Madan Bhandari Path,44617,,,Kathmandu,Kathmandu,Three,Nepal,np,© OpenStreetMap contributors,Open Database License,https://www.openstreetmap.org/copyright
60532864,1112,2019-12-15 17:02:30,27.68816,85.336235,18.91,2.5648184082395695,"Madan Bhandari Path, Minbhawan, Kathmandu 44617, Nepal",27.6879663,85.3369901,Madan Bhandari Path,,Madan Bhandari Path,44617,Kathmandu-31,Minbhawan,Kathmandu,Kathmandu,Bagmati Province,Nepal,np,© OpenStreetMap contributors,Open Database License,https://www.openstreetmap.org/copyright
60558689,1112,2019-12-15 17:27:15,27.688186666666667,85.33568333333334,23.94,30.654760256034045,"Provident Merchant Banking Limited प्रोभिडेन्ट मर्चेन्ट बैंकिङ्ग लिमिटेड, Sankhamul Marg 31, Shankhamul, Kathmandu 44617, Nepal",27.6879494,85.3355248,Provident Merchant Banking Limited प्रोभिडेन्ट मर्चेन्ट बैंकिङ्ग लिमिटेड,31,Sankhamul Marg,44617,Kathmandu-10,Shankhamul,Kathmandu,Kathmandu,Bagmati Province,Nepal,np,© OpenStreetMap contributors,Open Database License,https://www.openstreetmap.org/copyright
60559198,1112,2019-12-15 17:27:45,27.689201666666666,85.33129833333334,33.42,2.568256958195625,"Madan Bhandari Path, Buddha Nagar, Kathmandu 44617, Nepal",27.6895445,85.3300178,Madan Bhandari Path,,Madan Bhandari Path,44617,Kathmandu-10,Buddha Nagar,Kathmandu,Kathmandu,Bagmati Province,Nepal,np,© OpenStreetMap contributors,Open Database License,https://www.openstreetmap.org/copyright
60559723,1112,2019-12-15 17:28:16,27.69111833333333,85.326745,35.34,2.55635277462752,"Madan Bhandari Path, Kathmandu, Kathmandu 44617, Nepal",27.6916763,85.3255084,Madan Bhandari Path,,Madan Bhandari Path,44617,Kathmandu-11,,Kathmandu,Kathmandu,Bagmati Province,Nepal,np,© OpenStreetMap contributors,Open Database License,https://www.openstreetmap.org/copyright
60560224,1112,2019-12-15 17:28:45,27.692966666666667,85.32285166666666,25.86,35.411994386569575,"Karki Banquet, Ukti Marga, Kathmandu, Kathmandu 44617, Nepal",27.692654,85.32292,Karki Banquet,,Ukti Marga,44617,,,Kathmandu,Kathmandu,Three,Nepal,np,© OpenStreetMap contributors,Open Database License,https://www.openstreetmap.org/copyright
60560731,1112,2019-12-15 17:29:14,27.69463333333333,85.32018666666667,18.42,4.007234017546546,"Thapathali, Kathmandu 44617, Nepal",27.6944913,85.3200831,,,,44617,Kathmandu-11,Thapathali,Kathmandu,Kathmandu,Bagmati Province,Nepal,np,© OpenStreetMap contributors,Open Database License,https://www.openstreetmap.org/copyright
60561458,1112,2019-12-15 17:29:57,27.69807833333333,85.32148833333333,22.34,32.83793318389633,"Office of the Attorney General, Kathmandu, Kathmandu 00446, Nepal",27.697907,85.32176,,,Office of the Attorney General,00446,,,Kathmandu,Kathmandu,Three,Nepal,np,© OpenStreetMap contributors,Open Database License,https://www.openstreetmap.org/copyright
61571353,1112,2019-12-16 09:09:26,27.69899333333333,85.31893,0.12,57.2812832662972,"Prithvi Path, Kathmandu, Kathmandu 44066, Nepal",27.699066,85.318354,,,Prithvi Path,44066,,,Kathmandu,Kathmandu,Three,Nepal,np,© OpenStreetMap contributors,Open Database License,https://www.openstreetmap.org/copyright
61571902,1112,2019-12-16 09:09:55,27.698976666666667,85.318925,0.0,57.087136152565144,"Prithvi Path, Kathmandu, Kathmandu 44066, Nepal",27.699066,85.318354,,,Prithvi Path,44066,,,Kathmandu,Kathmandu,Three,Nepal,np,© OpenStreetMap contributors,Open Database License,https://www.openstreetmap.org/copyright
61572457,1112,2019-12-16 09:10:25,27.698971666666665,85.31892166666667,0.03,56.86392598640099,"Prithvi Path, Kathmandu, Kathmandu 44066, Nepal",27.699066,85.318354,,,Prithvi Path,44066,,,Kathmandu,Kathmandu,Three,Nepal,np,© OpenStreetMap contributors,Open Database License,https://www.openstreetmap.org/copyright
61573001,1112,2019-12-16 09:10:55,27.69897,85.318925,0.0,57.22078419051543,"Prithvi Path, Kathmandu, Kathmandu 44066, Nepal",27.699066,85.318354,,,Prithvi Path,44066,,,Kathmandu,Kathmandu,Three,Nepal,np,© OpenStreetMap contributors,Open Database License,https://www.openstreetmap.org/copyright
61573548,1112,2019-12-16 09:11:25,27.698971666666665,85.318925,0.05,57.186500591004965,"Prithvi Path, Kathmandu, Kathmandu 44066, Nepal",27.699066,85.318354,,,Prithvi Path,44066,,,Kathmandu,Kathmandu,Three,Nepal,np,© OpenStreetMap contributors,Open Database License,https://www.openstreetmap.org/copyright
61574104,1112,2019-12-16 09:11:54,27.698975,85.31892666666667,0.03,57.28117486766885,"Prithvi Path, Kathmandu, Kathmandu 44066, Nepal",27.699066,85.318354,,,Prithvi Path,44066,,,Kathmandu,Kathmandu,Three,Nepal,np,© OpenStreetMap contributors,Open Database License,https://www.openstreetmap.org/copyright
61574648,1112,2019-12-16 09:12:24,27.698978333333333,85.31892333333333,0.04,56.89351258894394,"Prithvi Path, Kathmandu, Kathmandu 44066, Nepal",27.699066,85.318354,,,Prithvi Path,44066,,,Kathmandu,Kathmandu,Three,Nepal,np,© OpenStreetMap contributors,Open Database License,https://www.openstreetmap.org/copyright
61575187,1112,2019-12-16 09:12:54,27.69884833333333,85.31963166666667,5.81,26.51465251082482,"Prithvi Path, Kathmandu, Kathmandu 44066, Nepal",27.698828,85.3199,,,Prithvi Path,44066,,,Kathmandu,Kathmandu,Three,Nepal,np,© OpenStreetMap contributors,Open Database License,https://www.openstreetmap.org/copyright
61575734,1112,2019-12-16 09:13:24,27.698678333333334,85.32048333333333,5.16,30.818695149620027,"Prithvi Path, Kathmandu, Kathmandu 00446, Nepal",27.69858,85.320776,,,Prithvi Path,00446,,,Kathmandu,Kathmandu,Three,Nepal,np,© OpenStreetMap contributors,Open Database License,https://www.openstreetmap.org/copyright
61576268,1112,2019-12-16 09:13:54,27.698561666666667,85.32114666666666,1.63,2.8877952296058296,"Prithvi Path, Baghbazar, Kathmandu 00446, Nepal",27.698554,85.3213247,Prithvi Path,,Prithvi Path,00446,Kathmandu-28,Baghbazar,Kathmandu,Kathmandu,Bagmati Province,Nepal,np,© OpenStreetMap contributors,Open Database License,https://www.openstreetmap.org/copyright
61576816,1112,2019-12-16 09:14:23,27.69856,85.32115833333333,0.02,2.8250654953437624,"Prithvi Path, Baghbazar, Kathmandu 00446, Nepal",27.698554,85.3213247,Prithvi Path,,Prithvi Path,00446,Kathmandu-28,Baghbazar,Kathmandu,Kathmandu,Bagmati Province,Nepal,np,© OpenStreetMap contributors,Open Database License,https://www.openstreetmap.org/copyright
61577362,1112,2019-12-16 09:14:53,27.698563333333333,85.32116166666667,0.03,2.3931969749861177,"Prithvi Path, Baghbazar, Kathmandu 00446, Nepal",27.698554,85.3213247,Prithvi Path,,Prithvi Path,00446,Kathmandu-28,Baghbazar,Kathmandu,Kathmandu,Bagmati Province,Nepal,np,© OpenStreetMap contributors,Open Database License,https://www.openstreetmap.org/copyright
61577898,1112,2019-12-16 09:15:23,27.69856833333333,85.32116333333333,0.03,1.8150601957932253,"Prithvi Path, Baghbazar, Kathmandu 00446, Nepal",27.698554,85.3213247,Prithvi Path,,Prithvi Path,00446,Kathmandu-28,Baghbazar,Kathmandu,Kathmandu,Bagmati Province,Nepal,np,© OpenStreetMap contributors,Open Database License,https://www.openstreetmap.org/copyright
61578442,1112,2019-12-16 09:15:53,27.698571666666663,85.32116166666667,0.0,1.4876906766511997,"Prithvi Path, Baghbazar, Kathmandu 00446, Nepal",27.698554,85.3213247,Prithvi Path,,Prithvi Path,00446,Kathmandu-28,Baghbazar,Kathmandu,Kathmandu,Bagmati Province,Nepal,np,© OpenStreetMap contributors,Open Database License,https://www.openstreetmap.org/copyright
61579021,1112,2019-12-16 09:16:22,27.698575,85.32115833333333,0.03,1.1951541578583555,"Prithvi Path, Baghbazar, Kathmandu 00446, Nepal",27.698554,85.3213247,Prithvi Path,,Prithvi Path,00446,Kathmandu-28,Baghbazar,Kathmandu,Kathmandu,Bagmati Province,Nepal,np,© OpenStreetMap contributors,Open Database License,https://www.openstreetmap.org/copyright
61579571,1112,2019-12-16 09:16:52,27.698566666666668,85.32115166666667,0.04,2.23999244936904,"Prithvi Path, Baghbazar, Kathmandu 00446, Nepal",27.698554,85.3213247,Prithvi Path,,Prithvi Path,00446,Kathmandu-28,Baghbazar,Kathmandu,Kathmandu,Bagmati Province,Nepal,np,© OpenStreetMap contributors,Open Database License,https://www.openstreetmap.org/copyright
61580106,1112,2019-12-16 09:17:22,27.698566666666668,85.32115833333333,0.01,2.100660453068898,"Prithvi Path, Baghbazar, Kathmandu 00446, Nepal",27.698554,85.3213247,Prithvi Path,,Prithvi Path,00446,Kathmandu-28,Baghbazar,Kathmandu,Kathmandu,Bagmati Province,Nepal,np,© OpenStreetMap contributors,Open Database License,https://www.openstreetmap.org/copyright
61580658,1112,2019-12-16 09:17:52,27.698565,85.32116166666667,0.04,2.2120957146433806,"Prithvi Path, Baghbazar, Kathmandu 00446, Nepal",27.698554,85.3213247,Prithvi Path,,Prithvi Path,00446,Kathmandu-28,Baghbazar,Kathmandu,Kathmandu,Bagmati Province,Nepal,np,© OpenStreetMap contributors,Open Database License,https://www.openstreetmap.org/copyright
61581197,1112,2019-12-16 09:18:22,27.698566666666668,85.32116333333333,0.01,1.9961614553619536,"Prithvi Path, Baghbazar, Kathmandu 00446, Nepal",27.698554,85.3213247,Prithvi Path,,Prithvi Path,00446,Kathmandu-28,Baghbazar,Kathmandu,Kathmandu,Bagmati Province,Nepal,np,© OpenStreetMap contributors,Open Database License,https://www.openstreetmap.org/copyright
61581727,1112,2019-12-16 09:18:52,27.698541666666667,85.32124166666667,6.13,3.075529403915641,"Prithvi Path, Baghbazar, Kathmandu 00446, Nepal",27.698554,85.3213247,Prithvi Path,,Prithvi Path,00446,Kathmandu-28,Baghbazar,Kathmandu,Kathmandu,Bagmati Province,Nepal,np,© OpenStreetMap contributors,Open Database License,https://www.openstreetmap.org/copyright
61582266,1112,2019-12-16 09:19:21,27.69740333333333,85.32139,20.66,30.896802475896767,"Supreme Court of Nepal, Ram Shah Path, Bansh Ghari, Kathmandu 00446, Nepal",27.696805750000003,85.32174221625255,Supreme Court of Nepal,,Ram Shah Path,00446,Kathmandu-29,Bansh Ghari,Kathmandu,Kathmandu,Bagmati Province,Nepal,np,© OpenStreetMap contributors,Open Database License,https://www.openstreetmap.org/copyright
61582880,1112,2019-12-16 09:19:55,27.695426666666663,85.32098166666667,8.69,1.6214941245368393,"Singh Durbar, Saras Marg, Ghattekulo, Kathmandu 00446, Nepal",27.696478149999997,85.32461913495442,Singh Durbar,,Saras Marg,00446,Kathmandu-29,Ghattekulo,Kathmandu,Kathmandu,Bagmati Province,Nepal,np,© OpenStreetMap contributors,Open Database License,https://www.openstreetmap.org/copyright
61583362,1112,2019-12-16 09:20:21,27.694815,85.322305,11.18,1.9446297762523936,"Singh Durbar, Saras Marg, Ghattekulo, Kathmandu 00446, Nepal",27.696478149999997,85.32461913495442,Singh Durbar,,Saras Marg,00446,Kathmandu-29,Ghattekulo,Kathmandu,Kathmandu,Bagmati Province,Nepal,np,© OpenStreetMap contributors,Open Database License,https://www.openstreetmap.org/copyright
61583950,1112,2019-12-16 09:20:52,27.694275,85.32483,14.16,0,"Singh Durbar, Saras Marg, Ghattekulo, Kathmandu 00446, Nepal",27.696478149999997,85.32461913495442,Singh Durbar,,Saras Marg,00446,Kathmandu-29,Ghattekulo,Kathmandu,Kathmandu,Bagmati Province,Nepal,np,© OpenStreetMap contributors,Open Database License,https://www.openstreetmap.org/copyright
61584483,1112,2019-12-16 09:21:21,27.694156666666668,85.32534666666666,3.69,0,"Singh Durbar, Saras Marg, Ghattekulo, Kathmandu 00446, Nepal",27.696478149999997,85.32461913495442,Singh Durbar,,Saras Marg,00446,Kathmandu-29,Ghattekulo,Kathmandu,Kathmandu,Bagmati Province,Nepal,np,© OpenStreetMap contributors,Open Database License,https://www.openstreetmap.org/copyright
61585143,1112,2019-12-16 09:21:54,27.694091666666665,85.32565,4.12,0,"Singh Durbar, Saras Marg, Ghattekulo, Kathmandu 00446, Nepal",27.696478149999997,85.32461913495442,Singh Durbar,,Saras Marg,00446,Kathmandu-29,Ghattekulo,Kathmandu,Kathmandu,Bagmati Province,Nepal,np,© OpenStreetMap contributors,Open Database License,https://www.openstreetmap.org/copyright
61585616,1112,2019-12-16 09:22:20,27.69430833333333,85.32593666666666,9.03,0,"Singh Durbar, Saras Marg, Ghattekulo, Kathmandu 00446, Nepal",27.69710745,85.32518686702733,Singh Durbar,,Saras Marg,00446,Kathmandu-29,Ghattekulo,Kathmandu,Kathmandu,Bagmati Province,Nepal,np,© OpenStreetMap contributors,Open Database License,https://www.openstreetmap.org/copyright
61586164,1112,2019-12-16 09:22:50,27.695671666666662,85.32631,6.85,0,"Singh Durbar, Saras Marg, Ghattekulo, Kathmandu 00446, Nepal",27.69710745,85.32518686702733,Singh Durbar,,Saras Marg,00446,Kathmandu-29,Ghattekulo,Kathmandu,Kathmandu,Bagmati Province,Nepal,np,© OpenStreetMap contributors,Open Database License,https://www.openstreetmap.org/copyright
61586695,1112,2019-12-16 09:23:19,27.695765,85.32708166666667,3.49,0,"Singh Durbar, Saras Marg, Ghattekulo, Kathmandu 00446, Nepal",27.69710745,85.32518686702733,Singh Durbar,,Saras Marg,00446,Kathmandu-29,Ghattekulo,Kathmandu,Kathmandu,Bagmati Province,Nepal,np,© OpenStreetMap contributors,Open Database License,https://www.openstreetmap.org/copyright
61587249,1112,2019-12-16 09:23:49,27.69574666666667,85.327035,0.25,0,"Singh Durbar, Saras Marg, Ghattekulo, Kathmandu 00446, Nepal",27.69710745,85.32518686702733,Singh Durbar,,Saras Marg,00446,Kathmandu-29,Ghattekulo,Kathmandu,Kathmandu,Bagmati Province,Nepal,np,© OpenStreetMap contributors,Open Database License,https://www.openstreetmap.org/copyright
61587880,1112,2019-12-16 09:24:23,27.69573,85.32702666666667,0.02,0,"Singh Durbar, Saras Marg, Ghattekulo, Kathmandu 00446, Nepal",27.69710745,85.32518686702733,Singh Durbar,,Saras Marg,00446,Kathmandu-29,Ghattekulo,Kathmandu,Kathmandu,Bagmati Province,Nepal,np,© OpenStreetMap contributors,Open Database License,https://www.openstreetmap.org/copyright
61588434,1112,2019-12-16 09:24:53,27.695733333333333,85.32701833333333,0.1,0,"Singh Durbar, Saras Marg, Ghattekulo, Kathmandu 00446, Nepal",27.69710745,85.32518686702733,Singh Durbar,,Saras Marg,00446,Kathmandu-29,Ghattekulo,Kathmandu,Kathmandu,Bagmati Province,Nepal,np,© OpenStreetMap contributors,Open Database License,https://www.openstreetmap.org/copyright
61588910,1112,2019-12-16 09:25:19,27.695721666666667,85.32701666666667,0.13,0,"Singh Durbar, Saras Marg, Ghattekulo, Kathmandu 00446, Nepal",27.69710745,85.32518686702733,Singh Durbar,,Saras Marg,00446,Kathmandu-29,Ghattekulo,Kathmandu,Kathmandu,Bagmati Province,Nepal,np,© OpenStreetMap contributors,Open Database License,https://www.openstreetmap.org/copyright
61589597,1112,2019-12-16 09:25:57,27.695711666666668,85.326995,0.1,0,"Singh Durbar, Saras Marg, Ghattekulo, Kathmandu 00446, Nepal",27.69710745,85.32518686702733,Singh Durbar,,Saras Marg,00446,Kathmandu-29,Ghattekulo,Kathmandu,Kathmandu,Bagmati Province,Nepal,np,© OpenStreetMap contributors,Open Database License,https://www.openstreetmap.org/copyright
61590002,1112,2019-12-16 09:26:18,27.695721666666667,85.326985,0.22,0,"Singh Durbar, Saras Marg, Ghattekulo, Kathmandu 00446, Nepal",27.69710745,85.32518686702733,Singh Durbar,,Saras Marg,00446,Kathmandu-29,Ghattekulo,Kathmandu,Kathmandu,Bagmati Province,Nepal,np,© OpenStreetMap contributors,Open Database License,https://www.openstreetmap.org/copyright
61590569,1112,2019-12-16 09:26:48,27.69574,85.32699833333334,0.06,0,"Singh Durbar, Saras Marg, Ghattekulo, Kathmandu 00446, Nepal",27.69710745,85.32518686702733,Singh Durbar,,Saras Marg,00446,Kathmandu-29,Ghattekulo,Kathmandu,Kathmandu,Bagmati Province,Nepal,np,© OpenStreetMap contributors,Open Database License,https://www.openstreetmap.org/copyright
61591109,1112,2019-12-16 09:27:18,27.69574833333333,85.32702,0.45,0,"Singh Durbar, Saras Marg, Ghattekulo, Kathmandu 00446, Nepal",27.69710745,85.32518686702733,Singh Durbar,,Saras Marg,00446,Kathmandu-29,Ghattekulo,Kathmandu,Kathmandu,Bagmati Province,Nepal,np,© OpenStreetMap contributors,Open Database License,https://www.openstreetmap.org/copyright
61591659,1112,2019-12-16 09:27:48,27.69574,85.32703166666667,0.1,0,"Singh Durbar, Saras Marg, Ghattekulo, Kathmandu 00446, Nepal",27.69710745,85.32518686702733,Singh Durbar,,Saras Marg,00446,Kathmandu-29,Ghattekulo,Kathmandu,Kathmandu,Bagmati Province,Nepal,np,© OpenStreetMap contributors,Open Database License,https://www.openstreetmap.org/copyright
61592195,1112,2019-12-16 09:28:17,27.69573,85.32704333333334,0.02,0,"Singh Durbar, Saras Marg, Ghattekulo, Kathmandu 00446, Nepal",27.69710745,85.32518686702733,Singh Durbar,,Saras Marg,00446,Kathmandu-29,Ghattekulo,Kathmandu,Kathmandu,Bagmati Province,Nepal,np,© OpenStreetMap contributors,Open Database License,https://www.openstreetmap.org/copyright
61592770,1112,2019-12-16 09:28:47,27.695723333333333,85.32702833333333,0.12,0,"Singh Durbar, Saras Marg, Ghattekulo, Kathmandu 00446, Nepal",27.69710745,85.32518686702733,Singh Durbar,,Saras Marg,00446,Kathmandu-29,Ghattekulo,Kathmandu,Kathmandu,Bagmati Province,Nepal,np,© OpenStreetMap contributors,Open Database License,https://www.openstreetmap.org/copyright
61593421,1112,2019-12-16 09:29:22,27.695725,85.327015,0.02,0,"Singh Durbar, Saras Marg, Ghattekulo, Kathmandu 00446, Nepal",27.69710745,85.32518686702733,Singh Durbar,,Saras Marg,00446,Kathmandu-29,Ghattekulo,Kathmandu,Kathmandu,Bagmati Province,Nepal,np,© OpenStreetMap contributors,Open Database License,https://www.openstreetmap.org/copyright
61593904,1112,2019-12-16 09:29:47,27.69572833333333,85.32700833333334,0.01,0,"Singh Durbar, Saras Marg, Ghattekulo, Kathmandu 00446, Nepal",27.69710745,85.32518686702733,Singh Durbar,,Saras Marg,00446,Kathmandu-29,Ghattekulo,Kathmandu,Kathmandu,Bagmati Province,Nepal,np,© OpenStreetMap contributors,Open Database License,https://www.openstreetmap.org/copyright
61594449,1112,2019-12-16 09:30:17,27.695731666666667,85.32701333333333,0.01,0,"Singh Durbar, Saras Marg, Ghattekulo, Kathmandu 00446, Nepal",27.69710745,85.32518686702733,Singh Durbar,,Saras Marg,00446,Kathmandu-29,Ghattekulo,Kathmandu,Kathmandu,Bagmati Province,Nepal,np,© OpenStreetMap contributors,Open Database License,https://www.openstreetmap.org/copyright
61595060,1112,2019-12-16 09:30:51,27.695733333333333,85.32701666666667,0.08,0,"Singh Durbar, Saras Marg, Ghattekulo, Kathmandu 00446, Nepal",27.69710745,85.32518686702733,Singh Durbar,,Saras Marg,00446,Kathmandu-29,Ghattekulo,Kathmandu,Kathmandu,Bagmati Province,Nepal,np,© OpenStreetMap contributors,Open Database License,https://www.openstreetmap.org/copyright
61595576,1112,2019-12-16 09:31:16,27.69573,85.327025,0.05,0,"Singh Durbar, Saras Marg, Ghattekulo, Kathmandu 00446, Nepal",27.69710745,85.32518686702733,Singh Durbar,,Saras Marg,00446,Kathmandu-29,Ghattekulo,Kathmandu,Kathmandu,Bagmati Province,Nepal,np,© OpenStreetMap contributors,Open Database License,https://www.openstreetmap.org/copyright
61596182,1112,2019-12-16 09:31:50,27.69573,85.32703,0.1,0,"Singh Durbar, Saras Marg, Ghattekulo, Kathmandu 00446, Nepal",27.69710745,85.32518686702733,Singh Durbar,,Saras Marg,00446,Kathmandu-29,Ghattekulo,Kathmandu,Kathmandu,Bagmati Province,Nepal,np,© OpenStreetMap contributors,Open Database License,https://www.openstreetmap.org/copyright
61596658,1112,2019-12-16 09:32:16,27.695733333333333,85.327025,0.02,0,"Singh Durbar, Saras Marg, Ghattekulo, Kathmandu 00446, Nepal",27.69710745,85.32518686702733,Singh Durbar,,Saras Marg,00446,Kathmandu-29,Ghattekulo,Kathmandu,Kathmandu,Bagmati Province,Nepal,np,© OpenStreetMap contributors,Open Database License,https://www.openstreetmap.org/copyright
61597331,1112,2019-12-16 09:32:51,27.69573833333333,85.32703333333333,0.04,0,"Singh Durbar, Saras Marg, Ghattekulo, Kathmandu 00446, Nepal",27.69710745,85.32518686702733,Singh Durbar,,Saras Marg,00446,Kathmandu-29,Ghattekulo,Kathmandu,Kathmandu,Bagmati Province,Nepal,np,© OpenStreetMap contributors,Open Database License,https://www.openstreetmap.org/copyright
61597800,1112,2019-12-16 09:33:15,27.695733333333333,85.32702666666667,0.09,0,"Singh Durbar, Saras Marg, Ghattekulo, Kathmandu 00446, Nepal",27.69710745,85.32518686702733,Singh Durbar,,Saras Marg,00446,Kathmandu-29,Ghattekulo,Kathmandu,Kathmandu,Bagmati Province,Nepal,np,© OpenStreetMap contributors,Open Database License,https://www.openstreetmap.org/copyright
61598349,1112,2019-12-16 09:33:45,27.69575,85.32702,0.0,0,"Singh Durbar, Saras Marg, Ghattekulo, Kathmandu 00446, Nepal",27.69710745,85.32518686702733,Singh Durbar,,Saras Marg,00446,Kathmandu-29,Ghattekulo,Kathmandu,Kathmandu,Bagmati Province,Nepal,np,© OpenStreetMap contributors,Open Database License,https://www.openstreetmap.org/copyright
61598910,1112,2019-12-16 09:34:15,27.695751666666663,85.32702666666667,0.04,0,"Singh Durbar, Saras Marg, Ghattekulo, Kathmandu 00446, Nepal",27.69710745,85.32518686702733,Singh Durbar,,Saras Marg,00446,Kathmandu-29,Ghattekulo,Kathmandu,Kathmandu,Bagmati Province,Nepal,np,© OpenStreetMap contributors,Open Database License,https://www.openstreetmap.org/copyright
61599450,1112,2019-12-16 09:34:45,27.695751666666663,85.32703333333333,0.02,0,"Singh Durbar, Saras Marg, Ghattekulo, Kathmandu 00446, Nepal",27.69710745,85.32518686702733,Singh Durbar,,Saras Marg,00446,Kathmandu-29,Ghattekulo,Kathmandu,Kathmandu,Bagmati Province,Nepal,np,© OpenStreetMap contributors,Open Database License,https://www.openstreetmap.org/copyright
61599999,1112,2019-12-16 09:35:14,27.695751666666663,85.327025,0.03,0,"Singh Durbar, Saras Marg, Ghattekulo, Kathmandu 00446, Nepal",27.69710745,85.32518686702733,Singh Durbar,,Saras Marg,00446,Kathmandu-29,Ghattekulo,Kathmandu,Kathmandu,Bagmati Province,Nepal,np,© OpenStreetMap contributors,Open Database License,https://www.openstreetmap.org/copyright
61600545,1112,2019-12-16 09:35:44,27.695755,85.32700833333334,0.42,0,"Singh Durbar, Saras Marg, Ghattekulo, Kathmandu 00446, Nepal",27.69710745,85.32518686702733,Singh Durbar,,Saras Marg,00446,Kathmandu-29,Ghattekulo,Kathmandu,Kathmandu,Bagmati Province,Nepal,np,© OpenStreetMap contributors,Open Database License,https://www.openstreetmap.org/copyright
61601118,1112,2019-12-16 09:36:14,27.69573833333333,85.32703333333333,0.02,0,"Singh Durbar, Saras Marg, Ghattekulo, Kathmandu 00446, Nepal",27.69710745,85.32518686702733,Singh Durbar,,Saras Marg,00446,Kathmandu-29,Ghattekulo,Kathmandu,Kathmandu,Bagmati Province,Nepal,np,© OpenStreetMap contributors,Open Database License,https://www.openstreetmap.org/copyright
61601672,1112,2019-12-16 09:36:44,27.69574666666667,85.32705666666666,0.05,0,"Singh Durbar, Saras Marg, Ghattekulo, Kathmandu 00446, Nepal",27.69710745,85.32518686702733,Singh Durbar,,Saras Marg,00446,Kathmandu-29,Ghattekulo,Kathmandu,Kathmandu,Bagmati Province,Nepal,np,© OpenStreetMap contributors,Open Database License,https://www.openstreetmap.org/copyright
61602216,1112,2019-12-16 09:37:13,27.695751666666663,85.32705333333334,0.05,0,"Singh Durbar, Saras Marg, Ghattekulo, Kathmandu 00446, Nepal",27.69710745,85.32518686702733,Singh Durbar,,Saras Marg,00446,Kathmandu-29,Ghattekulo,Kathmandu,Kathmandu,Bagmati Province,Nepal,np,© OpenStreetMap contributors,Open Database License,https://www.openstreetmap.org/copyright
61602834,1112,2019-12-16 09:37:47,27.695771666666666,85.32704,0.11,0,"Singh Durbar, Saras Marg, Ghattekulo, Kathmandu 00446, Nepal",27.69710745,85.32518686702733,Singh Durbar,,Saras Marg,00446,Kathmandu-29,Ghattekulo,Kathmandu,Kathmandu,Bagmati Province,Nepal,np,© OpenStreetMap contributors,Open Database License,https://www.openstreetmap.org/copyright
61603413,1112,2019-12-16 09:38:17,27.69569333333333,85.32633166666666,6.54,0,"Singh Durbar, Saras Marg, Ghattekulo, Kathmandu 00446, Nepal",27.69710745,85.32518686702733,Singh Durbar,,Saras Marg,00446,Kathmandu-29,Ghattekulo,Kathmandu,Kathmandu,Bagmati Province,Nepal,np,© OpenStreetMap contributors,Open Database License,https://www.openstreetmap.org/copyright
61604071,1112,2019-12-16 09:38:50,27.69405666666667,85.325895,3.96,0,"Singh Durbar, Saras Marg, Ghattekulo, Kathmandu 00446, Nepal",27.69710745,85.32518686702733,Singh Durbar,,Saras Marg,00446,Kathmandu-29,Ghattekulo,Kathmandu,Kathmandu,Bagmati Province,Nepal,np,© OpenStreetMap contributors,Open Database License,https://www.openstreetmap.org/copyright
61604504,1112,2019-12-16 09:39:13,27.69413,85.32532666666667,0.1,16.226865053216304,"District Coordination Committee, Kathmandu, Tanka Prasad Ghumti Sadak, Bansh Ghari, Kathmandu 44617, Nepal",27.69387265,85.32551675596662,"District Coordination Committee, Kathmandu",,Tanka Prasad Ghumti Sadak,44617,Kathmandu-11,Bansh Ghari,Kathmandu,Kathmandu,Bagmati Province,Nepal,np,© OpenStreetMap contributors,Open Database License,https://www.openstreetmap.org/copyright
61605307,1112,2019-12-16 09:39:57,27.694415,85.32401166666666,14.11,4.945605410022467,"शहरी बिकास तथा भवन निर्माण विभाग, Tanka Prasad Ghumti Sadak, Bansh Ghari, Kathmandu 44617, Nepal",27.69372645,85.32333557287294,शहरी बिकास तथा भवन निर्माण विभाग,,Tanka Prasad Ghumti Sadak,44617,Kathmandu-11,Bansh Ghari,Kathmandu,Kathmandu,Bagmati Province,Nepal,np,© OpenStreetMap contributors,Open Database License,https://www.openstreetmap.org/copyright
61605581,1112,2019-12-16 09:40:12,27.694815,85.322095,16.24,14.360759821162956,"Tanka Prasad Ghumti Sadak, Kathmandu, Kathmandu 44617, Nepal",27.694801,85.32224,,,Tanka Prasad Ghumti Sadak,44617,,,Kathmandu,Kathmandu,Three,Nepal,np,© OpenStreetMap contributors,Open Database License,https://www.openstreetmap.org/copyright
61606161,1112,2019-12-16 09:40:42,27.69488,85.321835,0.86,19.55264937897444,"Annapurna Neurological Institute and Allied Sciences, Tanka Prasad Ghumti Sadak, Bansh Ghari, Kathmandu 44617, Nepal",27.69480765,85.32155465,Annapurna Neurological Institute and Allied Sciences,,Tanka Prasad Ghumti Sadak,44617,Kathmandu-11,Bansh Ghari,Kathmandu,Kathmandu,Bagmati Province,Nepal,np,© OpenStreetMap contributors,Open Database License,https://www.openstreetmap.org/copyright
61606710,1112,2019-12-16 09:41:12,27.69489,85.321825,0.33,18.906363173322212,"Annapurna Neurological Institute and Allied Sciences, Tanka Prasad Ghumti Sadak, Bansh Ghari, Kathmandu 44617, Nepal",27.69480765,85.32155465,Annapurna Neurological Institute and Allied Sciences,,Tanka Prasad Ghumti Sadak,44617,Kathmandu-11,Bansh Ghari,Kathmandu,Kathmandu,Bagmati Province,Nepal,np,© OpenStreetMap contributors,Open Database License,https://www.openstreetmap.org/copyright
61607293,1112,2019-12-16 09:41:42,27.694891666666667,85.32181666666666,0.27,18.18635977876626,"Annapurna Neurological Institute and Allied Sciences, Tanka Prasad Ghumti Sadak, Bansh Ghari, Kathmandu 44617, Nepal",27.69480765,85.32155465,Annapurna Neurological Institute and Allied Sciences,,Tanka Prasad Ghumti Sadak,44617,Kathmandu-11,Bansh Ghari,Kathmandu,Kathmandu,Bagmati Province,Nepal,np,© OpenStreetMap contributors,Open Database License,https://www.openstreetmap.org/copyright
61607849,1112,2019-12-16 09:42:11,27.694911666666663,85.32165833333333,0.09,8.32169950406188,"Annapurna Neurological Institute and Allied Sciences, Tanka Prasad Ghumti Sadak, Bansh Ghari, Kathmandu 44617, Nepal",27.69480765,85.32155465,Annapurna Neurological Institute and Allied Sciences,,Tanka Prasad Ghumti Sadak,44617,Kathmandu-11,Bansh Ghari,Kathmandu,Kathmandu,Bagmati Province,Nepal,np,© OpenStreetMap contributors,Open Database License,https://www.openstreetmap.org/copyright
61608417,1112,2019-12-16 09:42:41,27.69493333333333,85.32159833333333,1.28,9.403940982046059,"Annapurna Neurological Institute and Allied Sciences, Tanka Prasad Ghumti Sadak, Bansh Ghari, Kathmandu 44617, Nepal",27.69480765,85.32155465,Annapurna Neurological Institute and Allied Sciences,,Tanka Prasad Ghumti Sadak,44617,Kathmandu-11,Bansh Ghari,Kathmandu,Kathmandu,Bagmati Province,Nepal,np,© OpenStreetMap contributors,Open Database License,https://www.openstreetmap.org/copyright
