original_id,original_deviceid,original_servertime,original_latitude,original_longitude,original_speed,distance,formatted,lat,lon,name,housenumber,street,postcode,district,suburb,city,county,state,country,country_code,attribution,attribution_license,attribution_url
82600339,1146,2019-12-30 10:13:46,27.708015,85.33868,15.7,8.401529996859836,"Burger Bites, Pashupati Sadak, Chabahil, Kathmandu 44660, Nepal",27.70814135,85.3387271,Burger Bites,,Pashupati Sadak,44660,Kathmandu-07,Chabahil,Kathmandu,Kathmandu,Bagmati Province,Nepal,np,© OpenStreetMap contributors,Open Database License,https://www.openstreetmap.org/copyright
82866019,1146,2019-12-30 14:23:41,27.707965,85.33951166666667,15.03,4.672406984242576,"Baram and Basel Furniture Showroom, Pashupati Sadak, Chabahil, Kathmandu 44660, Nepal",27.7079999,85.3395381,Baram and Basel Furniture Showroom,,Pashupati Sadak,44660,Kathmandu-07,Chabahil,Kathmandu,Kathmandu,Bagmati Province,Nepal,np,© OpenStreetMap contributors,Open Database License,https://www.openstreetmap.org/copyright
82866518,1146,2019-12-30 14:24:11,27.708155,85.33735666666666,10.1,5.480838446948436,"Rudra Mati Marg-2, Chabahil, Kathmandu 44660, Nepal",27.7098912,85.337262,Rudra Mati Marg-2,,Rudra Mati Marg-2,44660,Kathmandu-07,Chabahil,Kathmandu,Kathmandu,Bagmati Province,Nepal,np,© OpenStreetMap contributors,Open Database License,https://www.openstreetmap.org/copyright
82867024,1146,2019-12-30 14:24:41,27.709825,85.33726166666666,15.76,21.26146816849846,"manju and anuska khaja ghar, Rudra Mati Marg-2, Chabahil, Kathmandu 44660, Nepal",27.7096384,85.3373088,manju and anuska khaja ghar,,Rudra Mati Marg-2,44660,Kathmandu-07,Chabahil,Kathmandu,Kathmandu,Bagmati Province,Nepal,np,© OpenStreetMap contributors,Open Database License,https://www.openstreetmap.org/copyright
82955189,1146,2019-12-30 15:51:33,27.710293333333333,85.33308,14.99,11.942752236141922,"ज्ञानेश्वर मार्ग, Kathmandu, Kathmandu 00975, Nepal",27.710215,85.332997,,,ज्ञानेश्वर मार्ग,00975,,,Kathmandu,Kathmandu,Three,Nepal,np,© OpenStreetMap contributors,Open Database License,https://www.openstreetmap.org/copyright
82955695,1146,2019-12-30 15:52:03,27.708686666666665,85.33188333333334,5.39,3.1778887699304996,"Maitidevi, Kathmandu 44605, Nepal",27.7086839,85.3318427,,,,44605,Kathmandu-30,Maitidevi,Kathmandu,Kathmandu,Bagmati Province,Nepal,np,© OpenStreetMap contributors,Open Database License,https://www.openstreetmap.org/copyright
82956186,1146,2019-12-30 15:52:33,27.70902833333333,85.330165,0.68,14.898182789883172,"KRISHNA BOUTIQUE, Radhe Marga 494, Kathmandu, Kathmandu 977, Nepal",27.708931,85.330269,KRISHNA BOUTIQUE,494,Radhe Marga,977,,,Kathmandu,Kathmandu,Three,Nepal,np,© OpenStreetMap contributors,Open Database License,https://www.openstreetmap.org/copyright
82956687,1146,2019-12-30 15:53:03,27.708953333333334,85.33025666666667,0.88,2.764269128730602,"KRISHNA BOUTIQUE, Radhe Marga 494, Kathmandu, Kathmandu 977, Nepal",27.708931,85.330269,KRISHNA BOUTIQUE,494,Radhe Marga,977,,,Kathmandu,Kathmandu,Three,Nepal,np,© OpenStreetMap contributors,Open Database License,https://www.openstreetmap.org/copyright
82957178,1146,2019-12-30 15:53:32,27.707498333333334,85.329695,17.63,4.060593165503509,"Radhe Marg, Dillibazar, Kathmandu 44605, Nepal",27.7066443,85.3288016,Radhe Marg,,Radhe Marg,44605,Kathmandu-30,Dillibazar,Kathmandu,Kathmandu,Bagmati Province,Nepal,np,© OpenStreetMap contributors,Open Database License,https://www.openstreetmap.org/copyright
82957690,1146,2019-12-30 15:54:02,27.706731666666663,85.32895666666667,13.55,4.853757048452885,"Radhe Marg, Dillibazar, Kathmandu 44605, Nepal",27.7066443,85.3288016,Radhe Marg,,Radhe Marg,44605,Kathmandu-30,Dillibazar,Kathmandu,Kathmandu,Bagmati Province,Nepal,np,© OpenStreetMap contributors,Open Database License,https://www.openstreetmap.org/copyright
82958186,1146,2019-12-30 15:54:32,27.705396666666665,85.32771,5.57,62.761204740264375,"Destiny Educational Institute, Dillibazar Sadak 30, Kathmandu, Kathmandu 44600, Nepal",27.705194,85.328305,Destiny Educational Institute,30,Dillibazar Sadak,44600,,,Kathmandu,Kathmandu,Three,Nepal,np,© OpenStreetMap contributors,Open Database License,https://www.openstreetmap.org/copyright
82958683,1146,2019-12-30 15:55:02,27.70345,85.32662333333333,18.51,77.40228063013234,"Shree Bhagwati Marg 59, Kathmandu, Kathmandu 00446, Nepal",27.703819,85.32729,,59,Shree Bhagwati Marg,00446,,,Kathmandu,Kathmandu,Three,Nepal,np,© OpenStreetMap contributors,Open Database License,https://www.openstreetmap.org/copyright
82959211,1146,2019-12-30 15:55:32,27.70157,85.32505833333333,16.92,1.6877813716653896,"Bansh Ghari, Kathmandu 44605, Nepal",27.7027871,85.3262118,,,,44605,Kathmandu-29,Bansh Ghari,Kathmandu,Kathmandu,Bagmati Province,Nepal,np,© OpenStreetMap contributors,Open Database License,https://www.openstreetmap.org/copyright
82959741,1146,2019-12-30 15:56:03,27.700676666666663,85.32367666666667,14.51,18.146371573017124,"Global IME Bank, New Plaza Marg 29, Bansh Ghari, Kathmandu 44605, Nepal",27.700727,85.323852,Global IME Bank,29,New Plaza Marg,44605,Kathmandu-29,Bansh Ghari,Kathmandu,Kathmandu,Bagmati Province,Nepal,np,© OpenStreetMap contributors,Open Database License,https://www.openstreetmap.org/copyright
82960227,1146,2019-12-30 15:56:31,27.700015,85.322025,22.64,0.9769135746035011,"Singh Durbar, Saras Marg, Ghattekulo, Kathmandu 00446, Nepal",27.696478149999997,85.32461913495442,Singh Durbar,,Saras Marg,00446,Kathmandu-29,Ghattekulo,Kathmandu,Kathmandu,Bagmati Province,Nepal,np,© OpenStreetMap contributors,Open Database License,https://www.openstreetmap.org/copyright
82960831,1146,2019-12-30 15:57:07,27.697465,85.321445,22.72,1.3505035839862436,"Singh Durbar, Saras Marg, Ghattekulo, Kathmandu 00446, Nepal",27.696478149999997,85.32461913495442,Singh Durbar,,Saras Marg,00446,Kathmandu-29,Ghattekulo,Kathmandu,Kathmandu,Bagmati Province,Nepal,np,© OpenStreetMap contributors,Open Database License,https://www.openstreetmap.org/copyright
82961224,1146,2019-12-30 15:57:31,27.694478333333333,85.32072166666667,19.17,11.400481956905663,"Asia Law Chamber, Madan Bhandari Path, Thapathali, Kathmandu 44617, Nepal",27.694427,85.3208219,Asia Law Chamber,,Madan Bhandari Path,44617,Kathmandu-11,Thapathali,Kathmandu,Kathmandu,Bagmati Province,Nepal,np,© OpenStreetMap contributors,Open Database License,https://www.openstreetmap.org/copyright
84084345,1146,2019-12-31 10:06:36,27.693241666666665,85.33924833333333,14.87,3.424177630696218,"ADAPT - Nepal, Shree Panchakumari Marg, Naya Baneshwar, Kathmandu 44703, Nepal",27.69328845,85.33917359701645,ADAPT - Nepal,,Shree Panchakumari Marg,44703,Kathmandu-31,Naya Baneshwar,Kathmandu,Kathmandu,Bagmati Province,Nepal,np,© OpenStreetMap contributors,Open Database License,https://www.openstreetmap.org/copyright
84084808,1146,2019-12-31 10:07:02,27.692743333333333,85.33829,4.32,4.439692465269712,"Jana Sahayogi Marga, Naya Baneshwar, Kathmandu 44703, Nepal",27.6917205,85.3378572,Jana Sahayogi Marga,,Jana Sahayogi Marga,44703,Kathmandu-31,Naya Baneshwar,Kathmandu,Kathmandu,Bagmati Province,Nepal,np,© OpenStreetMap contributors,Open Database License,https://www.openstreetmap.org/copyright
84085366,1146,2019-12-31 10:07:32,27.69200833333333,85.33795666666667,7.44,23.720077756182004,"Deurali Marg, Kathmandu, Kathmandu 00446, Nepal",27.692158,85.337785,,,Deurali Marg,00446,,,Kathmandu,Kathmandu,Three,Nepal,np,© OpenStreetMap contributors,Open Database License,https://www.openstreetmap.org/copyright
84085937,1146,2019-12-31 10:08:02,27.691626666666668,85.33782833333333,1.6,6.260490877499126,"Jana Sahayogi Marga, Kathmandu, Kathmandu 44703, Nepal",27.691681,85.337845,,,Jana Sahayogi Marga,44703,,,Kathmandu,Kathmandu,Three,Nepal,np,© OpenStreetMap contributors,Open Database License,https://www.openstreetmap.org/copyright
84086471,1146,2019-12-31 10:08:32,27.69133833333333,85.33736833333333,5.75,50.430995294769446,"Samaj Dental, Bibhuti Janak Marg, Kathmandu, Kathmandu 44617, Nepal",27.691091,85.336939,Samaj Dental,,Bibhuti Janak Marg,44617,,,Kathmandu,Kathmandu,Three,Nepal,np,© OpenStreetMap contributors,Open Database License,https://www.openstreetmap.org/copyright
84086996,1146,2019-12-31 10:09:01,27.69089,85.33695333333333,7.09,8.638071260329909,"Samaj Dental Care, Kathmandu, Kathmandu 44617, Nepal",27.690893,85.337041,Samaj Dental Care,,,44617,,,Kathmandu,Kathmandu,Three,Nepal,np,© OpenStreetMap contributors,Open Database License,https://www.openstreetmap.org/copyright
84087533,1146,2019-12-31 10:09:31,27.690875,85.336165,4.72,18.66502142566511,"Budathoki Driving Training Center, Devkota Sadak, Buddha Nagar, Kathmandu 00446, Nepal",27.6909161,85.3359812,Budathoki Driving Training Center,,Devkota Sadak,00446,Kathmandu-10,Buddha Nagar,Kathmandu,Kathmandu,Bagmati Province,Nepal,np,© OpenStreetMap contributors,Open Database License,https://www.openstreetmap.org/copyright
84088184,1146,2019-12-31 10:10:07,27.689386666666667,85.33583666666667,13.46,19.40606322078271,"Naya Baneshwar Sadak, Kathmandu, Kathmandu 44617, Nepal",27.689553,85.335777,,,Naya Baneshwar Sadak,44617,,,Kathmandu,Kathmandu,Three,Nepal,np,© OpenStreetMap contributors,Open Database License,https://www.openstreetmap.org/copyright
84088633,1146,2019-12-31 10:10:31,27.688133333333333,85.33554,1.39,0.5883869939394024,"Minbhawan, Kathmandu 44617, Nepal",27.6880487,85.3359171,,,,44617,Kathmandu-31,Minbhawan,Kathmandu,Kathmandu,Bagmati Province,Nepal,np,© OpenStreetMap contributors,Open Database License,https://www.openstreetmap.org/copyright
84372943,1146,2019-12-31 14:40:04,27.70799166666667,85.33895166666667,22.09,17.09512716572469,"Wigan & Leigh College, Pashupati Sadak, Chabahil, Kathmandu 44660, Nepal",27.70814345,85.33914129437514,Wigan & Leigh College,,Pashupati Sadak,44660,Kathmandu-07,Chabahil,Kathmandu,Kathmandu,Bagmati Province,Nepal,np,© OpenStreetMap contributors,Open Database License,https://www.openstreetmap.org/copyright
84373446,1146,2019-12-31 14:40:34,27.708136666666668,85.33649333333334,3.97,7.214813148392851,"Ratopul, Kathmandu, Kathmandu 00975, Nepal",27.708085,85.336449,Ratopul,,,00975,,,Kathmandu,Kathmandu,Three,Nepal,np,© OpenStreetMap contributors,Open Database License,https://www.openstreetmap.org/copyright
84374075,1146,2019-12-31 14:41:10,27.70983,85.33705166666667,21.32,0.6706475260493456,"Rudra Mati Marg, Maitidevi, Kathmandu 00975, Nepal",27.7096953,85.3370232,Rudra Mati Marg,,Rudra Mati Marg,00975,Kathmandu-30,Maitidevi,Kathmandu,Kathmandu,Bagmati Province,Nepal,np,© OpenStreetMap contributors,Open Database License,https://www.openstreetmap.org/copyright
84435313,1146,2019-12-31 15:41:08,27.710185,85.32217166666666,6.01,10.83568964146027,"श्री हरी स्क्युरिटिज प्रा. लि, Tin Dhara Sadak, Narayan Chaur, Kathmandu 46000, Nepal",27.71004865,85.32227960375565,श्री हरी स्क्युरिटिज प्रा. लि,,Tin Dhara Sadak,46000,Kathmandu-01,Narayan Chaur,Kathmandu,Kathmandu,Bagmati Province,Nepal,np,© OpenStreetMap contributors,Open Database License,https://www.openstreetmap.org/copyright
84435804,1146,2019-12-31 15:41:38,27.708581666666667,85.321985,14.48,0,"Uma Holidays Travel & Tours, Charbhurja Marg, Narayan Chaur, Kathmandu 46000, Nepal",27.708647,85.32202762713243,Uma Holidays Travel & Tours,,Charbhurja Marg,46000,Kathmandu-28,Narayan Chaur,Kathmandu,Kathmandu,Bagmati Province,Nepal,np,© OpenStreetMap contributors,Open Database License,https://www.openstreetmap.org/copyright
84436336,1146,2019-12-31 15:42:07,27.707035,85.32271666666666,12.56,8.817933723623144,"Maha-Ananga Niwas Himali House, Putali Sadak, Narayan Chaur, Kathmandu 46000, Nepal",27.7069613,85.3226836,Maha-Ananga Niwas Himali House,,Putali Sadak,46000,Kathmandu-28,Narayan Chaur,Kathmandu,Kathmandu,Bagmati Province,Nepal,np,© OpenStreetMap contributors,Open Database License,https://www.openstreetmap.org/copyright
84436887,1146,2019-12-31 15:42:39,27.705221666666667,85.32286833333333,16.11,1.3459487390511269,"Joshi Photo Process and Digital Studio, Kathmandu, Kathmandu 46600, Nepal",27.705222,85.322882,Joshi Photo Process and Digital Studio,,,46600,,,Kathmandu,Kathmandu,Three,Nepal,np,© OpenStreetMap contributors,Open Database License,https://www.openstreetmap.org/copyright
84437385,1146,2019-12-31 15:43:07,27.702405,85.322485,20.48,1.7317306452826235,"Pramod Automobiles, Kathmandu, Kathmandu 44605, Nepal",27.702401,85.322468,Pramod Automobiles,,,44605,,,Kathmandu,Kathmandu,Three,Nepal,np,© OpenStreetMap contributors,Open Database License,https://www.openstreetmap.org/copyright
84437882,1146,2019-12-31 15:43:37,27.700101666666665,85.32205333333333,21.48,0.13248943086419634,"Singh Durbar, Saras Marg, Ghattekulo, Kathmandu 00446, Nepal",27.696478149999997,85.32461913495442,Singh Durbar,,Saras Marg,00446,Kathmandu-29,Ghattekulo,Kathmandu,Kathmandu,Bagmati Province,Nepal,np,© OpenStreetMap contributors,Open Database License,https://www.openstreetmap.org/copyright
84438376,1146,2019-12-31 15:44:06,27.697828333333334,85.32154333333334,18.28,0,"Singh Durbar, Saras Marg, Ghattekulo, Kathmandu 00446, Nepal",27.696478149999997,85.32461913495442,Singh Durbar,,Saras Marg,00446,Kathmandu-29,Ghattekulo,Kathmandu,Kathmandu,Bagmati Province,Nepal,np,© OpenStreetMap contributors,Open Database License,https://www.openstreetmap.org/copyright
84438876,1146,2019-12-31 15:44:36,27.695443333333333,85.32101166666666,13.53,0,"Singh Durbar, Saras Marg, Ghattekulo, Kathmandu 00446, Nepal",27.696478149999997,85.32461913495442,Singh Durbar,,Saras Marg,00446,Kathmandu-29,Ghattekulo,Kathmandu,Kathmandu,Bagmati Province,Nepal,np,© OpenStreetMap contributors,Open Database License,https://www.openstreetmap.org/copyright
84439397,1146,2019-12-31 15:45:07,27.694315,85.32023666666667,0.17,6.329896936773057,"Thapathali, Kathmandu 44617, Nepal",27.6944913,85.3200831,,,,44617,Kathmandu-11,Thapathali,Kathmandu,Kathmandu,Bagmati Province,Nepal,np,© OpenStreetMap contributors,Open Database License,https://www.openstreetmap.org/copyright