original_id,original_deviceid,original_servertime,original_latitude,original_longitude,original_speed,distance,formatted,lat,lon,name,housenumber,street,postcode,district,suburb,city,county,state,country,country_code,attribution,attribution_license,attribution_url
54242393,1149,2019-12-11 11:52:50,27.708006666666662,85.338895,18.11,17.27243577395472,"Burger Bites, Pashupati Sadak, Chabahil, Kathmandu 44660, Nepal",27.70814135,85.3387271,Burger Bites,,Pashupati Sadak,44660,Kathmandu-07,Chabahil,Kathmandu,Kathmandu,Bagmati Province,Nepal,np,© OpenStreetMap contributors,Open Database License,https://www.openstreetmap.org/copyright
54242928,1149,2019-12-11 11:53:19,27.708068333333333,85.33710833333333,6.85,12.189977393993557,"Rudra Mati Marg-2, Kathmandu, Kathmandu 44660, Nepal",27.708139,85.337203,,,Rudra Mati Marg-2,44660,,,Kathmandu,Kathmandu,Three,Nepal,np,© OpenStreetMap contributors,Open Database License,https://www.openstreetmap.org/copyright
54243492,1149,2019-12-11 11:53:49,27.708185,85.33652333333333,4.84,9.551158566679439,"Janata meat house, Rudra Mati Marg, Maitidevi, Kathmandu 00975, Nepal",27.7081984,85.3364275,Janata meat house,,Rudra Mati Marg,00975,Kathmandu-30,Maitidevi,Kathmandu,Kathmandu,Bagmati Province,Nepal,np,© OpenStreetMap contributors,Open Database License,https://www.openstreetmap.org/copyright
54244037,1149,2019-12-11 11:54:19,27.709965,85.33705833333333,16.03,1.9114689334544628,"Rudra Mati Marg, Maitidevi, Kathmandu 00975, Nepal",27.7096953,85.3370232,Rudra Mati Marg,,Rudra Mati Marg,00975,Kathmandu-30,Maitidevi,Kathmandu,Kathmandu,Bagmati Province,Nepal,np,© OpenStreetMap contributors,Open Database License,https://www.openstreetmap.org/copyright
55428250,1149,2019-12-12 07:39:35,27.69386,85.31910666666667,8.44,19.976947980088834,"Sunita Chamena House, Thapathali Road, Thapathali, Kathmandu 00779, Nepal",27.693681,85.319124,Sunita Chamena House,,Thapathali Road,00779,Kathmandu-11,Thapathali,Kathmandu,Kathmandu,Bagmati Province,Nepal,np,© OpenStreetMap contributors,Open Database License,https://www.openstreetmap.org/copyright
55428763,1149,2019-12-12 07:40:05,27.694215,85.31939333333334,3.76,0.11967339317414437,"Thapathali, Kathmandu 44617, Nepal",27.6942618,85.3194402,,,,44617,Kathmandu-11,Thapathali,Kathmandu,Kathmandu,Bagmati Province,Nepal,np,© OpenStreetMap contributors,Open Database License,https://www.openstreetmap.org/copyright
55429278,1149,2019-12-12 07:40:34,27.694566666666667,85.31995,7.54,0.9773270377654093,"Thapathali, Kathmandu 44617, Nepal",27.6944768,85.3197665,,,,44617,Kathmandu-11,Thapathali,Kathmandu,Kathmandu,Bagmati Province,Nepal,np,© OpenStreetMap contributors,Open Database License,https://www.openstreetmap.org/copyright
55429818,1149,2019-12-12 07:41:05,27.69502,85.320745,0.05,1.4915173620980275,"Ram Shah Path, Thapathali, Kathmandu 44617, Nepal",27.6950551,85.3208079,Ram Shah Path,,Ram Shah Path,44617,Kathmandu-11,Thapathali,Kathmandu,Kathmandu,Bagmati Province,Nepal,np,© OpenStreetMap contributors,Open Database License,https://www.openstreetmap.org/copyright
55430864,1149,2019-12-12 07:42:05,27.69499,85.32142333333333,13.7,3.364244496005621,"Singh Durbar, Saras Marg, Ghattekulo, Kathmandu 00446, Nepal",27.696478149999997,85.32461913495442,Singh Durbar,,Saras Marg,00446,Kathmandu-29,Ghattekulo,Kathmandu,Kathmandu,Bagmati Province,Nepal,np,© OpenStreetMap contributors,Open Database License,https://www.openstreetmap.org/copyright
55432740,1149,2019-12-12 07:43:53,27.69333,85.32750166666666,5.69,3.255763904016439,"Hanumansthan, Tanka Prasad Ghumti Sadak, Bansh Ghari, Kathmandu 44617, Nepal",27.6933054,85.3275196,Hanumansthan,,Tanka Prasad Ghumti Sadak,44617,Kathmandu-29,Bansh Ghari,Kathmandu,Kathmandu,Bagmati Province,Nepal,np,© OpenStreetMap contributors,Open Database License,https://www.openstreetmap.org/copyright
55433280,1149,2019-12-12 07:44:24,27.692878333333333,85.32816,4.05,26.69476684431808,"Bhat-Bhateni, Bhaktithapa Road Anamnagar, Bansh Ghari, Kathmandu 44617, Nepal",27.692839399999997,85.32842753971141,Bhat-Bhateni,Anamnagar,Bhaktithapa Road,44617,Kathmandu-29,Bansh Ghari,Kathmandu,Kathmandu,Bagmati Province,Nepal,np,© OpenStreetMap contributors,Open Database License,https://www.openstreetmap.org/copyright
55433781,1149,2019-12-12 07:44:53,27.69248333333333,85.32898166666666,18.1,66.89759168135765,"Bhat-Bhateni, Bhaktithapa Road Anamnagar, Kathmandu, Kathmandu 44617, Nepal",27.692843,85.328437,Bhat-Bhateni,Anamnagar,Bhaktithapa Road,44617,,,Kathmandu,Kathmandu,Three,Nepal,np,© OpenStreetMap contributors,Open Database License,https://www.openstreetmap.org/copyright
55434288,1149,2019-12-12 07:45:22,27.692038333333333,85.330795,17.94,8.411820322475064,"Candid Travel Agency, Kathmandu, Kathmandu 44617, Nepal",27.691979,85.330742,Candid Travel Agency,,,44617,,,Kathmandu,Kathmandu,Three,Nepal,np,© OpenStreetMap contributors,Open Database License,https://www.openstreetmap.org/copyright
55434856,1149,2019-12-12 07:45:54,27.692065,85.33214666666667,12.31,57.45523075918676,"CMS Nepal (P) Ltd, Lakhe Chaur Marg, Buddha Nagar, Kathmandu 44617, Nepal",27.69246025,85.33166449999999,CMS Nepal (P) Ltd,,Lakhe Chaur Marg,44617,Kathmandu-10,Buddha Nagar,Kathmandu,Kathmandu,Bagmati Province,Nepal,np,© OpenStreetMap contributors,Open Database License,https://www.openstreetmap.org/copyright
55435350,1149,2019-12-12 07:46:22,27.694206666666663,85.33265166666666,15.41,42.333647412172624,"Pathshala Nepal Foundation, Lakhe Chaur Marg, Baneshwar, Kathmandu 00446, Nepal",27.6945235,85.33289007249826,Pathshala Nepal Foundation,,Lakhe Chaur Marg,00446,Kathmandu-10,Baneshwar,Kathmandu,Kathmandu,Bagmati Province,Nepal,np,© OpenStreetMap contributors,Open Database License,https://www.openstreetmap.org/copyright
55435888,1149,2019-12-12 07:46:52,27.69424666666667,85.33449166666666,15.54,92.21799601313431,"Pashupati Boys Hostel, Lakhe Chaur Marg 202, Baneshwar, Kathmandu 00446, Nepal",27.6942013,85.3354269,Pashupati Boys Hostel,202,Lakhe Chaur Marg,00446,Kathmandu-10,Baneshwar,Kathmandu,Kathmandu,Bagmati Province,Nepal,np,© OpenStreetMap contributors,Open Database License,https://www.openstreetmap.org/copyright
55436408,1149,2019-12-12 07:47:21,27.694088333333333,85.33676833333334,12.72,7.152520490573363,"Bhagwati herbal beauty and skin care center, Lakhe Chaur Marg, Baneshwar, Kathmandu 00446, Nepal",27.693988400000002,85.33673039728342,Bhagwati herbal beauty and skin care center,,Lakhe Chaur Marg,00446,Kathmandu-10,Baneshwar,Kathmandu,Kathmandu,Bagmati Province,Nepal,np,© OpenStreetMap contributors,Open Database License,https://www.openstreetmap.org/copyright
55436945,1149,2019-12-12 07:47:52,27.694735,85.33724166666667,12.89,9.187200756696868,"Dumpling Restaurant, Devkota Sadak, Baneshwar, Kathmandu 44703, Nepal",27.6947239,85.3371492,Dumpling Restaurant,,Devkota Sadak,44703,Kathmandu-10,Baneshwar,Kathmandu,Kathmandu,Bagmati Province,Nepal,np,© OpenStreetMap contributors,Open Database License,https://www.openstreetmap.org/copyright
55437462,1149,2019-12-12 07:48:21,27.69605333333333,85.33761833333334,9.26,10.779340164373458,"Sunway International Business School, Devkota Sadak, Baneshwar, Kathmandu 44703, Nepal",27.6962397,85.3377140452759,Sunway International Business School,,Devkota Sadak,44703,Kathmandu-10,Baneshwar,Kathmandu,Kathmandu,Bagmati Province,Nepal,np,© OpenStreetMap contributors,Open Database License,https://www.openstreetmap.org/copyright
55437990,1149,2019-12-12 07:48:51,27.696841666666668,85.33795333333333,7.07,17.368208112945975,"Taplejung Sekuwa Corner, Madhya Baneshwar Marga, Naya Baneshwar, Kathmandu 44703, Nepal",27.6969786,85.3380382,Taplejung Sekuwa Corner,,Madhya Baneshwar Marga,44703,Kathmandu-31,Naya Baneshwar,Kathmandu,Kathmandu,Bagmati Province,Nepal,np,© OpenStreetMap contributors,Open Database License,https://www.openstreetmap.org/copyright
55438527,1149,2019-12-12 07:49:21,27.696483333333333,85.33966166666667,9.22,1.0250760416789597,"Valley View English Boarding School, Madhya Baneshwar Marga, Naya Baneshwar, Kathmandu 44703, Nepal",27.696732150000003,85.33957572122964,Valley View English Boarding School,,Madhya Baneshwar Marga,44703,Kathmandu-31,Naya Baneshwar,Kathmandu,Kathmandu,Bagmati Province,Nepal,np,© OpenStreetMap contributors,Open Database License,https://www.openstreetmap.org/copyright
55513009,1149,2019-12-12 09:00:20,27.70800833333333,85.33873833333334,18.43,8.43686662524846,"Burger Bites, Pashupati Sadak, Chabahil, Kathmandu 44660, Nepal",27.70814135,85.3387271,Burger Bites,,Pashupati Sadak,44660,Kathmandu-07,Chabahil,Kathmandu,Kathmandu,Bagmati Province,Nepal,np,© OpenStreetMap contributors,Open Database License,https://www.openstreetmap.org/copyright
55513525,1149,2019-12-12 09:00:50,27.708023333333333,85.33749,5.79,12.140781787580762,"Ratopul Stop, Kathmandu, Kathmandu 44660, Nepal",27.708052,85.337371,Ratopul Stop,,,44660,,,Kathmandu,Kathmandu,Three,Nepal,np,© OpenStreetMap contributors,Open Database License,https://www.openstreetmap.org/copyright
55514039,1149,2019-12-12 09:01:20,27.708141666666663,85.33648333333333,3.89,7.150322129400329,"Ratopul, Kathmandu, Kathmandu 00975, Nepal",27.708085,85.336449,Ratopul,,,00975,,,Kathmandu,Kathmandu,Three,Nepal,np,© OpenStreetMap contributors,Open Database License,https://www.openstreetmap.org/copyright
55514563,1149,2019-12-12 09:01:50,27.710776666666668,85.33719166666667,26.12,2.5835979266982028,"Rudra Mati Marg, Maitidevi, Kathmandu 00975, Nepal",27.7096953,85.3370232,Rudra Mati Marg,,Rudra Mati Marg,00975,Kathmandu-30,Maitidevi,Kathmandu,Kathmandu,Bagmati Province,Nepal,np,© OpenStreetMap contributors,Open Database License,https://www.openstreetmap.org/copyright
55752604,1149,2019-12-12 13:13:48,27.70940166666667,85.33700333333333,17.44,0.07019080625204327,"Rudra Mati Marg, Maitidevi, Kathmandu 00975, Nepal",27.7096953,85.3370232,Rudra Mati Marg,,Rudra Mati Marg,00975,Kathmandu-30,Maitidevi,Kathmandu,Kathmandu,Bagmati Province,Nepal,np,© OpenStreetMap contributors,Open Database License,https://www.openstreetmap.org/copyright
56786814,1149,2019-12-13 05:28:47,27.70799166666667,85.33848666666667,19.97,18.093451924955488,"S.S Sound and Light Hire Centre, Kathmandu, Kathmandu 44660, Nepal",27.708128,85.338587,S.S Sound and Light Hire Centre,,,44660,,,Kathmandu,Kathmandu,Three,Nepal,np,© OpenStreetMap contributors,Open Database License,https://www.openstreetmap.org/copyright
56787337,1149,2019-12-13 05:29:17,27.70805333333333,85.33682166666667,6.13,5.374156486897817,"Ratopul, Chabahil, Kathmandu 44660, Nepal",27.708086,85.3368619,Ratopul,,Ratopul,44660,Kathmandu-30,Chabahil,Kathmandu,Kathmandu,Bagmati Province,Nepal,np,© OpenStreetMap contributors,Open Database License,https://www.openstreetmap.org/copyright
56787866,1149,2019-12-13 05:29:47,27.709146666666665,85.33696333333333,20.7,0.40843794473642686,"Rudra Mati Marg, Maitidevi, Kathmandu 00975, Nepal",27.7096953,85.3370232,Rudra Mati Marg,,Rudra Mati Marg,00975,Kathmandu-30,Maitidevi,Kathmandu,Kathmandu,Bagmati Province,Nepal,np,© OpenStreetMap contributors,Open Database License,https://www.openstreetmap.org/copyright
56898721,1149,2019-12-13 07:11:03,27.708,85.33871666666667,17.25,9.596958158857515,"Burger Bites, Pashupati Sadak, Chabahil, Kathmandu 44660, Nepal",27.70814135,85.3387271,Burger Bites,,Pashupati Sadak,44660,Kathmandu-07,Chabahil,Kathmandu,Kathmandu,Bagmati Province,Nepal,np,© OpenStreetMap contributors,Open Database License,https://www.openstreetmap.org/copyright
56899279,1149,2019-12-13 07:11:33,27.708001666666668,85.33746166666667,3.83,10.535217528794607,"Ratopul Stop, Kathmandu, Kathmandu 44660, Nepal",27.708052,85.337371,Ratopul Stop,,,44660,,,Kathmandu,Kathmandu,Three,Nepal,np,© OpenStreetMap contributors,Open Database License,https://www.openstreetmap.org/copyright
56899882,1149,2019-12-13 07:12:03,27.708106666666666,85.33614666666666,12.97,5.9597705127173235,"Lumbini tanduri dhaba & bhojanalaya, Pashupati Sadak, Maitidevi, Kathmandu 44605, Nepal",27.708054,85.3361579,Lumbini tanduri dhaba & bhojanalaya,,Pashupati Sadak,44605,Kathmandu-30,Maitidevi,Kathmandu,Kathmandu,Bagmati Province,Nepal,np,© OpenStreetMap contributors,Open Database License,https://www.openstreetmap.org/copyright
56900457,1149,2019-12-13 07:12:33,27.708145,85.33336833333334,7.04,25.946244692961535,"Subidha Travel, Pashupati Marga, Kathmandu, Kathmandu 44605, Nepal",27.708218,85.333118,Subidha Travel,,Pashupati Marga,44605,,,Kathmandu,Kathmandu,Three,Nepal,np,© OpenStreetMap contributors,Open Database License,https://www.openstreetmap.org/copyright
56901010,1149,2019-12-13 07:13:02,27.70708833333333,85.33310166666666,2.05,41.643452555720245,"Himalayan Bank, Kathmandu, Kathmandu 44605, Nepal",27.707055,85.333523,Himalayan Bank,,,44605,,,Kathmandu,Kathmandu,Three,Nepal,np,© OpenStreetMap contributors,Open Database License,https://www.openstreetmap.org/copyright
56901551,1149,2019-12-13 07:13:32,27.707135,85.33321,3.27,6.013651735628338,"Mahakavi Marg, Maitidevi, Kathmandu 44605, Nepal",27.7069354,85.3323354,Mahakavi Marg,,Mahakavi Marg,44605,Kathmandu-30,Maitidevi,Kathmandu,Kathmandu,Bagmati Province,Nepal,np,© OpenStreetMap contributors,Open Database License,https://www.openstreetmap.org/copyright
56902103,1149,2019-12-13 07:14:02,27.707588333333334,85.333355,15.61,33.3864832308725,"AM/PM Cafe and Bar, Maiti Devi marg, Maitidevi, Kathmandu 44605, Nepal",27.7073033,85.3334616,AM/PM Cafe and Bar,,Maiti Devi marg,44605,Kathmandu-30,Maitidevi,Kathmandu,Kathmandu,Bagmati Province,Nepal,np,© OpenStreetMap contributors,Open Database License,https://www.openstreetmap.org/copyright
56902628,1149,2019-12-13 07:14:32,27.70819833333333,85.33427833333333,16.48,13.47246749154024,"Shanta Plaza, Pashupati Sadak, Maitidevi, Kathmandu 44605, Nepal",27.7080902,85.3342166,Shanta Plaza,,Pashupati Sadak,44605,Kathmandu-30,Maitidevi,Kathmandu,Kathmandu,Bagmati Province,Nepal,np,© OpenStreetMap contributors,Open Database License,https://www.openstreetmap.org/copyright
56903160,1149,2019-12-13 07:15:01,27.708086666666667,85.3367,12.12,15.259963955494971,"Pashupati Sadak, Kathmandu, Kathmandu 44660, Nepal",27.708085,85.336545,,,Pashupati Sadak,44660,,,Kathmandu,Kathmandu,Three,Nepal,np,© OpenStreetMap contributors,Open Database License,https://www.openstreetmap.org/copyright
56903735,1149,2019-12-13 07:15:32,27.707965,85.33936833333334,17.69,11.706614978744657,"HipHop Communication and Stationery, Kathmandu, Kathmandu 44660, Nepal",27.70807,85.339377,HipHop Communication and Stationery,,,44660,,,Kathmandu,Kathmandu,Three,Nepal,np,© OpenStreetMap contributors,Open Database License,https://www.openstreetmap.org/copyright
57195753,1149,2019-12-13 11:40:53,27.70792833333333,85.33979666666667,13.63,12.83050044505115,"Cosmos Diagonosis and Research Centre, Pashupati Sadak, Chabahil, Kathmandu 44660, Nepal",27.70814865,85.33979338472814,Cosmos Diagonosis and Research Centre,,Pashupati Sadak,44660,Kathmandu-07,Chabahil,Kathmandu,Kathmandu,Bagmati Province,Nepal,np,© OpenStreetMap contributors,Open Database License,https://www.openstreetmap.org/copyright
57196284,1149,2019-12-13 11:41:23,27.707985,85.33787,9.1,13.904827107187671,"Fruit Store, Kathmandu, Kathmandu 44660, Nepal",27.708107,85.337901,Fruit Store,,,44660,,,Kathmandu,Kathmandu,Three,Nepal,np,© OpenStreetMap contributors,Open Database License,https://www.openstreetmap.org/copyright
57196826,1149,2019-12-13 11:41:53,27.708001666666668,85.33734666666666,1.21,3.5515963601608127,"Maitidevi, Kathmandu 00446, Nepal",27.7056104,85.3364598,,,,00446,Kathmandu-30,Maitidevi,Kathmandu,Kathmandu,Bagmati Province,Nepal,np,© OpenStreetMap contributors,Open Database License,https://www.openstreetmap.org/copyright
57197381,1149,2019-12-13 11:42:23,27.707225,85.33681833333333,18.5,2.486276783922286,"Maitidevi, Kathmandu 00446, Nepal",27.7056104,85.3364598,,,,00446,Kathmandu-30,Maitidevi,Kathmandu,Kathmandu,Bagmati Province,Nepal,np,© OpenStreetMap contributors,Open Database License,https://www.openstreetmap.org/copyright
57198003,1149,2019-12-13 11:42:57,27.705315,85.33641833333333,11.47,3.956368237124002,"Maitidevi, Kathmandu 00446, Nepal",27.7056104,85.3364598,,,,00446,Kathmandu-30,Maitidevi,Kathmandu,Kathmandu,Bagmati Province,Nepal,np,© OpenStreetMap contributors,Open Database License,https://www.openstreetmap.org/copyright
57198487,1149,2019-12-13 11:43:22,27.70435,85.33635,2.72,5.17274804493871,"Maitidevi, Kathmandu 00446, Nepal",27.7056104,85.3364598,,,,00446,Kathmandu-30,Maitidevi,Kathmandu,Kathmandu,Bagmati Province,Nepal,np,© OpenStreetMap contributors,Open Database License,https://www.openstreetmap.org/copyright
57199116,1149,2019-12-13 11:43:57,27.70433,85.33628166666666,0.43,1.3392353549026896,"Maitidevi, Kathmandu 00446, Nepal",27.7056104,85.3364598,,,,00446,Kathmandu-30,Maitidevi,Kathmandu,Kathmandu,Bagmati Province,Nepal,np,© OpenStreetMap contributors,Open Database License,https://www.openstreetmap.org/copyright
57199630,1149,2019-12-13 11:44:22,27.70546833333333,85.33641833333333,13.76,0.5753224838387091,"Maitidevi, Kathmandu 00446, Nepal",27.7056104,85.3364598,,,,00446,Kathmandu-30,Maitidevi,Kathmandu,Kathmandu,Bagmati Province,Nepal,np,© OpenStreetMap contributors,Open Database License,https://www.openstreetmap.org/copyright
57200219,1149,2019-12-13 11:44:53,27.707561666666667,85.33685666666666,9.56,0.8382612883936521,"Maitidevi, Kathmandu 00446, Nepal",27.7056104,85.3364598,,,,00446,Kathmandu-30,Maitidevi,Kathmandu,Kathmandu,Bagmati Province,Nepal,np,© OpenStreetMap contributors,Open Database License,https://www.openstreetmap.org/copyright
57200757,1149,2019-12-13 11:45:22,27.70805333333333,85.33679666666667,12.09,7.377950083870996,"Ratopul, Chabahil, Kathmandu 44660, Nepal",27.708086,85.3368619,Ratopul,,Ratopul,44660,Kathmandu-30,Chabahil,Kathmandu,Kathmandu,Bagmati Province,Nepal,np,© OpenStreetMap contributors,Open Database License,https://www.openstreetmap.org/copyright
57201301,1149,2019-12-13 11:45:52,27.70685,85.33654,15.84,73.59092863396532,"Tamang Auto workshop, Rudra Mati Marg, Ghattekulo, Kathmandu 00446, Nepal",27.70746745,85.33693794999999,Tamang Auto workshop,,Rudra Mati Marg,00446,Kathmandu-29,Ghattekulo,Kathmandu,Kathmandu,Bagmati Province,Nepal,np,© OpenStreetMap contributors,Open Database License,https://www.openstreetmap.org/copyright
57201904,1149,2019-12-13 11:46:26,27.704535,85.33613,18.76,131.99473388647695,"Bashusasi Galli 14268, Kathmandu, Kathmandu 44660, Nepal",27.704392,85.337461,,14268,Bashusasi Galli,44660,,,Kathmandu,Kathmandu,Three,Nepal,np,© OpenStreetMap contributors,Open Database License,https://www.openstreetmap.org/copyright
57202359,1149,2019-12-13 11:46:51,27.70310333333333,85.33597833333333,4.35,0.6419757458724876,"Ghattekulo, Kathmandu 00446, Nepal",27.7028751,85.3359248,,,,00446,Kathmandu-29,Ghattekulo,Kathmandu,Kathmandu,Bagmati Province,Nepal,np,© OpenStreetMap contributors,Open Database License,https://www.openstreetmap.org/copyright
57202893,1149,2019-12-13 11:47:21,27.70259833333333,85.33589333333333,9.76,13.745845924954134,"Rudra Mati Marg, Kathmandu, Kathmandu 00446, Nepal",27.702719,85.335863,,,Rudra Mati Marg,00446,,,Kathmandu,Kathmandu,Three,Nepal,np,© OpenStreetMap contributors,Open Database License,https://www.openstreetmap.org/copyright
57203427,1149,2019-12-13 11:47:51,27.70083,85.33460333333333,21.66,2.0583104856705936,"Rudra Mati Marg, Ghattekulo, Kathmandu 00446, Nepal",27.7029998,85.3356503,Rudra Mati Marg,,Rudra Mati Marg,00446,Kathmandu-29,Ghattekulo,Kathmandu,Kathmandu,Bagmati Province,Nepal,np,© OpenStreetMap contributors,Open Database License,https://www.openstreetmap.org/copyright
57203970,1149,2019-12-13 11:48:20,27.699941666666668,85.33180666666667,15.03,45.279411770485794,"Peaceful girlls hostel, Rudra Mati Marga, Kathmandu, Kathmandu 00975, Nepal",27.6996632,85.3314711,Peaceful girlls hostel,,Rudra Mati Marga,00975,Kathmandu-05,,Kathmandu,Kathmandu,Bagmati Province,Nepal,np,© OpenStreetMap contributors,Open Database License,https://www.openstreetmap.org/copyright
57204495,1149,2019-12-13 11:48:50,27.698911666666667,85.33026166666667,14.47,56.18980868086127,"Bhadra Ghale Sikshya Sadan, Rudra Mati Marg, Ghattekulo, Kathmandu 00446, Nepal",27.69869715,85.33109528888795,Bhadra Ghale Sikshya Sadan,,Rudra Mati Marg,00446,Kathmandu-10,Ghattekulo,Kathmandu,Kathmandu,Bagmati Province,Nepal,np,© OpenStreetMap contributors,Open Database License,https://www.openstreetmap.org/copyright
57205103,1149,2019-12-13 11:49:25,27.697548333333334,85.33167,13.0,69.99643026033743,"Rudramati Primary School, Rudra Mati Marg, Ghattekulo, Kathmandu 00446, Nepal",27.69822945,85.33139167039417,Rudramati Primary School,,Rudra Mati Marg,00446,Kathmandu-10,Ghattekulo,Kathmandu,Kathmandu,Bagmati Province,Nepal,np,© OpenStreetMap contributors,Open Database License,https://www.openstreetmap.org/copyright
57205553,1149,2019-12-13 11:49:50,27.695836666666665,85.33020666666667,12.46,2.82584655622388,"Ghattekulo, Kathmandu 00446, Nepal",27.6958136,85.3299765,,,,00446,Kathmandu-29,Ghattekulo,Kathmandu,Kathmandu,Bagmati Province,Nepal,np,© OpenStreetMap contributors,Open Database License,https://www.openstreetmap.org/copyright
57206076,1149,2019-12-13 11:50:19,27.695771666666666,85.32986,2.65,2.358503484895482,"Ghattekulo, Kathmandu 00446, Nepal",27.6958136,85.3299765,,,,00446,Kathmandu-29,Ghattekulo,Kathmandu,Kathmandu,Bagmati Province,Nepal,np,© OpenStreetMap contributors,Open Database License,https://www.openstreetmap.org/copyright
57206592,1149,2019-12-13 11:50:49,27.695326666666663,85.32903833333333,12.97,6.360963134549035,"Ghattekulo, Kathmandu 00446, Nepal",27.6946161,85.3293153,,,,00446,Kathmandu-29,Ghattekulo,Kathmandu,Kathmandu,Bagmati Province,Nepal,np,© OpenStreetMap contributors,Open Database License,https://www.openstreetmap.org/copyright
57207121,1149,2019-12-13 11:51:19,27.69424833333333,85.32985666666667,3.25,1.1193479836256015,"Buddha Nagar, Kathmandu 00446, Nepal",27.6942278,85.3299422,,,,00446,Kathmandu-10,Buddha Nagar,Kathmandu,Kathmandu,Bagmati Province,Nepal,np,© OpenStreetMap contributors,Open Database License,https://www.openstreetmap.org/copyright
57207645,1149,2019-12-13 11:51:49,27.69425,85.32988,0.03,1.614696079951728,"Buddha Nagar, Kathmandu 00446, Nepal",27.6942278,85.3299422,,,,00446,Kathmandu-10,Buddha Nagar,Kathmandu,Kathmandu,Bagmati Province,Nepal,np,© OpenStreetMap contributors,Open Database License,https://www.openstreetmap.org/copyright
57208179,1149,2019-12-13 11:52:19,27.693988333333333,85.32988333333333,13.31,52.52254276113415,"Bulbule Marg, Kathmandu, Kathmandu 00446, Nepal",27.693554,85.330093,,,Bulbule Marg,00446,,,Kathmandu,Kathmandu,Three,Nepal,np,© OpenStreetMap contributors,Open Database License,https://www.openstreetmap.org/copyright
57208704,1149,2019-12-13 11:52:48,27.692476666666668,85.32918,1.01,6.681232114332465,"Kwality Party Place, Kathmandu, Kathmandu 44617, Nepal",27.692417,85.329188,Kwality Party Place,,,44617,,,Kathmandu,Kathmandu,Three,Nepal,np,© OpenStreetMap contributors,Open Database License,https://www.openstreetmap.org/copyright
57209253,1149,2019-12-13 11:53:18,27.69231,85.32932,0.26,1.0748610484956356,"Dhobikhola (धोबीखोला) Marg, Kathmandu, Kathmandu 44617, Nepal",27.6919485,85.3287688,Dhobikhola (धोबीखोला) Marg,,Dhobikhola (धोबीखोला) Marg,44617,Kathmandu-11,,Kathmandu,Kathmandu,Bagmati Province,Nepal,np,© OpenStreetMap contributors,Open Database License,https://www.openstreetmap.org/copyright
57209786,1149,2019-12-13 11:53:48,27.69234833333333,85.329375,1.93,11.326588320371652,"Bhaktithapa Road, Kathmandu, Kathmandu 44617, Nepal",27.692351,85.32926,,,Bhaktithapa Road,44617,,,Kathmandu,Kathmandu,Three,Nepal,np,© OpenStreetMap contributors,Open Database License,https://www.openstreetmap.org/copyright
57210314,1149,2019-12-13 11:54:18,27.69316,85.329395,9.72,13.086010877487064,"Shanti Binayak Marg, Ghattekulo, Kathmandu 00446, Nepal",27.693274,85.329428,,,Shanti Binayak Marg,00446,,Ghattekulo,Kathmandu,Kathmandu,Three,Nepal,np,© OpenStreetMap contributors,Open Database License,https://www.openstreetmap.org/copyright
57210861,1149,2019-12-13 11:54:48,27.693933333333334,85.32984,0.88,48.986144926401195,"Bulbule Marg, Kathmandu, Kathmandu 00446, Nepal",27.693554,85.330093,,,Bulbule Marg,00446,,,Kathmandu,Kathmandu,Three,Nepal,np,© OpenStreetMap contributors,Open Database License,https://www.openstreetmap.org/copyright
57211432,1149,2019-12-13 11:55:17,27.69392,85.32993666666667,0.13,25.910831683602602,"Nepal Mahila Ekata Samaj, Bulbule Marg, Buddha Nagar, Kathmandu 00446, Nepal",27.6938473,85.3301867,Nepal Mahila Ekata Samaj,,Bulbule Marg,00446,Kathmandu-10,Buddha Nagar,Kathmandu,Kathmandu,Bagmati Province,Nepal,np,© OpenStreetMap contributors,Open Database License,https://www.openstreetmap.org/copyright
57211982,1149,2019-12-13 11:55:47,27.69418,85.32999833333334,2.8,55.22265744742638,"Opera Builders and Suppliers Pvt. Ltd, Kathmandu, Kathmandu 00446, Nepal",27.69467,85.329907,,,Opera Builders and Suppliers Pvt. Ltd,00446,,,Kathmandu,Kathmandu,Three,Nepal,np,© OpenStreetMap contributors,Open Database License,https://www.openstreetmap.org/copyright
57212546,1149,2019-12-13 11:56:17,27.694755,85.33076833333334,6.68,24.106216399866657,"Canvas English Boarding School, Narayaneshwar Marg, Baneshwar, Kathmandu 00446, Nepal",27.69474885,85.33121276244239,Canvas English Boarding School,,Narayaneshwar Marg,00446,Kathmandu-10,Baneshwar,Kathmandu,Kathmandu,Bagmati Province,Nepal,np,© OpenStreetMap contributors,Open Database License,https://www.openstreetmap.org/copyright
57213090,1149,2019-12-13 11:56:47,27.695616666666663,85.332355,12.05,30.357941396712818,"New Shine Academy High School, Kathmandu, Kathmandu 00446, Nepal",27.695395,85.332175,New Shine Academy High School,,,00446,,,Kathmandu,Kathmandu,Three,Nepal,np,© OpenStreetMap contributors,Open Database License,https://www.openstreetmap.org/copyright
57213613,1149,2019-12-13 11:57:16,27.696341666666665,85.33310666666667,12.65,7.5216816681786725,"Sahabhagita Marg, Kathmandu, Kathmandu 00446, Nepal",27.696351,85.333031,,,Sahabhagita Marg,00446,,,Kathmandu,Kathmandu,Three,Nepal,np,© OpenStreetMap contributors,Open Database License,https://www.openstreetmap.org/copyright
57214135,1149,2019-12-13 11:57:46,27.69588333333333,85.33485166666667,10.85,3.9868833341403715,"Sahabhagita Marg, Baneshwar, Kathmandu 00446, Nepal",27.6956811,85.3359944,Sahabhagita Marg,,Sahabhagita Marg,00446,Kathmandu-10,Baneshwar,Kathmandu,Kathmandu,Bagmati Province,Nepal,np,© OpenStreetMap contributors,Open Database License,https://www.openstreetmap.org/copyright
57214731,1149,2019-12-13 11:58:16,27.695425,85.33634333333333,10.18,32.15849732250174,"Ambition Academy, Kathmandu, Kathmandu 00446, Nepal",27.695206,85.33613,,,Ambition Academy,00446,,,Kathmandu,Kathmandu,Three,Nepal,np,© OpenStreetMap contributors,Open Database License,https://www.openstreetmap.org/copyright
57215294,1149,2019-12-13 11:58:46,27.695121666666665,85.33719,1.91,8.728444598752331,"Chicken Station, Kathmandu, Kathmandu 44703, Nepal",27.695193,85.337227,Chicken Station,,,44703,,,Kathmandu,Kathmandu,Three,Nepal,np,© OpenStreetMap contributors,Open Database License,https://www.openstreetmap.org/copyright
57215844,1149,2019-12-13 11:59:15,27.69508666666667,85.33728333333333,0.06,13.059970743662408,"Chicken Station, Kathmandu, Kathmandu 44703, Nepal",27.695193,85.337227,Chicken Station,,,44703,,,Kathmandu,Kathmandu,Three,Nepal,np,© OpenStreetMap contributors,Open Database License,https://www.openstreetmap.org/copyright
57216367,1149,2019-12-13 11:59:45,27.695946666666668,85.33756666666666,8.07,0.5829640451937664,"Naya Baneshwar, Kathmandu 44703, Nepal",27.6958546,85.3379355,,,,44703,Kathmandu-31,Naya Baneshwar,Kathmandu,Kathmandu,Bagmati Province,Nepal,np,© OpenStreetMap contributors,Open Database License,https://www.openstreetmap.org/copyright
57216901,1149,2019-12-13 12:00:15,27.69695,85.33779333333334,1.27,13.313432416049606,"Grand Bank Nepal Limited, Puja Pratisthan Marga, Baneshwar, Kathmandu 00446, Nepal",27.6969544,85.3376582,Grand Bank Nepal Limited,,Puja Pratisthan Marga,00446,Kathmandu-10,Baneshwar,Kathmandu,Kathmandu,Bagmati Province,Nepal,np,© OpenStreetMap contributors,Open Database License,https://www.openstreetmap.org/copyright
57217448,1149,2019-12-13 12:00:45,27.696535,85.33948166666667,14.32,0,"Valley View English Boarding School, Madhya Baneshwar Marga, Naya Baneshwar, Kathmandu 44703, Nepal",27.696732150000003,85.33957572122964,Valley View English Boarding School,,Madhya Baneshwar Marga,44703,Kathmandu-31,Naya Baneshwar,Kathmandu,Kathmandu,Bagmati Province,Nepal,np,© OpenStreetMap contributors,Open Database License,https://www.openstreetmap.org/copyright
58376229,1149,2019-12-14 06:52:55,27.708006666666662,85.33751666666667,7.6,15.200219926368701,"Ratopul Stop, Kathmandu, Kathmandu 44660, Nepal",27.708052,85.337371,Ratopul Stop,,,44660,,,Kathmandu,Kathmandu,Three,Nepal,np,© OpenStreetMap contributors,Open Database License,https://www.openstreetmap.org/copyright
58376739,1149,2019-12-14 06:53:25,27.708103333333334,85.33626833333334,12.61,7.869650520582309,"Nirogam aayurbed aausadhalaya, Pashupati Sadak, Maitidevi, Kathmandu 44605, Nepal",27.7080562,85.3362087,Nirogam aayurbed aausadhalaya,,Pashupati Sadak,44605,Kathmandu-30,Maitidevi,Kathmandu,Kathmandu,Bagmati Province,Nepal,np,© OpenStreetMap contributors,Open Database License,https://www.openstreetmap.org/copyright
58377294,1149,2019-12-14 06:53:55,27.708123333333333,85.33507833333333,1.95,5.6547597915855,"Binayek Photo Studio, Pashupati Sadak, Maitidevi, Kathmandu 44605, Nepal",27.7080959,85.3351267,Binayek Photo Studio,,Pashupati Sadak,44605,Kathmandu-30,Maitidevi,Kathmandu,Kathmandu,Bagmati Province,Nepal,np,© OpenStreetMap contributors,Open Database License,https://www.openstreetmap.org/copyright
58377802,1149,2019-12-14 06:54:25,27.708201666666668,85.333385,8.46,25.16043128259518,"Hero Honda, Pashupati Sadak, Maitidevi, Kathmandu 44605, Nepal",27.70834145,85.33365525495283,Hero Honda,,Pashupati Sadak,44605,Kathmandu-30,Maitidevi,Kathmandu,Kathmandu,Bagmati Province,Nepal,np,© OpenStreetMap contributors,Open Database License,https://www.openstreetmap.org/copyright
58378305,1149,2019-12-14 06:54:55,27.70865333333333,85.33199166666667,4.31,2.6028591206984273,"Maitidevi, Kathmandu 44605, Nepal",27.7086373,85.3319646,,,,44605,Kathmandu-30,Maitidevi,Kathmandu,Kathmandu,Bagmati Province,Nepal,np,© OpenStreetMap contributors,Open Database License,https://www.openstreetmap.org/copyright
58378808,1149,2019-12-14 06:55:24,27.70999,85.33284166666667,10.74,0.25430225682257085,"German Embassy, Gyaneshwar Marg, Maitidevi, Kathmandu 00975, Nepal",27.709540949999997,85.33348460677628,German Embassy,,Gyaneshwar Marg,00975,Kathmandu-30,Maitidevi,Kathmandu,Kathmandu,Bagmati Province,Nepal,np,© OpenStreetMap contributors,Open Database License,https://www.openstreetmap.org/copyright
58420045,1149,2019-12-14 07:35:24,27.710295,85.32307333333333,15.57,55.528925342864234,"Om Everest ceramic, Pashupati Marga 29, Kathmandu, Kathmandu 46000, Nepal",27.710364,85.323632,Om Everest ceramic,29,Pashupati Marga,46000,,,Kathmandu,Kathmandu,Three,Nepal,np,© OpenStreetMap contributors,Open Database License,https://www.openstreetmap.org/copyright
58420542,1149,2019-12-14 07:35:53,27.710145,85.324905,13.35,9.536009837232534,"Central Diagnostic Laboratpry, Pashupati Sadak - 3 28, Narayan Chaur, Kathmandu 46000, Nepal",27.7100731,85.3249578,Central Diagnostic Laboratpry,28,Pashupati Sadak - 3,46000,Kathmandu-01,Narayan Chaur,Kathmandu,Kathmandu,Bagmati Province,Nepal,np,© OpenStreetMap contributors,Open Database License,https://www.openstreetmap.org/copyright
58421045,1149,2019-12-14 07:36:23,27.70983333333333,85.32657166666667,10.44,11.344562390472255,"Mazda, Pashupati Sadak, Narayan Chaur, Kathmandu 44605, Nepal",27.7098322,85.3266869,Mazda,,Pashupati Sadak,44605,Kathmandu-01,Narayan Chaur,Kathmandu,Kathmandu,Bagmati Province,Nepal,np,© OpenStreetMap contributors,Open Database License,https://www.openstreetmap.org/copyright
58421569,1149,2019-12-14 07:36:53,27.709516666666666,85.32787833333333,7.19,21.48861812311008,"Dudhsagar, Pashupati Sadak, Narayan Chaur, Kathmandu 44605, Nepal",27.7095693,85.3276683,Dudhsagar,,Pashupati Sadak,44605,Kathmandu-01,Narayan Chaur,Kathmandu,Kathmandu,Bagmati Province,Nepal,np,© OpenStreetMap contributors,Open Database License,https://www.openstreetmap.org/copyright
58422067,1149,2019-12-14 07:37:23,27.70893166666667,85.33057166666667,12.55,29.756339511572865,"KRISHNA BOUTIQUE, Pashupati Sadak 494, Maitidevi, Kathmandu 44605, Nepal",27.7089307,85.3302694,KRISHNA BOUTIQUE,494,Pashupati Sadak,44605,Kathmandu-30,Maitidevi,Kathmandu,Kathmandu,Bagmati Province,Nepal,np,© OpenStreetMap contributors,Open Database License,https://www.openstreetmap.org/copyright
58422553,1149,2019-12-14 07:37:53,27.708621666666662,85.331965,6.75,1.6145453311542595,"Maitidevi, Kathmandu 44605, Nepal",27.7086373,85.3319646,,,,44605,Kathmandu-30,Maitidevi,Kathmandu,Kathmandu,Bagmati Province,Nepal,np,© OpenStreetMap contributors,Open Database License,https://www.openstreetmap.org/copyright
58423074,1149,2019-12-14 07:38:22,27.708236666666668,85.333975,6.54,28.82583068098016,"Shanta Plaza, Pashupati Sadak, Maitidevi, Kathmandu 44605, Nepal",27.7080902,85.3342166,Shanta Plaza,,Pashupati Sadak,44605,Kathmandu-30,Maitidevi,Kathmandu,Kathmandu,Bagmati Province,Nepal,np,© OpenStreetMap contributors,Open Database License,https://www.openstreetmap.org/copyright
58423574,1149,2019-12-14 07:38:52,27.7081,85.33677666666667,16.61,8.533908407042233,"Ratopul, Chabahil, Kathmandu 44660, Nepal",27.708086,85.3368619,Ratopul,,Ratopul,44660,Kathmandu-30,Chabahil,Kathmandu,Kathmandu,Bagmati Province,Nepal,np,© OpenStreetMap contributors,Open Database License,https://www.openstreetmap.org/copyright
58424114,1149,2019-12-14 07:39:25,27.707981666666665,85.33928333333333,14.4,11.158937481848003,"Trip Land Travel and Tours, Kathmandu, Kathmandu 44660, Nepal",27.708082,85.339281,Trip Land Travel and Tours,,,44660,,,Kathmandu,Kathmandu,Three,Nepal,np,© OpenStreetMap contributors,Open Database License,https://www.openstreetmap.org/copyright
58676781,1149,2019-12-14 11:46:05,27.70804333333333,85.33795,17.28,7.8868888611950005,"Dahal books and stationery, Pashupati Sadak, Chabahil, Kathmandu 44660, Nepal",27.70814145,85.33792061332085,Dahal books and stationery,,Pashupati Sadak,44660,Kathmandu-07,Chabahil,Kathmandu,Kathmandu,Bagmati Province,Nepal,np,© OpenStreetMap contributors,Open Database License,https://www.openstreetmap.org/copyright
58677288,1149,2019-12-14 11:46:35,27.708168333333333,85.33651,3.66,8.78284350881897,"Janata meat house, Rudra Mati Marg, Maitidevi, Kathmandu 00975, Nepal",27.7081984,85.3364275,Janata meat house,,Rudra Mati Marg,00975,Kathmandu-30,Maitidevi,Kathmandu,Kathmandu,Bagmati Province,Nepal,np,© OpenStreetMap contributors,Open Database License,https://www.openstreetmap.org/copyright
58677783,1149,2019-12-14 11:47:05,27.709481666666665,85.33700666666667,13.28,0.4561028580574618,"Rudra Mati Marg, Maitidevi, Kathmandu 00975, Nepal",27.7096953,85.3370232,Rudra Mati Marg,,Rudra Mati Marg,00975,Kathmandu-30,Maitidevi,Kathmandu,Kathmandu,Bagmati Province,Nepal,np,© OpenStreetMap contributors,Open Database License,https://www.openstreetmap.org/copyright
58751768,1149,2019-12-14 12:59:34,27.687851666666667,85.33729666666666,6.41,19.39293343678056,"Madan Bhandari Path, Kathmandu, Kathmandu 44617, Nepal",27.68795,85.337134,,,Madan Bhandari Path,44617,,,Kathmandu,Kathmandu,Three,Nepal,np,© OpenStreetMap contributors,Open Database License,https://www.openstreetmap.org/copyright
58752267,1149,2019-12-14 13:00:04,27.688171666666666,85.33583666666667,3.87,39.41768105620401,"Provident Merchant Banking Limited प्रोभिडेन्ट मर्चेन्ट बैंकिङ्ग लिमिटेड, Sankhamul Marg 31, Shankhamul, Kathmandu 44617, Nepal",27.6879494,85.3355248,Provident Merchant Banking Limited प्रोभिडेन्ट मर्चेन्ट बैंकिङ्ग लिमिटेड,31,Sankhamul Marg,44617,Kathmandu-10,Shankhamul,Kathmandu,Kathmandu,Bagmati Province,Nepal,np,© OpenStreetMap contributors,Open Database License,https://www.openstreetmap.org/copyright
58752787,1149,2019-12-14 13:00:34,27.688423333333333,85.33460333333333,16.12,12.157908277502619,"Naya Baneshwar Bus Station, Kathmandu, Kathmandu 44617, Nepal",27.68847,85.334715,Naya Baneshwar Bus Station,,,44617,,,Kathmandu,Kathmandu,Three,Nepal,np,© OpenStreetMap contributors,Open Database License,https://www.openstreetmap.org/copyright
58753307,1149,2019-12-14 13:01:05,27.688816666666668,85.332895,19.85,57.820007443470075,"Let Me in, Madan Bhandari Path 10, Kathmandu, Kathmandu 44617, Nepal",27.689165,85.332459,Let Me in,10,Madan Bhandari Path,44617,,,Kathmandu,Kathmandu,Three,Nepal,np,© OpenStreetMap contributors,Open Database License,https://www.openstreetmap.org/copyright
58753805,1149,2019-12-14 13:01:34,27.689551666666667,85.33007666666667,18.89,16.982980043810393,"Madan Bhandari Path, Kathmandu, Kathmandu 44617, Nepal",27.689591,85.32991,,,Madan Bhandari Path,44617,,,Kathmandu,Kathmandu,Three,Nepal,np,© OpenStreetMap contributors,Open Database License,https://www.openstreetmap.org/copyright
58754294,1149,2019-12-14 13:02:03,27.690471666666667,85.327895,17.05,10.744972269481634,"NH34, Kathmandu, Kathmandu 44617, Nepal",27.690498,85.328,,,NH34,44617,,,Kathmandu,Kathmandu,Three,Nepal,np,© OpenStreetMap contributors,Open Database License,https://www.openstreetmap.org/copyright
58754839,1149,2019-12-14 13:02:35,27.691873333333334,85.32494166666666,23.97,29.711337988772787,"Forest Department, Ukti Marga, Kathmandu, Kathmandu 44617, Nepal",27.69157795,85.32470001362222,Forest Department,,Ukti Marga,44617,Kathmandu-11,,Kathmandu,Kathmandu,Bagmati Province,Nepal,np,© OpenStreetMap contributors,Open Database License,https://www.openstreetmap.org/copyright
58755293,1149,2019-12-14 13:03:03,27.693286666666665,85.32198166666667,24.68,37.05769181832252,"Watrin Hall, Ukti Marga, Kathmandu, Kathmandu 44617, Nepal",27.69303075,85.32157580594316,Watrin Hall,,Ukti Marga,44617,Kathmandu-11,,Kathmandu,Kathmandu,Bagmati Province,Nepal,np,© OpenStreetMap contributors,Open Database License,https://www.openstreetmap.org/copyright
58755798,1149,2019-12-14 13:03:32,27.69435333333333,85.31977666666667,7.23,6.625194458680963,"Bhupu Khaja Ghar, Thapathali Marg, Thapathali, Kathmandu 44617, Nepal",27.694301,85.3197445,Bhupu Khaja Ghar,,Thapathali Marg,44617,Kathmandu-11,Thapathali,Kathmandu,Kathmandu,Bagmati Province,Nepal,np,© OpenStreetMap contributors,Open Database License,https://www.openstreetmap.org/copyright
60409637,1149,2019-12-15 15:05:27,27.707941666666667,85.33945833333334,18.03,10.17749614058013,"Baram and Basel Furniture Showroom, Kathmandu, Kathmandu 44660, Nepal",27.708,85.339538,Baram and Basel Furniture Showroom,,,44660,,,Kathmandu,Kathmandu,Three,Nepal,np,© OpenStreetMap contributors,Open Database License,https://www.openstreetmap.org/copyright
60410163,1149,2019-12-15 15:05:58,27.70805,85.33686333333333,15.09,4.005174294770101,"Ratopul, Kathmandu, Kathmandu 44660, Nepal",27.708086,85.336862,Ratopul,,,44660,,,Kathmandu,Kathmandu,Three,Nepal,np,© OpenStreetMap contributors,Open Database License,https://www.openstreetmap.org/copyright
60410692,1149,2019-12-15 15:06:28,27.70822833333333,85.334345,19.36,19.88433143153535,"Shanta Plaza, Kathmandu, Kathmandu 44605, Nepal",27.70809,85.334217,Shanta Plaza,,,44605,,,Kathmandu,Kathmandu,Three,Nepal,np,© OpenStreetMap contributors,Open Database License,https://www.openstreetmap.org/copyright
60411192,1149,2019-12-15 15:06:57,27.70875833333333,85.331985,8.31,7.185131076108914,"Maitidevi, Kathmandu 44605, Nepal",27.7086839,85.3318427,,,,44605,Kathmandu-30,Maitidevi,Kathmandu,Kathmandu,Bagmati Province,Nepal,np,© OpenStreetMap contributors,Open Database License,https://www.openstreetmap.org/copyright
60411704,1149,2019-12-15 15:07:27,27.710743333333333,85.33328,16.79,7.9752241294029025,"Prakash New Generation Motorcycle Workshop, Gyaneshwar Marg, Maitidevi, Kathmandu 00975, Nepal",27.7107895,85.333218,Prakash New Generation Motorcycle Workshop,,Gyaneshwar Marg,00975,Kathmandu-30,Maitidevi,Kathmandu,Kathmandu,Bagmati Province,Nepal,np,© OpenStreetMap contributors,Open Database License,https://www.openstreetmap.org/copyright
60452644,1149,2019-12-15 15:46:10,27.698301666666666,85.32157333333333,11.82,3.4409626054627873,"Ram Shah Path, Bansh Ghari, Kathmandu 00446, Nepal",27.6984094,85.3216432,Ram Shah Path,,Ram Shah Path,00446,Kathmandu-29,Bansh Ghari,Kathmandu,Kathmandu,Bagmati Province,Nepal,np,© OpenStreetMap contributors,Open Database License,https://www.openstreetmap.org/copyright
60453159,1149,2019-12-15 15:46:40,27.695591666666665,85.32100666666666,20.73,2.6792974123047584,"Ram Shah Path, Bansh Ghari, Kathmandu 00446, Nepal",27.695921,85.321048,Ram Shah Path,,Ram Shah Path,00446,Kathmandu-29,Bansh Ghari,Kathmandu,Kathmandu,Bagmati Province,Nepal,np,© OpenStreetMap contributors,Open Database License,https://www.openstreetmap.org/copyright
60453863,1149,2019-12-15 15:47:20,27.694301666666668,85.31958666666667,14.67,5.884969071767424,"J.R Education Group Pvt.Ltd, Thapathali Road, Thapathali, Kathmandu 44617, Nepal",27.6942714,85.3196357,J.R Education Group Pvt.Ltd,,Thapathali Road,44617,Kathmandu-11,Thapathali,Kathmandu,Kathmandu,Bagmati Province,Nepal,np,© OpenStreetMap contributors,Open Database License,https://www.openstreetmap.org/copyright
61470791,1149,2019-12-16 07:38:29,27.700655,85.33961666666667,8.65,5.779652392733006,"Tempo Stop Near Old Baneshwar, Kathmandu, Kathmandu 44703, Nepal",27.700609,85.339644,Tempo Stop Near Old Baneshwar,,,44703,,,Kathmandu,Kathmandu,Three,Nepal,np,© OpenStreetMap contributors,Open Database License,https://www.openstreetmap.org/copyright
61471340,1149,2019-12-16 07:38:59,27.699735,85.33862666666667,8.04,3.712853263112265,"Pipalbot, Devkota Sadak, Baneshwar, Kathmandu 44703, Nepal",27.6997645,85.338609,Pipalbot,,Devkota Sadak,44703,Kathmandu-10,Baneshwar,Kathmandu,Kathmandu,Bagmati Province,Nepal,np,© OpenStreetMap contributors,Open Database License,https://www.openstreetmap.org/copyright
61471878,1149,2019-12-16 07:39:28,27.69858333333333,85.33821833333333,9.82,1.8631383577925014,"tej enterprise, Devkota Sadak, Baneshwar, Kathmandu 44703, Nepal",27.69861175,85.3382614701579,tej enterprise,,Devkota Sadak,44703,Kathmandu-10,Baneshwar,Kathmandu,Kathmandu,Bagmati Province,Nepal,np,© OpenStreetMap contributors,Open Database License,https://www.openstreetmap.org/copyright
61472429,1149,2019-12-16 07:39:58,27.697145,85.33780833333333,5.98,8.224319110532532,"Venus Kitchen Restaurant, Kathmandu, Kathmandu 44703, Nepal",27.697107,85.33788,Venus Kitchen Restaurant,,,44703,,,Kathmandu,Kathmandu,Three,Nepal,np,© OpenStreetMap contributors,Open Database License,https://www.openstreetmap.org/copyright
61472957,1149,2019-12-16 07:40:28,27.69567333333333,85.337585,13.19,9.369869593430785,"Banabanga Dhungadhara, Kathmandu, Kathmandu 44703, Nepal",27.695698,85.337676,Banabanga Dhungadhara,,,44703,,,Kathmandu,Kathmandu,Three,Nepal,np,© OpenStreetMap contributors,Open Database License,https://www.openstreetmap.org/copyright
61473502,1149,2019-12-16 07:40:57,27.695255,85.33690666666666,11.83,0,"Apollo International College, Sahabhagita Marg, Baneshwar, Kathmandu 00446, Nepal",27.69534245,85.33690055,Apollo International College,,Sahabhagita Marg,00446,Kathmandu-10,Baneshwar,Kathmandu,Kathmandu,Bagmati Province,Nepal,np,© OpenStreetMap contributors,Open Database License,https://www.openstreetmap.org/copyright
61474046,1149,2019-12-16 07:41:27,27.695813333333334,85.33552,11.97,3.5664790186856328,"Sahabhagita Marg, Baneshwar, Kathmandu 00446, Nepal",27.6956811,85.3359944,Sahabhagita Marg,,Sahabhagita Marg,00446,Kathmandu-10,Baneshwar,Kathmandu,Kathmandu,Bagmati Province,Nepal,np,© OpenStreetMap contributors,Open Database License,https://www.openstreetmap.org/copyright
61474755,1149,2019-12-16 07:42:06,27.695931666666667,85.333935,4.76,38.19177128657456,"Sastomart(Home Appliances and Ledtv), Sahabhagita Marg, Baneshwar, Kathmandu 00446, Nepal",27.6960687,85.3335793,Sastomart(Home Appliances and Ledtv),,Sahabhagita Marg,00446,Kathmandu-10,Baneshwar,Kathmandu,Kathmandu,Bagmati Province,Nepal,np,© OpenStreetMap contributors,Open Database License,https://www.openstreetmap.org/copyright
61475121,1149,2019-12-16 07:42:27,27.696003333333334,85.33371666666666,1.12,15.35384981182687,"Sastomart(Home Appliances and Ledtv), Sahabhagita Marg, Baneshwar, Kathmandu 00446, Nepal",27.6960687,85.3335793,Sastomart(Home Appliances and Ledtv),,Sahabhagita Marg,00446,Kathmandu-10,Baneshwar,Kathmandu,Kathmandu,Bagmati Province,Nepal,np,© OpenStreetMap contributors,Open Database License,https://www.openstreetmap.org/copyright
61475674,1149,2019-12-16 07:42:56,27.695881666666665,85.33420166666667,0.09,51.52055441606419,"Sim-Sim Marg, Kathmandu, Kathmandu 00446, Nepal",27.696345,85.334203,,,Sim-Sim Marg,00446,,,Kathmandu,Kathmandu,Three,Nepal,np,© OpenStreetMap contributors,Open Database License,https://www.openstreetmap.org/copyright
61476216,1149,2019-12-16 07:43:26,27.695881666666665,85.33422666666667,0.07,2.3191664089381985,"Sahabhagita Marg, Baneshwar, Kathmandu 00446, Nepal",27.6956811,85.3359944,Sahabhagita Marg,,Sahabhagita Marg,00446,Kathmandu-10,Baneshwar,Kathmandu,Kathmandu,Bagmati Province,Nepal,np,© OpenStreetMap contributors,Open Database License,https://www.openstreetmap.org/copyright
61476794,1149,2019-12-16 07:43:56,27.695868333333333,85.33421333333334,0.0,0.8093840000847499,"Sahabhagita Marg, Baneshwar, Kathmandu 00446, Nepal",27.6956811,85.3359944,Sahabhagita Marg,,Sahabhagita Marg,00446,Kathmandu-10,Baneshwar,Kathmandu,Kathmandu,Bagmati Province,Nepal,np,© OpenStreetMap contributors,Open Database License,https://www.openstreetmap.org/copyright
61477336,1149,2019-12-16 07:44:26,27.695876666666667,85.33422333333333,0.01,1.7564363626496955,"Sahabhagita Marg, Baneshwar, Kathmandu 00446, Nepal",27.6956811,85.3359944,Sahabhagita Marg,,Sahabhagita Marg,00446,Kathmandu-10,Baneshwar,Kathmandu,Kathmandu,Bagmati Province,Nepal,np,© OpenStreetMap contributors,Open Database License,https://www.openstreetmap.org/copyright
61477890,1149,2019-12-16 07:44:56,27.69589833333333,85.33484666666666,8.39,5.639234312842639,"Sahabhagita Marg, Baneshwar, Kathmandu 00446, Nepal",27.6956811,85.3359944,Sahabhagita Marg,,Sahabhagita Marg,00446,Kathmandu-10,Baneshwar,Kathmandu,Kathmandu,Bagmati Province,Nepal,np,© OpenStreetMap contributors,Open Database License,https://www.openstreetmap.org/copyright
61478459,1149,2019-12-16 07:45:25,27.695761666666662,85.33598333333333,7.24,68.23148424517466,"Adhikari Niwas, Mahadevasthan Marg 141, Baneshwar, Kathmandu 00446, Nepal",27.6963017,85.3363124,Adhikari Niwas,141,Mahadevasthan Marg,00446,Kathmandu-10,Baneshwar,Kathmandu,Kathmandu,Bagmati Province,Nepal,np,© OpenStreetMap contributors,Open Database License,https://www.openstreetmap.org/copyright
61479012,1149,2019-12-16 07:45:55,27.695253333333334,85.33686333333333,9.43,0,"Apollo International College, Sahabhagita Marg, Baneshwar, Kathmandu 00446, Nepal",27.69534245,85.33690055,Apollo International College,,Sahabhagita Marg,00446,Kathmandu-10,Baneshwar,Kathmandu,Kathmandu,Bagmati Province,Nepal,np,© OpenStreetMap contributors,Open Database License,https://www.openstreetmap.org/copyright
61479554,1149,2019-12-16 07:46:25,27.695706666666663,85.33754666666667,6.47,11.404406076309279,"Shree Ratna Pustakalaya, Devkota Sadak, Baneshwar, Kathmandu 44703, Nepal",27.6956273,85.3374733,Shree Ratna Pustakalaya,,Devkota Sadak,44703,Kathmandu-10,Baneshwar,Kathmandu,Kathmandu,Bagmati Province,Nepal,np,© OpenStreetMap contributors,Open Database License,https://www.openstreetmap.org/copyright
61480122,1149,2019-12-16 07:46:55,27.69701333333333,85.33778666666667,7.62,11.303070102813251,"Shrestha electronic, debkota sadak, Kathmandu, Kathmandu 44703, Nepal",27.69708,85.3377,Shrestha electronic,,debkota sadak,44703,,,Kathmandu,Kathmandu,Three,Nepal,np,© OpenStreetMap contributors,Open Database License,https://www.openstreetmap.org/copyright
61480679,1149,2019-12-16 07:47:25,27.698801666666668,85.33825833333333,13.82,7.875530993328987,"Apex College, Devkota Sadak, Baneshwar, Kathmandu 44703, Nepal",27.6989896,85.33804992574136,Apex College,,Devkota Sadak,44703,Kathmandu-10,Baneshwar,Kathmandu,Kathmandu,Bagmati Province,Nepal,np,© OpenStreetMap contributors,Open Database License,https://www.openstreetmap.org/copyright
61481252,1149,2019-12-16 07:47:54,27.700278333333333,85.33904,14.04,9.176660388919354,"Global College, Devkota Sadak, Baneshwar, Kathmandu 44703, Nepal",27.7001962,85.3390309,Global College,,Devkota Sadak,44703,Kathmandu-10,Baneshwar,Kathmandu,Kathmandu,Bagmati Province,Nepal,np,© OpenStreetMap contributors,Open Database License,https://www.openstreetmap.org/copyright
61481812,1149,2019-12-16 07:48:24,27.701275,85.33997,3.33,9.179033002888533,"burger king, Kathmandu, Kathmandu 44703, Nepal",27.701209,85.340026,burger king,,,44703,,,Kathmandu,Kathmandu,Three,Nepal,np,© OpenStreetMap contributors,Open Database License,https://www.openstreetmap.org/copyright
62861180,1149,2019-12-17 05:17:45,27.708011666666668,85.33814666666666,6.01,8.04059262658428,"Nice Tailor, Pashupati Sadak, Chabahil, Kathmandu 44660, Nepal",27.708124249999997,85.33812175,Nice Tailor,,Pashupati Sadak,44660,Kathmandu-07,Chabahil,Kathmandu,Kathmandu,Bagmati Province,Nepal,np,© OpenStreetMap contributors,Open Database License,https://www.openstreetmap.org/copyright
62861725,1149,2019-12-17 05:18:14,27.708145,85.33728166666667,11.73,2.574782138199624,"Rudra Mati Marg-2, Chabahil, Kathmandu 44660, Nepal",27.7098912,85.337262,Rudra Mati Marg-2,,Rudra Mati Marg-2,44660,Kathmandu-07,Chabahil,Kathmandu,Kathmandu,Bagmati Province,Nepal,np,© OpenStreetMap contributors,Open Database License,https://www.openstreetmap.org/copyright
62862254,1149,2019-12-17 05:18:44,27.71013,85.33731,17.04,5.061170106096153,"Pashupati Grill Udhyog, Rudra Mati Marg-2, Chabahil, Kathmandu 44660, Nepal",27.7101783,85.33738494453362,Pashupati Grill Udhyog,,Rudra Mati Marg-2,44660,Kathmandu-07,Chabahil,Kathmandu,Kathmandu,Bagmati Province,Nepal,np,© OpenStreetMap contributors,Open Database License,https://www.openstreetmap.org/copyright
63102582,1149,2019-12-17 08:59:39,27.70207333333333,85.33846666666666,12.86,77.34299683655804,"Touchstone Infosys, Baburam Acharya Marg 175723, Baneshwar, Kathmandu 44600, Nepal",27.7017596,85.33916782177315,Touchstone Infosys,175723,Baburam Acharya Marg,44600,Kathmandu-10,Baneshwar,Kathmandu,Kathmandu,Bagmati Province,Nepal,np,© OpenStreetMap contributors,Open Database License,https://www.openstreetmap.org/copyright
63103190,1149,2019-12-17 09:00:13,27.702701666666663,85.33657166666667,6.68,12.209130000666757,"Shrestha General Store, Setopul, Baneshwar, Kathmandu 00446, Nepal",27.7025921,85.3365636,Shrestha General Store,,Setopul,00446,Kathmandu-10,Baneshwar,Kathmandu,Kathmandu,Bagmati Province,Nepal,np,© OpenStreetMap contributors,Open Database License,https://www.openstreetmap.org/copyright
63103646,1149,2019-12-17 09:00:39,27.702946666666666,85.335755,3.98,13.0008123881499,"Maitidevi Petrol Station, Rudra Mati Marg, Ghattekulo, Kathmandu 00446, Nepal",27.7028872,85.3356413,Maitidevi Petrol Station,,Rudra Mati Marg,00446,Kathmandu-29,Ghattekulo,Kathmandu,Kathmandu,Bagmati Province,Nepal,np,© OpenStreetMap contributors,Open Database License,https://www.openstreetmap.org/copyright
63104164,1149,2019-12-17 09:01:08,27.703476666666667,85.334125,10.71,21.63265863728027,"Nabil Bank, Dillibazaar Marg, Ghattekulo, Kathmandu 00446, Nepal",27.7036199,85.3339763,Nabil Bank,,Dillibazaar Marg,00446,Kathmandu-30,Ghattekulo,Kathmandu,Kathmandu,Bagmati Province,Nepal,np,© OpenStreetMap contributors,Open Database License,https://www.openstreetmap.org/copyright
63104707,1149,2019-12-17 09:01:40,27.70382,85.332845,6.32,1.8521129283886995,"omni ornaments, Maiti Devi marg, Maitidevi, Kathmandu 00446, Nepal",27.7038225,85.3328264,omni ornaments,,Maiti Devi marg,00446,Kathmandu-30,Maitidevi,Kathmandu,Kathmandu,Bagmati Province,Nepal,np,© OpenStreetMap contributors,Open Database License,https://www.openstreetmap.org/copyright
63105237,1149,2019-12-17 09:02:08,27.70426,85.33154166666667,15.35,15.138998668269863,"Khotange Khaja Ghar, Dillibazar Sadak, Dillibazar, Kathmandu 44605, Nepal",27.7043558,85.3314324,Khotange Khaja Ghar,,Dillibazar Sadak,44605,Kathmandu-30,Dillibazar,Kathmandu,Kathmandu,Bagmati Province,Nepal,np,© OpenStreetMap contributors,Open Database License,https://www.openstreetmap.org/copyright
63105787,1149,2019-12-17 09:02:38,27.704936666666665,85.32926333333333,9.51,7.7910637795790825,"Kist Bank, Dillibazar Sadak, Dillibazar, Kathmandu 44605, Nepal",27.7048764,85.3293037,Kist Bank,,Dillibazar Sadak,44605,Kathmandu-30,Dillibazar,Kathmandu,Kathmandu,Bagmati Province,Nepal,np,© OpenStreetMap contributors,Open Database License,https://www.openstreetmap.org/copyright
63106335,1149,2019-12-17 09:03:07,27.704,85.32874333333334,8.44,0,"Maitidevi Kindergarten, Tulsi Marg, Ghattekulo, Kathmandu 00446, Nepal",27.7039676,85.3287235,Maitidevi Kindergarten,,Tulsi Marg,00446,Kathmandu-29,Ghattekulo,Kathmandu,Kathmandu,Bagmati Province,Nepal,np,© OpenStreetMap contributors,Open Database License,https://www.openstreetmap.org/copyright
63106902,1149,2019-12-17 09:03:37,27.702941666666668,85.32856666666666,11.54,2.9237125296035877,"Ghattekulo, Kathmandu 00446, Nepal",27.7033203,85.3286674,,,,00446,Kathmandu-29,Ghattekulo,Kathmandu,Kathmandu,Bagmati Province,Nepal,np,© OpenStreetMap contributors,Open Database License,https://www.openstreetmap.org/copyright
63107438,1149,2019-12-17 09:04:07,27.701705,85.32819166666667,4.6,2.0376670114613846,"Birendra Marga, Kathmandu, Kathmandu 00446, Nepal",27.701704,85.328171,,,Birendra Marga,00446,,,Kathmandu,Kathmandu,Three,Nepal,np,© OpenStreetMap contributors,Open Database License,https://www.openstreetmap.org/copyright
63107960,1149,2019-12-17 09:04:37,27.701025,85.32794166666666,5.22,13.096796092240448,"Kingdom Hall of Jehovah's Witnesses, Birendra Marg, Ghattekulo, Kathmandu 00446, Nepal",27.700862100000002,85.32796824124785,Kingdom Hall of Jehovah's Witnesses,,Birendra Marg,00446,Kathmandu-29,Ghattekulo,Kathmandu,Kathmandu,Bagmati Province,Nepal,np,© OpenStreetMap contributors,Open Database License,https://www.openstreetmap.org/copyright
63108478,1149,2019-12-17 09:05:06,27.700725,85.32790833333334,0.35,0.7485023630675022,"Ghattekulo, Kathmandu 00446, Nepal",27.7006179,85.3281478,,,,00446,Kathmandu-29,Ghattekulo,Kathmandu,Kathmandu,Bagmati Province,Nepal,np,© OpenStreetMap contributors,Open Database License,https://www.openstreetmap.org/copyright
63109005,1149,2019-12-17 09:05:36,27.7003,85.32749,0.86,15.099430773169919,"Nepali Janata Dal Party Office, Sangam Galli, Ghattekulo, Kathmandu 00446, Nepal",27.70010595,85.3275228398258,Nepali Janata Dal Party Office,,Sangam Galli,00446,Kathmandu-29,Ghattekulo,Kathmandu,Kathmandu,Bagmati Province,Nepal,np,© OpenStreetMap contributors,Open Database License,https://www.openstreetmap.org/copyright
63109519,1149,2019-12-17 09:06:06,27.700025,85.32740666666666,5.48,7.200468119512853,"Nepali Janata Dal Party Office, Sangam Galli, Ghattekulo, Kathmandu 00446, Nepal",27.70010595,85.3275228398258,Nepali Janata Dal Party Office,,Sangam Galli,00446,Kathmandu-29,Ghattekulo,Kathmandu,Kathmandu,Bagmati Province,Nepal,np,© OpenStreetMap contributors,Open Database License,https://www.openstreetmap.org/copyright
63110051,1149,2019-12-17 09:06:36,27.69982,85.32711666666667,14.14,3.407981132691048,"Rigo Technologies, Tanka Prasad Ghumti Sadak, Bansh Ghari, Kathmandu 00446, Nepal",27.699899449999997,85.32713691008325,Rigo Technologies,,Tanka Prasad Ghumti Sadak,00446,Kathmandu-29,Bansh Ghari,Kathmandu,Kathmandu,Bagmati Province,Nepal,np,© OpenStreetMap contributors,Open Database License,https://www.openstreetmap.org/copyright
63110591,1149,2019-12-17 09:07:07,27.70015666666667,85.32528666666667,10.78,20.89849852626804,"Office of the Auditor General, Anamnagar, Tanka Prasad Ghumti Sadak, Bansh Ghari, Kathmandu 00446, Nepal",27.700381399999998,85.32518350620504,"Office of the Auditor General, Anamnagar",,Tanka Prasad Ghumti Sadak,00446,Kathmandu-29,Bansh Ghari,Kathmandu,Kathmandu,Bagmati Province,Nepal,np,© OpenStreetMap contributors,Open Database License,https://www.openstreetmap.org/copyright
63111126,1149,2019-12-17 09:07:37,27.700561666666665,85.32386166666667,3.85,5.289694471422749,"Tanka Prasad Sadak, Kathmandu, Kathmandu 44605, Nepal",27.700595,85.3239,,,Tanka Prasad Sadak,44605,,,Kathmandu,Kathmandu,Three,Nepal,np,© OpenStreetMap contributors,Open Database License,https://www.openstreetmap.org/copyright
63111613,1149,2019-12-17 09:08:05,27.700721666666663,85.32337333333334,3.94,5.611067454098469,"New Plaza Stop, Tanka Prasad Ghumti Sadak, Bansh Ghari, Kathmandu 44605, Nepal",27.7007581,85.3233339,New Plaza Stop,,Tanka Prasad Ghumti Sadak,44605,Kathmandu-29,Bansh Ghari,Kathmandu,Kathmandu,Bagmati Province,Nepal,np,© OpenStreetMap contributors,Open Database License,https://www.openstreetmap.org/copyright
63112151,1149,2019-12-17 09:08:35,27.700948333333333,85.32253166666666,0.01,10.154935606669346,"Bravo cafe, Tanka Prasad Ghumti Sadak, Bansh Ghari, Kathmandu 44605, Nepal",27.7010153,85.3226018,Bravo cafe,,Tanka Prasad Ghumti Sadak,44605,Kathmandu-29,Bansh Ghari,Kathmandu,Kathmandu,Bagmati Province,Nepal,np,© OpenStreetMap contributors,Open Database License,https://www.openstreetmap.org/copyright
63112680,1149,2019-12-17 09:09:05,27.70096,85.32253333333334,0.13,9.123962449000556,"Bravo cafe, Tanka Prasad Ghumti Sadak, Bansh Ghari, Kathmandu 44605, Nepal",27.7010153,85.3226018,Bravo cafe,,Tanka Prasad Ghumti Sadak,44605,Kathmandu-29,Bansh Ghari,Kathmandu,Kathmandu,Bagmati Province,Nepal,np,© OpenStreetMap contributors,Open Database License,https://www.openstreetmap.org/copyright
63113189,1149,2019-12-17 09:09:35,27.70142333333333,85.32221166666666,6.7,5.403521380824184,"Jankalyan Stationery And Book Shop, Ram Shah Path, Baghbazar, Kathmandu 44605, Nepal",27.7014181,85.3221571,Jankalyan Stationery And Book Shop,,Ram Shah Path,44605,Kathmandu-28,Baghbazar,Kathmandu,Kathmandu,Bagmati Province,Nepal,np,© OpenStreetMap contributors,Open Database License,https://www.openstreetmap.org/copyright
63113815,1149,2019-12-17 09:10:10,27.70181333333333,85.3207,7.9,7.1628184665645085,"Khulla Bazar, Exhibition Road, Baghbazar, Kathmandu 44605, Nepal",27.701749,85.3207037,Khulla Bazar,,Exhibition Road,44605,Kathmandu-28,Baghbazar,Kathmandu,Kathmandu,Bagmati Province,Nepal,np,© OpenStreetMap contributors,Open Database License,https://www.openstreetmap.org/copyright
63114293,1149,2019-12-17 09:10:34,27.70199,85.31932666666667,15.17,4.844569516338566,"Nepal Law Campus, Exhibition Road, Baghbazar, Kathmandu 44605, Nepal",27.7025033,85.31945292669938,Nepal Law Campus,,Exhibition Road,44605,Kathmandu-28,Baghbazar,Kathmandu,Kathmandu,Bagmati Province,Nepal,np,© OpenStreetMap contributors,Open Database License,https://www.openstreetmap.org/copyright
64460615,1149,2019-12-18 06:39:13,27.70067,85.33971,11.81,3.900083557404222,"Glory Face Ladies Sallon, Kathmandu, Kathmandu 44703, Nepal",27.700652,85.339744,Glory Face Ladies Sallon,,,44703,,,Kathmandu,Kathmandu,Three,Nepal,np,© OpenStreetMap contributors,Open Database License,https://www.openstreetmap.org/copyright
64460736,1149,2019-12-18 06:39:18,27.700063333333333,85.33886666666666,0.07,21.700600164658933,"Cherry on Top, Devkota Sadak, Baneshwar, Kathmandu 44703, Nepal",27.7000706,85.3386464,Cherry on Top,,Devkota Sadak,44703,Kathmandu-10,Baneshwar,Kathmandu,Kathmandu,Bagmati Province,Nepal,np,© OpenStreetMap contributors,Open Database License,https://www.openstreetmap.org/copyright
64460741,1149,2019-12-18 06:39:19,27.69918833333333,85.33840666666667,10.87,8.016954275872225,"Ever Green Restaurant and Cafe, Kathmandu, Kathmandu 44703, Nepal",27.699247,85.338454,Ever Green Restaurant and Cafe,,,44703,,,Kathmandu,Kathmandu,Three,Nepal,np,© OpenStreetMap contributors,Open Database License,https://www.openstreetmap.org/copyright
64460742,1149,2019-12-18 06:39:19,27.69751,85.337915,11.21,13.257478008730457,"Mata Pathivara Girls Hostel, Devkota Sadak, Baneshwar, Kathmandu 44703, Nepal",27.69748155,85.3380922194014,Mata Pathivara Girls Hostel,,Devkota Sadak,44703,Kathmandu-10,Baneshwar,Kathmandu,Kathmandu,Bagmati Province,Nepal,np,© OpenStreetMap contributors,Open Database License,https://www.openstreetmap.org/copyright
64460761,1149,2019-12-18 06:39:20,27.695966666666667,85.33761166666666,10.96,4.131302347210594,"Naya Baneshwar, Kathmandu 44703, Nepal",27.6958546,85.3379355,,,,44703,Kathmandu-31,Naya Baneshwar,Kathmandu,Kathmandu,Bagmati Province,Nepal,np,© OpenStreetMap contributors,Open Database License,https://www.openstreetmap.org/copyright
64460763,1149,2019-12-18 06:39:20,27.694505,85.33721,9.44,10.203481751155504,"Global IME Bank, Kathmandu, Kathmandu 44703, Nepal",27.694439,85.337282,Global IME Bank,,,44703,,,Kathmandu,Kathmandu,Three,Nepal,np,© OpenStreetMap contributors,Open Database License,https://www.openstreetmap.org/copyright
64460764,1149,2019-12-18 06:39:20,27.692835,85.33647666666667,12.75,22.83775275065156,"Yes Informatics, Devkota Sadak 10, Baneshwar, Kathmandu 44600, Nepal",27.69273655,85.33620229628806,Yes Informatics,10,Devkota Sadak,44600,Kathmandu-10,Baneshwar,Kathmandu,Kathmandu,Bagmati Province,Nepal,np,© OpenStreetMap contributors,Open Database License,https://www.openstreetmap.org/copyright
64460832,1149,2019-12-18 06:39:22,27.69151,85.33620666666667,11.77,19.422133541081436,"Jyoti Bikash Bank Ltd, Devkota Sadak, Kathmandu, Kathmandu 44617, Nepal",27.691569,85.336021,Jyoti Bikash Bank Ltd,,Devkota Sadak,44617,,,Kathmandu,Kathmandu,Three,Nepal,np,© OpenStreetMap contributors,Open Database License,https://www.openstreetmap.org/copyright
64460851,1149,2019-12-18 06:39:23,27.69009833333333,85.33595833333334,11.19,30.128551534931713,"ChhakkuBakku Park, Naya Baneshwar Sadak New Baneshwor, Kathmandu, Kathmandu 44617, Nepal",27.689996,85.335675,ChhakkuBakku Park,New Baneshwor,Naya Baneshwar Sadak,44617,,,Kathmandu,Kathmandu,Three,Nepal,np,© OpenStreetMap contributors,Open Database License,https://www.openstreetmap.org/copyright
64460852,1149,2019-12-18 06:39:23,27.68846,85.335665,6.76,12.673685255312316,"Naya Baneshwar Sadak, Kathmandu, Kathmandu 44617, Nepal",27.688376,85.335578,,,Naya Baneshwar Sadak,44617,,,Kathmandu,Kathmandu,Three,Nepal,np,© OpenStreetMap contributors,Open Database License,https://www.openstreetmap.org/copyright
64460853,1149,2019-12-18 06:39:23,27.68791833333333,85.33735833333333,14.13,3.875249931710973,"Madan Bhandari Path, Minbhawan, Kathmandu 44617, Nepal",27.6879663,85.3369901,Madan Bhandari Path,,Madan Bhandari Path,44617,Kathmandu-31,Minbhawan,Kathmandu,Kathmandu,Bagmati Province,Nepal,np,© OpenStreetMap contributors,Open Database License,https://www.openstreetmap.org/copyright
64731142,1149,2019-12-18 10:50:09,27.707965,85.33962,0.75,8.947910937554825,"Baram and Basel Furniture Showroom, Pashupati Sadak, Chabahil, Kathmandu 44660, Nepal",27.7079999,85.3395381,Baram and Basel Furniture Showroom,,Pashupati Sadak,44660,Kathmandu-07,Chabahil,Kathmandu,Kathmandu,Bagmati Province,Nepal,np,© OpenStreetMap contributors,Open Database License,https://www.openstreetmap.org/copyright
64731712,1149,2019-12-18 10:50:38,27.708046666666668,85.33764166666667,14.86,9.859722513762797,"The Great Malika, Pashupati Sadak, Chabahil, Kathmandu 44660, Nepal",27.70816285,85.337752,The Great Malika,,Pashupati Sadak,44660,Kathmandu-07,Chabahil,Kathmandu,Kathmandu,Bagmati Province,Nepal,np,© OpenStreetMap contributors,Open Database License,https://www.openstreetmap.org/copyright
64732278,1149,2019-12-18 10:51:09,27.708091666666668,85.33651833333333,7.67,2.727833934530181,"Pashupati Sadak, Kathmandu, Kathmandu 44605, Nepal",27.708085,85.336545,,,Pashupati Sadak,44605,,,Kathmandu,Kathmandu,Three,Nepal,np,© OpenStreetMap contributors,Open Database License,https://www.openstreetmap.org/copyright
64732849,1149,2019-12-18 10:51:38,27.70822,85.334515,14.36,8.878525846618272,"Madan dai workshop, Pashupati Sadak, Maitidevi, Kathmandu 44605, Nepal",27.7082117,85.3346047,Madan dai workshop,,Pashupati Sadak,44605,Kathmandu-30,Maitidevi,Kathmandu,Kathmandu,Bagmati Province,Nepal,np,© OpenStreetMap contributors,Open Database License,https://www.openstreetmap.org/copyright
64733388,1149,2019-12-18 10:52:08,27.70854333333333,85.33238666666666,14.29,4.75936555583095,"Maitidevi, Kathmandu 44605, Nepal",27.7086373,85.3319646,,,,44605,Kathmandu-30,Maitidevi,Kathmandu,Kathmandu,Bagmati Province,Nepal,np,© OpenStreetMap contributors,Open Database License,https://www.openstreetmap.org/copyright
64733911,1149,2019-12-18 10:52:38,27.70892,85.33072,5.36,5.573307747432853,"Maple School, Devi marg, Dillibazar, Kathmandu 44605, Nepal",27.7090186,85.3306848,Maple School,,Devi marg,44605,Kathmandu-30,Dillibazar,Kathmandu,Kathmandu,Bagmati Province,Nepal,np,© OpenStreetMap contributors,Open Database License,https://www.openstreetmap.org/copyright
64734448,1149,2019-12-18 10:53:07,27.70913833333333,85.32955,14.73,10.280851953006541,"mega bank, Kathmandu, Kathmandu 44605, Nepal",27.709218,85.329497,mega bank,,,44605,,,Kathmandu,Kathmandu,Three,Nepal,np,© OpenStreetMap contributors,Open Database License,https://www.openstreetmap.org/copyright
64734974,1149,2019-12-18 10:53:37,27.70932833333333,85.32783333333333,11.39,9.004227547125451,"Reet Nepal, Thirbam Sadak 3, Dillibazar, Kathmandu 44605, Nepal",27.7093746,85.3279084,Reet Nepal,,Thirbam Sadak 3,44605,Kathmandu-30,Dillibazar,Kathmandu,Kathmandu,Bagmati Province,Nepal,np,© OpenStreetMap contributors,Open Database License,https://www.openstreetmap.org/copyright
64735509,1149,2019-12-18 10:54:07,27.70722,85.3272,16.28,15.252452857337403,"Siddhi Poly Path Lab, Lokpriya Marga, Dillibazar, Kathmandu 44605, Nepal",27.7072117,85.32704534999999,Siddhi Poly Path Lab,,Lokpriya Marga,44605,Kathmandu-30,Dillibazar,Kathmandu,Kathmandu,Bagmati Province,Nepal,np,© OpenStreetMap contributors,Open Database License,https://www.openstreetmap.org/copyright
64736063,1149,2019-12-18 10:54:37,27.705455,85.32676833333333,4.31,10.36864915015281,"Dillibazaar stop, Kathmandu, Kathmandu 44605, Nepal",27.705362,85.326776,Dillibazaar stop,,,44605,,,Kathmandu,Kathmandu,Three,Nepal,np,© OpenStreetMap contributors,Open Database License,https://www.openstreetmap.org/copyright
64736607,1149,2019-12-18 10:55:06,27.705611666666663,85.32511333333333,11.51,1.9160633927757353,"Swatha Parichyan, Dillibazar Sadak, Ghattekulo, Kathmandu 44605, Nepal",27.7056246,85.3250589,Swatha Parichyan,,Dillibazar Sadak,44605,Kathmandu-30,Ghattekulo,Kathmandu,Kathmandu,Bagmati Province,Nepal,np,© OpenStreetMap contributors,Open Database License,https://www.openstreetmap.org/copyright
64737150,1149,2019-12-18 10:55:36,27.705631666666665,85.32421166666667,0.16,28.089723599940584,"Punya Mansion, Dilli Bazaar Road 33, Kathmandu, Kathmandu 00977, Nepal",27.705795,85.323994,Punya Mansion,33,Dilli Bazaar Road,00977,,,Kathmandu,Kathmandu,Three,Nepal,np,© OpenStreetMap contributors,Open Database License,https://www.openstreetmap.org/copyright
64737746,1149,2019-12-18 10:56:06,27.705666666666666,85.32401,0.28,5.456937066002161,"Punya Mansion, Dillibazar Sadak 33, Ghattekulo, Kathmandu 00977, Nepal",27.70581525,85.3239949404612,Punya Mansion,33,Dillibazar Sadak,00977,Kathmandu-30,Ghattekulo,Kathmandu,Kathmandu,Bagmati Province,Nepal,np,© OpenStreetMap contributors,Open Database License,https://www.openstreetmap.org/copyright
64738287,1149,2019-12-18 10:56:36,27.70569833333333,85.32365333333334,5.63,5.298866645146842,"Mission Doctor Pvt. Ltd, Dillibazar Sadak, Ghattekulo, Kathmandu 44605, Nepal",27.7057473,85.32370289874726,Mission Doctor Pvt. Ltd,,Dillibazar Sadak,44605,Kathmandu-30,Ghattekulo,Kathmandu,Kathmandu,Bagmati Province,Nepal,np,© OpenStreetMap contributors,Open Database License,https://www.openstreetmap.org/copyright
64738820,1149,2019-12-18 10:57:06,27.705875,85.32293833333334,12.04,0.5570824526902886,"Study In u.k, Putali Sadak, Dillibazar, Kathmandu 46600, Nepal",27.7058723,85.3229431,Study In u.k,,Putali Sadak,46600,Kathmandu-30,Dillibazar,Kathmandu,Kathmandu,Bagmati Province,Nepal,np,© OpenStreetMap contributors,Open Database License,https://www.openstreetmap.org/copyright
64739371,1149,2019-12-18 10:57:37,27.707665,85.32215333333333,9.21,7.909824586420934,"Arbon Saving And Credit Cooperative Ltd, Putali Sadak, Narayan Chaur, Kathmandu 46000, Nepal",27.7076612,85.3220731,Arbon Saving And Credit Cooperative Ltd,,Putali Sadak,46000,Kathmandu-28,Narayan Chaur,Kathmandu,Kathmandu,Bagmati Province,Nepal,np,© OpenStreetMap contributors,Open Database License,https://www.openstreetmap.org/copyright
64739887,1149,2019-12-18 10:58:05,27.708056666666668,85.32185333333334,7.88,1.9098537097640416,"Baghbazar, Kathmandu 46000, Nepal",27.708932,85.3219638,,,,46000,Kathmandu-28,Baghbazar,Kathmandu,Kathmandu,Bagmati Province,Nepal,np,© OpenStreetMap contributors,Open Database License,https://www.openstreetmap.org/copyright
64740422,1149,2019-12-18 10:58:35,27.708835,85.32199833333334,0.12,4.677196011631813,"Baghbazar, Kathmandu 46000, Nepal",27.708932,85.3219638,,,,46000,Kathmandu-28,Baghbazar,Kathmandu,Kathmandu,Bagmati Province,Nepal,np,© OpenStreetMap contributors,Open Database License,https://www.openstreetmap.org/copyright
64740953,1149,2019-12-18 10:59:05,27.709131666666668,85.32201166666667,7.97,1.5190968498892727,"Baghbazar, Kathmandu 46000, Nepal",27.708932,85.3219638,,,,46000,Kathmandu-28,Baghbazar,Kathmandu,Kathmandu,Bagmati Province,Nepal,np,© OpenStreetMap contributors,Open Database License,https://www.openstreetmap.org/copyright
64741529,1149,2019-12-18 10:59:37,27.70993,85.32214333333333,4.42,3.3630172638232088,"Tin Dhara Sadak, Kathmandu, Kathmandu 46000, Nepal",27.70996,85.322139,,,Tin Dhara Sadak,46000,,,Kathmandu,Kathmandu,Three,Nepal,np,© OpenStreetMap contributors,Open Database License,https://www.openstreetmap.org/copyright
64742086,1149,2019-12-18 11:00:05,27.71019,85.32314833333334,10.35,51.394144835488724,"Om Everest ceramic, Pashupati Marga 29, Kathmandu, Kathmandu 46000, Nepal",27.710364,85.323632,Om Everest ceramic,29,Pashupati Marga,46000,,,Kathmandu,Kathmandu,Three,Nepal,np,© OpenStreetMap contributors,Open Database License,https://www.openstreetmap.org/copyright
64742690,1149,2019-12-18 11:00:37,27.710066666666663,85.32486666666667,7.42,8.999852732861862,"Central Diagnostic Laboratpry, Pashupati Sadak - 3 28, Narayan Chaur, Kathmandu 46000, Nepal",27.7100731,85.3249578,Central Diagnostic Laboratpry,28,Pashupati Sadak - 3,46000,Kathmandu-01,Narayan Chaur,Kathmandu,Kathmandu,Bagmati Province,Nepal,np,© OpenStreetMap contributors,Open Database License,https://www.openstreetmap.org/copyright
64743210,1149,2019-12-18 11:01:04,27.710056666666667,85.32498166666667,0.09,2.9540666260373416,"Central Diagnostic Laboratpry, Kamalpokhari 28, Kathmandu, Kathmandu 46000, Nepal",27.710073,85.324958,Central Diagnostic Laboratpry,28,Kamalpokhari,46000,,,Kathmandu,Kathmandu,Three,Nepal,np,© OpenStreetMap contributors,Open Database License,https://www.openstreetmap.org/copyright
64743829,1149,2019-12-18 11:01:39,27.710038333333333,85.325115,0.09,15.928906449345567,"Central Diagnostic Laboratpry, Kamalpokhari 28, Kathmandu, Kathmandu 46000, Nepal",27.710073,85.324958,Central Diagnostic Laboratpry,28,Kamalpokhari,46000,,,Kathmandu,Kathmandu,Three,Nepal,np,© OpenStreetMap contributors,Open Database License,https://www.openstreetmap.org/copyright
64744284,1149,2019-12-18 11:02:04,27.71002333333333,85.32532833333333,3.38,34.878986922678415,"Sandar MoMo, Pashupati Sadak P85G+X8C, Kathmandu, Kathmandu 44600, Nepal",27.709913,85.32566,Sandar MoMo,P85G+X8C,Pashupati Sadak,44600,,,Kathmandu,Kathmandu,Three,Nepal,np,© OpenStreetMap contributors,Open Database License,https://www.openstreetmap.org/copyright
64744822,1149,2019-12-18 11:02:33,27.709958333333333,85.32599666666667,6.19,6.724867509220262,"Kamalpokhari Bus Stop, Kathmandu, Kathmandu 46600, Nepal",27.709981,85.32606,Kamalpokhari Bus Stop,,,46600,,,Kathmandu,Kathmandu,Three,Nepal,np,© OpenStreetMap contributors,Open Database License,https://www.openstreetmap.org/copyright
64745392,1149,2019-12-18 11:03:03,27.709631666666667,85.32741666666666,12.06,12.309452853295086,"Kathmandu Fast Food, Kathmandu, Kathmandu 44605, Nepal",27.709566,85.327316,Kathmandu Fast Food,,,44605,,,Kathmandu,Kathmandu,Three,Nepal,np,© OpenStreetMap contributors,Open Database License,https://www.openstreetmap.org/copyright
64745968,1149,2019-12-18 11:03:33,27.70931,85.32871333333334,12.31,7.755988609691956,"Yuna and Abhi Fashion Collection, Pashupati Marga, Maitidevi, Kathmandu 44600, Nepal",27.709318,85.3287916,Yuna and Abhi Fashion Collection,,Pashupati Marga,44600,Kathmandu-30,Maitidevi,Kathmandu,Kathmandu,Bagmati Province,Nepal,np,© OpenStreetMap contributors,Open Database License,https://www.openstreetmap.org/copyright
64746507,1149,2019-12-18 11:04:03,27.708981666666663,85.33027333333334,0.09,5.650011220449341,"KRISHNA BOUTIQUE, Radhe Marga 494, Kathmandu, Kathmandu 977, Nepal",27.708931,85.330269,KRISHNA BOUTIQUE,494,Radhe Marga,977,,,Kathmandu,Kathmandu,Three,Nepal,np,© OpenStreetMap contributors,Open Database License,https://www.openstreetmap.org/copyright
64747027,1149,2019-12-18 11:04:33,27.708916666666667,85.33063166666666,0.54,5.640472599228578,"Nepal intermodal transport development board, Kathmandu, Kathmandu 44605, Nepal",27.708966,85.330645,Nepal intermodal transport development board,,,44605,,,Kathmandu,Kathmandu,Three,Nepal,np,© OpenStreetMap contributors,Open Database License,https://www.openstreetmap.org/copyright
64747559,1149,2019-12-18 11:05:02,27.708808333333334,85.3312,6.54,4.052743606940174,"Galaxy Public School, Kathmandu, Kathmandu 44605, Nepal",27.708776,85.331219,Galaxy Public School,,,44605,,,Kathmandu,Kathmandu,Three,Nepal,np,© OpenStreetMap contributors,Open Database License,https://www.openstreetmap.org/copyright
64748086,1149,2019-12-18 11:05:32,27.70864333333333,85.33165166666667,4.41,2.6195403248995923,"Gyaneshwor Chowk, Kathmandu, Kathmandu 44605, Nepal",27.70862,85.331648,Gyaneshwor Chowk,,,44605,,,Kathmandu,Kathmandu,Three,Nepal,np,© OpenStreetMap contributors,Open Database License,https://www.openstreetmap.org/copyright
64748611,1149,2019-12-18 11:06:02,27.70823,85.33324666666667,6.96,12.73654948035029,"Subidha Travel, Pashupati Marga, Kathmandu, Kathmandu 44605, Nepal",27.708218,85.333118,Subidha Travel,,Pashupati Marga,44605,,,Kathmandu,Kathmandu,Three,Nepal,np,© OpenStreetMap contributors,Open Database License,https://www.openstreetmap.org/copyright
64749151,1149,2019-12-18 11:06:32,27.70815,85.33509333333333,12.24,6.854026579595218,"Binayek Photo Studio, Pashupati Sadak, Maitidevi, Kathmandu 44605, Nepal",27.7080959,85.3351267,Binayek Photo Studio,,Pashupati Sadak,44605,Kathmandu-30,Maitidevi,Kathmandu,Kathmandu,Bagmati Province,Nepal,np,© OpenStreetMap contributors,Open Database License,https://www.openstreetmap.org/copyright
64749674,1149,2019-12-18 11:07:01,27.708061666666666,85.33676,11.07,10.389956417932245,"Ratopul, Chabahil, Kathmandu 44660, Nepal",27.708086,85.3368619,Ratopul,,Ratopul,44660,Kathmandu-30,Chabahil,Kathmandu,Kathmandu,Bagmati Province,Nepal,np,© OpenStreetMap contributors,Open Database License,https://www.openstreetmap.org/copyright
64750250,1149,2019-12-18 11:07:31,27.708,85.33833166666666,15.28,15.505288070343182,"maharjan stores and gift cnter, Galli, Chabahil, Kathmandu 44660, Nepal",27.70812075,85.33825289442586,maharjan stores and gift cnter,,Galli,44660,Kathmandu-07,Chabahil,Kathmandu,Kathmandu,Bagmati Province,Nepal,np,© OpenStreetMap contributors,Open Database License,https://www.openstreetmap.org/copyright
66082456,1149,2019-12-19 08:19:56,27.70012,85.33894,0.13,12.315897128245407,"Global College, Kathmandu, Kathmandu 44703, Nepal",27.700196,85.339031,Global College,,,44703,,,Kathmandu,Kathmandu,Three,Nepal,np,© OpenStreetMap contributors,Open Database License,https://www.openstreetmap.org/copyright
66082989,1149,2019-12-19 08:20:26,27.699476666666666,85.33848833333333,6.68,10.288694118474162,"Green Land Cafe, Devkota Sadak, Baneshwar, Kathmandu 44703, Nepal",27.6995084,85.3385865,Green Land Cafe,,Devkota Sadak,44703,Kathmandu-10,Baneshwar,Kathmandu,Kathmandu,Bagmati Province,Nepal,np,© OpenStreetMap contributors,Open Database License,https://www.openstreetmap.org/copyright
66083530,1149,2019-12-19 08:20:57,27.697701666666667,85.33794333333333,13.67,17.714865985876393,"Samyak Diagnostic Private Limited, Devkota Sadak, Baneshwar, Kathmandu 44703, Nepal",27.697973599999997,85.33785953908827,Samyak Diagnostic Private Limited,,Devkota Sadak,44703,Kathmandu-10,Baneshwar,Kathmandu,Kathmandu,Bagmati Province,Nepal,np,© OpenStreetMap contributors,Open Database License,https://www.openstreetmap.org/copyright
66084042,1149,2019-12-19 08:21:26,27.695881666666665,85.33759,13.74,4.944794262417291,"Sungava Digital Photo Studio, Devkota Sadak, Baneshwar, Kathmandu 44703, Nepal",27.6958906,85.3375408,Sungava Digital Photo Studio,,Devkota Sadak,44703,Kathmandu-10,Baneshwar,Kathmandu,Kathmandu,Bagmati Province,Nepal,np,© OpenStreetMap contributors,Open Database License,https://www.openstreetmap.org/copyright
66084574,1149,2019-12-19 08:21:55,27.694225,85.33713166666666,11.97,5.131083457601594,"SchEMS, Devkota Sadak, Baneshwar, Kathmandu 00446, Nepal",27.694195450000002,85.33733938831966,SchEMS,,Devkota Sadak,00446,Kathmandu-10,Baneshwar,Kathmandu,Kathmandu,Bagmati Province,Nepal,np,© OpenStreetMap contributors,Open Database License,https://www.openstreetmap.org/copyright
66085098,1149,2019-12-19 08:22:25,27.692813333333334,85.33642333333333,9.6,17.063113647350537,"Yes Informatics, Devkota Sadak 10, Baneshwar, Kathmandu 44600, Nepal",27.69273655,85.33620229628806,Yes Informatics,10,Devkota Sadak,44600,Kathmandu-10,Baneshwar,Kathmandu,Kathmandu,Bagmati Province,Nepal,np,© OpenStreetMap contributors,Open Database License,https://www.openstreetmap.org/copyright
66085629,1149,2019-12-19 08:22:55,27.69189833333333,85.33626333333333,7.31,31.79072809598174,"Basemark, Devkota Sadak, Buddha Nagar, Kathmandu 00446, Nepal",27.6921285,85.3360718,Basemark,,Devkota Sadak,00446,Kathmandu-10,Buddha Nagar,Kathmandu,Kathmandu,Bagmati Province,Nepal,np,© OpenStreetMap contributors,Open Database License,https://www.openstreetmap.org/copyright
66086148,1149,2019-12-19 08:23:25,27.690376666666666,85.33596666666666,13.94,5.51156659836637,"Naya Baneshwar, Kathmandu, Kathmandu 44617, Nepal",27.69034,85.335929,Naya Baneshwar,,,44617,,,Kathmandu,Kathmandu,Three,Nepal,np,© OpenStreetMap contributors,Open Database License,https://www.openstreetmap.org/copyright
66086690,1149,2019-12-19 08:23:55,27.688786666666665,85.33566,0.03,13.962708339196308,"Bhawani Durga Pharmacy, Naya Baneshwar Sadak, Buddha Nagar, Kathmandu 44617, Nepal",27.6888072,85.3355201,Bhawani Durga Pharmacy,,Naya Baneshwar Sadak,44617,Kathmandu-10,Buddha Nagar,Kathmandu,Kathmandu,Bagmati Province,Nepal,np,© OpenStreetMap contributors,Open Database License,https://www.openstreetmap.org/copyright
66087214,1149,2019-12-19 08:24:25,27.68876833333333,85.33565333333334,0.04,13.811919025573406,"Bhawani Durga Pharmacy, Naya Baneshwar Sadak, Buddha Nagar, Kathmandu 44617, Nepal",27.6888072,85.3355201,Bhawani Durga Pharmacy,,Naya Baneshwar Sadak,44617,Kathmandu-10,Buddha Nagar,Kathmandu,Kathmandu,Bagmati Province,Nepal,np,© OpenStreetMap contributors,Open Database License,https://www.openstreetmap.org/copyright
66087741,1149,2019-12-19 08:24:54,27.68876333333333,85.33565833333333,0.05,14.45831025944194,"Bhawani Durga Pharmacy, Naya Baneshwar Sadak, Buddha Nagar, Kathmandu 44617, Nepal",27.6888072,85.3355201,Bhawani Durga Pharmacy,,Naya Baneshwar Sadak,44617,Kathmandu-10,Buddha Nagar,Kathmandu,Kathmandu,Bagmati Province,Nepal,np,© OpenStreetMap contributors,Open Database License,https://www.openstreetmap.org/copyright
66088271,1149,2019-12-19 08:25:24,27.688593333333333,85.33563333333333,6.71,17.722380674086192,"Binayak aankha clinic, Kathmandu, Kathmandu 44617, Nepal",27.688664,85.335472,Binayak aankha clinic,,,44617,,,Kathmandu,Kathmandu,Three,Nepal,np,© OpenStreetMap contributors,Open Database License,https://www.openstreetmap.org/copyright
66088806,1149,2019-12-19 08:25:54,27.688211666666668,85.33552166666666,2.98,4.937845513778309,"पुरानो बानेश्वर सडक, Kathmandu, Kathmandu 44617, Nepal",27.688253,85.33554,,,पुरानो बानेश्वर सडक,44617,,,Kathmandu,Kathmandu,Three,Nepal,np,© OpenStreetMap contributors,Open Database License,https://www.openstreetmap.org/copyright
67925950,1149,2019-12-20 13:36:28,27.68794,85.33657833333334,21.62,4.465094230017863,"Minbhawan, Kathmandu 44617, Nepal",27.6880487,85.3359171,,,,44617,Kathmandu-31,Minbhawan,Kathmandu,Kathmandu,Bagmati Province,Nepal,np,© OpenStreetMap contributors,Open Database License,https://www.openstreetmap.org/copyright
67926170,1149,2019-12-20 13:36:40,27.68852833333333,85.33389833333334,14.71,4.204564407957633,"Minbhawan, Kathmandu 44617, Nepal",27.6880487,85.3359171,,,,44617,Kathmandu-31,Minbhawan,Kathmandu,Kathmandu,Bagmati Province,Nepal,np,© OpenStreetMap contributors,Open Database License,https://www.openstreetmap.org/copyright
67926693,1149,2019-12-20 13:37:10,27.689091666666663,85.33141666666667,13.42,5.333876082165985,"Buddha Nagar, Kathmandu 44617, Nepal",27.6890718,85.3312886,,,,44617,Kathmandu-10,Buddha Nagar,Kathmandu,Kathmandu,Bagmati Province,Nepal,np,© OpenStreetMap contributors,Open Database License,https://www.openstreetmap.org/copyright
67927258,1149,2019-12-20 13:37:43,27.69007833333333,85.32871666666666,16.01,1.9267487446317768,"Buddha Nagar, Kathmandu 44617, Nepal",27.6900608,85.3287828,,,,44617,Kathmandu-10,Buddha Nagar,Kathmandu,Kathmandu,Bagmati Province,Nepal,np,© OpenStreetMap contributors,Open Database License,https://www.openstreetmap.org/copyright
67927862,1149,2019-12-20 13:38:18,27.691296666666663,85.32618666666667,19.5,5.782878784754151,"Madan Bhandari Path, Kathmandu, Kathmandu 44617, Nepal",27.691344,85.326211,,,Madan Bhandari Path,44617,,,Kathmandu,Kathmandu,Three,Nepal,np,© OpenStreetMap contributors,Open Database License,https://www.openstreetmap.org/copyright
67928233,1149,2019-12-20 13:38:39,27.69241,85.323825,10.08,1.4088847699368299,"Kathmandu, Kathmandu 44617, Nepal",27.6924617,85.3238578,,,,44617,Kathmandu-11,,Kathmandu,Kathmandu,Bagmati Province,Nepal,np,© OpenStreetMap contributors,Open Database License,https://www.openstreetmap.org/copyright
67928747,1149,2019-12-20 13:39:09,27.69385833333333,85.32082333333334,12.64,7.963912423024409,"Maitighar, Kathmandu, Kathmandu 44617, Nepal",27.693875,85.320902,Maitighar,,,44617,,,Kathmandu,Kathmandu,Three,Nepal,np,© OpenStreetMap contributors,Open Database License,https://www.openstreetmap.org/copyright
67929261,1149,2019-12-20 13:39:39,27.693871666666663,85.31920166666667,15.99,18.14644804842919,"Maitighar Bus Stop, Thapathali Road, Thapathali, Kathmandu 00779, Nepal",27.693971,85.3193479,Maitighar Bus Stop,,Thapathali Road,00779,Kathmandu-11,Thapathali,Kathmandu,Kathmandu,Bagmati Province,Nepal,np,© OpenStreetMap contributors,Open Database License,https://www.openstreetmap.org/copyright
68986784,1149,2019-12-21 06:56:10,27.70797,85.338995,12.79,16.91739959728514,"Wigan & Leigh College, Pashupati Sadak, Chabahil, Kathmandu 44660, Nepal",27.70814345,85.33914129437514,Wigan & Leigh College,,Pashupati Sadak,44660,Kathmandu-07,Chabahil,Kathmandu,Kathmandu,Bagmati Province,Nepal,np,© OpenStreetMap contributors,Open Database License,https://www.openstreetmap.org/copyright
68987282,1149,2019-12-21 06:56:40,27.70802833333333,85.33716,5.06,12.562050918947998,"रातोपुल मार्ग, Kathmandu, Kathmandu 44660, Nepal",27.708055,85.337284,,,रातोपुल मार्ग,44660,,,Kathmandu,Kathmandu,Three,Nepal,np,© OpenStreetMap contributors,Open Database License,https://www.openstreetmap.org/copyright
68987773,1149,2019-12-21 06:57:10,27.708156666666667,85.33511166666666,16.98,6.912655472680664,"Binayek Photo Studio, Kathmandu, Kathmandu 44605, Nepal",27.708096,85.335127,Binayek Photo Studio,,,44605,,,Kathmandu,Kathmandu,Three,Nepal,np,© OpenStreetMap contributors,Open Database License,https://www.openstreetmap.org/copyright
68988279,1149,2019-12-21 06:57:39,27.70816333333333,85.333285,9.99,17.527942419284958,"Subidha Travel, Pashupati Marga, Kathmandu, Kathmandu 44605, Nepal",27.708218,85.333118,Subidha Travel,,Pashupati Marga,44605,,,Kathmandu,Kathmandu,Three,Nepal,np,© OpenStreetMap contributors,Open Database License,https://www.openstreetmap.org/copyright
68988775,1149,2019-12-21 06:58:09,27.708665,85.33147333333334,14.0,8.251624757495815,"Hotel Kaberi Inn, Pashupati Sadak, Maitidevi, Kathmandu 44605, Nepal",27.708533250000002,85.33133709133874,Hotel Kaberi Inn,,Pashupati Sadak,44605,Kathmandu-30,Maitidevi,Kathmandu,Kathmandu,Bagmati Province,Nepal,np,© OpenStreetMap contributors,Open Database License,https://www.openstreetmap.org/copyright
68989269,1149,2019-12-21 06:58:39,27.71004,85.33113333333333,18.1,5.6233350909884825,"Devi marg, Maitidevi, Kathmandu 44605, Nepal",27.7103169,85.3311772,Devi marg,,Devi marg,44605,Kathmandu-30,Maitidevi,Kathmandu,Kathmandu,Bagmati Province,Nepal,np,© OpenStreetMap contributors,Open Database License,https://www.openstreetmap.org/copyright
69017809,1149,2019-12-21 07:27:02,27.71083,85.32205,13.48,12.936271392868614,"Siddhartha Bank Limited, Kathmandu, Kathmandu 46000, Nepal",27.710813,85.32192,Siddhartha Bank Limited,,,46000,,,Kathmandu,Kathmandu,Three,Nepal,np,© OpenStreetMap contributors,Open Database License,https://www.openstreetmap.org/copyright
69018225,1149,2019-12-21 07:27:27,27.71025833333333,85.32346833333334,19.08,19.940913842452318,"Om Everest ceramic, Pashupati Marga 29, Kathmandu, Kathmandu 46000, Nepal",27.710364,85.323632,Om Everest ceramic,29,Pashupati Marga,46000,,,Kathmandu,Kathmandu,Three,Nepal,np,© OpenStreetMap contributors,Open Database License,https://www.openstreetmap.org/copyright
69018766,1149,2019-12-21 07:28:00,27.70997833333333,85.32630833333333,12.71,64.23564235478807,"Sandar MoMo, Pashupati Sadak P85G+X8C, Kathmandu, Kathmandu 44600, Nepal",27.709913,85.32566,Sandar MoMo,P85G+X8C,Pashupati Sadak,44600,,,Kathmandu,Kathmandu,Three,Nepal,np,© OpenStreetMap contributors,Open Database License,https://www.openstreetmap.org/copyright
69019204,1149,2019-12-21 07:28:26,27.709646666666668,85.327625,0.06,9.60091418319749,"Dudhsagar, Pashupati Sadak, Narayan Chaur, Kathmandu 44605, Nepal",27.7095693,85.3276683,Dudhsagar,,Pashupati Sadak,44605,Kathmandu-01,Narayan Chaur,Kathmandu,Kathmandu,Bagmati Province,Nepal,np,© OpenStreetMap contributors,Open Database License,https://www.openstreetmap.org/copyright
69019691,1149,2019-12-21 07:28:56,27.709621666666667,85.32763166666666,0.11,6.8492078749047876,"Dudhsagar, Pashupati Sadak, Narayan Chaur, Kathmandu 44605, Nepal",27.7095693,85.3276683,Dudhsagar,,Pashupati Sadak,44605,Kathmandu-01,Narayan Chaur,Kathmandu,Kathmandu,Bagmati Province,Nepal,np,© OpenStreetMap contributors,Open Database License,https://www.openstreetmap.org/copyright
69020195,1149,2019-12-21 07:29:26,27.709606666666662,85.32772666666666,5.04,7.0906896467031455,"Dudhsagar, Pashupati Sadak, Narayan Chaur, Kathmandu 44605, Nepal",27.7095693,85.3276683,Dudhsagar,,Pashupati Sadak,44605,Kathmandu-01,Narayan Chaur,Kathmandu,Kathmandu,Bagmati Province,Nepal,np,© OpenStreetMap contributors,Open Database License,https://www.openstreetmap.org/copyright
69020715,1149,2019-12-21 07:29:55,27.709145,85.32962,14.76,11.147924895666808,"Rays Boutique, Pashupati Marga, Kathmandu, Kathmandu 44600, Nepal",27.709053,85.329665,Rays Boutique,,Pashupati Marga,44600,,,Kathmandu,Kathmandu,Three,Nepal,np,© OpenStreetMap contributors,Open Database License,https://www.openstreetmap.org/copyright
69021217,1149,2019-12-21 07:30:25,27.708763333333334,85.331425,7.25,5.777925359914326,"आगम अनुसन्धान केन्द्र, Sarathi marg, Maitidevi, Kathmandu 44605, Nepal",27.7088294,85.3313471,आगम अनुसन्धान केन्द्र,,Sarathi marg,44605,Kathmandu-30,Maitidevi,Kathmandu,Kathmandu,Bagmati Province,Nepal,np,© OpenStreetMap contributors,Open Database License,https://www.openstreetmap.org/copyright
69021712,1149,2019-12-21 07:30:55,27.708706666666668,85.331915,1.09,4.567519277971252,"Maitidevi, Kathmandu 44605, Nepal",27.7086839,85.3318427,,,,44605,Kathmandu-30,Maitidevi,Kathmandu,Kathmandu,Bagmati Province,Nepal,np,© OpenStreetMap contributors,Open Database License,https://www.openstreetmap.org/copyright
69022223,1149,2019-12-21 07:31:25,27.708256666666667,85.33333666666667,9.54,0.4375824757887548,"Bishnu paudel marg, Maitidevi, Kathmandu 00975, Nepal",27.7090831,85.3338723,Bishnu paudel marg,,Bishnu paudel marg,00975,Kathmandu-30,Maitidevi,Kathmandu,Kathmandu,Bagmati Province,Nepal,np,© OpenStreetMap contributors,Open Database License,https://www.openstreetmap.org/copyright
69022707,1149,2019-12-21 07:31:55,27.70818166666667,85.33583666666667,15.77,18.590895163385003,"Samarpan electrical solution, Pashupati Sadak, Maitidevi, Kathmandu 44605, Nepal",27.7080748,85.3359819,Samarpan electrical solution,,Pashupati Sadak,44605,Kathmandu-30,Maitidevi,Kathmandu,Kathmandu,Bagmati Province,Nepal,np,© OpenStreetMap contributors,Open Database License,https://www.openstreetmap.org/copyright
69023204,1149,2019-12-21 07:32:24,27.708055,85.337785,16.93,5.40104315785766,"The Great Malika, Pashupati Sadak, Chabahil, Kathmandu 44660, Nepal",27.70816285,85.337752,The Great Malika,,Pashupati Sadak,44660,Kathmandu-07,Chabahil,Kathmandu,Kathmandu,Bagmati Province,Nepal,np,© OpenStreetMap contributors,Open Database License,https://www.openstreetmap.org/copyright
69132227,1149,2019-12-21 09:20:08,27.708006666666662,85.33838333333334,23.92,18.050261564683993,"maharjan stores and gift cnter, Galli, Chabahil, Kathmandu 44660, Nepal",27.70812075,85.33825289442586,maharjan stores and gift cnter,,Galli,44660,Kathmandu-07,Chabahil,Kathmandu,Kathmandu,Bagmati Province,Nepal,np,© OpenStreetMap contributors,Open Database License,https://www.openstreetmap.org/copyright
69132753,1149,2019-12-21 09:20:38,27.708216666666665,85.33658666666666,8.64,15.20443130719285,"Pashupati Sadak, Kathmandu, Kathmandu 00975, Nepal",27.708085,85.336545,,,Pashupati Sadak,00975,,,Kathmandu,Kathmandu,Three,Nepal,np,© OpenStreetMap contributors,Open Database License,https://www.openstreetmap.org/copyright
69133249,1149,2019-12-21 09:21:08,27.71001,85.33709,0.35,0.612254152119582,"Rudra Mati Marg, Maitidevi, Kathmandu 00975, Nepal",27.7096953,85.3370232,Rudra Mati Marg,,Rudra Mati Marg,00975,Kathmandu-30,Maitidevi,Kathmandu,Kathmandu,Bagmati Province,Nepal,np,© OpenStreetMap contributors,Open Database License,https://www.openstreetmap.org/copyright
70289068,1149,2019-12-22 05:04:39,27.68812,85.33596833333333,0.02,47.61308809286534,"Provident Merchant Banking Limited प्रोभिडेन्ट मर्चेन्ट बैंकिङ्ग लिमिटेड, Sankhamul Marg 31, Kathmandu, Kathmandu 44617, Nepal",27.687949,85.335525,Provident Merchant Banking Limited प्रोभिडेन्ट मर्चेन्ट बैंकिङ्ग लिमिटेड,31,Sankhamul Marg,44617,,,Kathmandu,Kathmandu,Three,Nepal,np,© OpenStreetMap contributors,Open Database License,https://www.openstreetmap.org/copyright
70289190,1149,2019-12-22 05:04:40,27.68819333333333,85.33565333333334,5.27,29.931380146150588,"Provident Merchant Banking Limited प्रोभिडेन्ट मर्चेन्ट बैंकिङ्ग लिमिटेड, Sankhamul Marg 31, Shankhamul, Kathmandu 44617, Nepal",27.6879494,85.3355248,Provident Merchant Banking Limited प्रोभिडेन्ट मर्चेन्ट बैंकिङ्ग लिमिटेड,31,Sankhamul Marg,44617,Kathmandu-10,Shankhamul,Kathmandu,Kathmandu,Bagmati Province,Nepal,np,© OpenStreetMap contributors,Open Database License,https://www.openstreetmap.org/copyright
70289314,1149,2019-12-22 05:04:41,27.68840833333333,85.33472333333333,11.09,6.905947085798383,"Naya Baneshwar Bus Station, Kathmandu, Kathmandu 44617, Nepal",27.68847,85.334715,Naya Baneshwar Bus Station,,,44617,,,Kathmandu,Kathmandu,Three,Nepal,np,© OpenStreetMap contributors,Open Database License,https://www.openstreetmap.org/copyright
70289730,1149,2019-12-22 05:04:43,27.688773333333334,85.33319666666667,17.75,84.68815739886224,"Let Me in, Madan Bhandari Path 10, Kathmandu, Kathmandu 44617, Nepal",27.689165,85.332459,Let Me in,10,Madan Bhandari Path,44617,,,Kathmandu,Kathmandu,Three,Nepal,np,© OpenStreetMap contributors,Open Database License,https://www.openstreetmap.org/copyright
70290004,1149,2019-12-22 05:04:44,27.689391666666666,85.33061,17.15,33.33582707271399,"Spacewood Nepal, Bogati Marg, Buddha Nagar, Kathmandu 44617, Nepal",27.6895685,85.3308834,Spacewood Nepal,,Bogati Marg,44617,Kathmandu-10,Buddha Nagar,Kathmandu,Kathmandu,Bagmati Province,Nepal,np,© OpenStreetMap contributors,Open Database License,https://www.openstreetmap.org/copyright
70290009,1149,2019-12-22 05:04:44,27.690021666666667,85.32905166666667,1.87,15.586465997787473,"Tex World, Kathmandu, Kathmandu 44617, Nepal",27.689888,85.329004,Tex World,,,44617,,,Kathmandu,Kathmandu,Three,Nepal,np,© OpenStreetMap contributors,Open Database License,https://www.openstreetmap.org/copyright
70290409,1149,2019-12-22 05:04:46,27.690201666666667,85.328685,10.06,11.52424309284303,"Buddhanagar Stop, Kathmandu, Kathmandu 44617, Nepal",27.69027,85.328597,Buddhanagar Stop,,,44617,,,Kathmandu,Kathmandu,Three,Nepal,np,© OpenStreetMap contributors,Open Database License,https://www.openstreetmap.org/copyright
70290698,1149,2019-12-22 05:04:47,27.69049833333333,85.32802166666667,7.44,1.1559575409950855,"NH34, Kathmandu, Kathmandu 44617, Nepal",27.6905324,85.3279291,NH34,,NH34,44617,Kathmandu-11,,Kathmandu,Kathmandu,Bagmati Province,Nepal,np,© OpenStreetMap contributors,Open Database License,https://www.openstreetmap.org/copyright
70290862,1149,2019-12-22 05:04:48,27.69121833333333,85.32651166666666,13.71,1.5557294386402343,"Madan Bhandari Path, Kathmandu, Kathmandu 44617, Nepal",27.6916763,85.3255084,Madan Bhandari Path,,Madan Bhandari Path,44617,Kathmandu-11,,Kathmandu,Kathmandu,Bagmati Province,Nepal,np,© OpenStreetMap contributors,Open Database License,https://www.openstreetmap.org/copyright
70291064,1149,2019-12-22 05:04:49,27.692208333333333,85.32442833333333,13.4,2.761826452504274,"Madan Bhandari Path, Kathmandu, Kathmandu 44617, Nepal",27.6916763,85.3255084,Madan Bhandari Path,,Madan Bhandari Path,44617,Kathmandu-11,,Kathmandu,Kathmandu,Bagmati Province,Nepal,np,© OpenStreetMap contributors,Open Database License,https://www.openstreetmap.org/copyright
70291233,1149,2019-12-22 05:04:50,27.693145,85.32248,17.54,12.44614677997975,"उक्टी मार्गा, Kathmandu, Kathmandu 44617, Nepal",27.693049,85.322415,,,उक्टी मार्गा,44617,,,Kathmandu,Kathmandu,Three,Nepal,np,© OpenStreetMap contributors,Open Database License,https://www.openstreetmap.org/copyright
70291421,1149,2019-12-22 05:04:50,27.693726666666667,85.321215,5.07,0.8433233858521314,"Madan Bhandari Path, Kathmandu, Kathmandu 44617, Nepal",27.6929902,85.3227105,Madan Bhandari Path,,Madan Bhandari Path,44617,Kathmandu-11,,Kathmandu,Kathmandu,Bagmati Province,Nepal,np,© OpenStreetMap contributors,Open Database License,https://www.openstreetmap.org/copyright
70291575,1149,2019-12-22 05:04:51,27.693805,85.32100666666666,0.09,1.6514186170204155,"Madan Bhandari Path, Kathmandu, Kathmandu 44617, Nepal",27.6929902,85.3227105,Madan Bhandari Path,,Madan Bhandari Path,44617,Kathmandu-11,,Kathmandu,Kathmandu,Bagmati Province,Nepal,np,© OpenStreetMap contributors,Open Database License,https://www.openstreetmap.org/copyright
70292025,1149,2019-12-22 05:04:54,27.693825,85.32099833333334,0.04,0.1178340943794065,"Madan Bhandari Path, Kathmandu, Kathmandu 44617, Nepal",27.6929902,85.3227105,Madan Bhandari Path,,Madan Bhandari Path,44617,Kathmandu-11,,Kathmandu,Kathmandu,Bagmati Province,Nepal,np,© OpenStreetMap contributors,Open Database License,https://www.openstreetmap.org/copyright
70292275,1149,2019-12-22 05:04:54,27.693925,85.32081666666667,2.09,10.074656549928024,"Maitighar, Kathmandu, Kathmandu 44617, Nepal",27.693875,85.320902,Maitighar,,,44617,,,Kathmandu,Kathmandu,Three,Nepal,np,© OpenStreetMap contributors,Open Database License,https://www.openstreetmap.org/copyright
70292310,1149,2019-12-22 05:04:54,27.693943333333333,85.32079166666666,1.08,13.256738347262752,"Maitighar, Kathmandu, Kathmandu 44617, Nepal",27.693875,85.320902,Maitighar,,,44617,,,Kathmandu,Kathmandu,Three,Nepal,np,© OpenStreetMap contributors,Open Database License,https://www.openstreetmap.org/copyright
70292550,1149,2019-12-22 05:04:56,27.694168333333334,85.32033333333334,3.94,22.578212466388443,"माइतिघर सडक, Kathmandu, Kathmandu 44617, Nepal",27.694265,85.320535,,,माइतिघर सडक,44617,,,Kathmandu,Kathmandu,Three,Nepal,np,© OpenStreetMap contributors,Open Database License,https://www.openstreetmap.org/copyright
70292870,1149,2019-12-22 05:04:57,27.69435333333333,85.320125,2.02,1.4308714112938463,"Thapathali, Kathmandu 44617, Nepal",27.6944913,85.3200831,,,,44617,Kathmandu-11,Thapathali,Kathmandu,Kathmandu,Bagmati Province,Nepal,np,© OpenStreetMap contributors,Open Database License,https://www.openstreetmap.org/copyright
70293037,1149,2019-12-22 05:04:58,27.694576666666663,85.320105,2.32,0.2875013658320882,"Thapathali, Kathmandu 44617, Nepal",27.6944913,85.3200831,,,,44617,Kathmandu-11,Thapathali,Kathmandu,Kathmandu,Bagmati Province,Nepal,np,© OpenStreetMap contributors,Open Database License,https://www.openstreetmap.org/copyright
70293308,1149,2019-12-22 05:04:59,27.695016666666668,85.32067333333333,4.32,2.0482074761990963,"Thapathali, Kathmandu 44617, Nepal",27.6950287,85.320728,,,,44617,Kathmandu-11,Thapathali,Kathmandu,Kathmandu,Bagmati Province,Nepal,np,© OpenStreetMap contributors,Open Database License,https://www.openstreetmap.org/copyright
70293482,1149,2019-12-22 05:04:59,27.696335,85.321095,12.97,20.181353825446987,"Agricultural development bank Ltd., Head Office, Ram Shah Path, Thapathali, Kathmandu 00446, Nepal",27.696435800000003,85.3206718869867,"Agricultural development bank Ltd., Head Office",,Ram Shah Path,00446,Kathmandu-11,Thapathali,Kathmandu,Kathmandu,Bagmati Province,Nepal,np,© OpenStreetMap contributors,Open Database License,https://www.openstreetmap.org/copyright
70293726,1149,2019-12-22 05:05:00,27.69762833333333,85.32136333333334,8.5,28.391638871885952,"Supreme Court, Ram Shah Path, Kathmandu, Kathmandu 00446, Nepal",27.69680365,85.32167994840998,Supreme Court,,Ram Shah Path,00446,Kathmandu-11,,Kathmandu,Kathmandu,Bagmati Province,Nepal,np,© OpenStreetMap contributors,Open Database License,https://www.openstreetmap.org/copyright
70293844,1149,2019-12-22 05:05:01,27.698605,85.32063333333333,16.71,14.318361755548153,"Prithvi Path, Kathmandu, Kathmandu 00446, Nepal",27.69858,85.320776,,,Prithvi Path,00446,,,Kathmandu,Kathmandu,Three,Nepal,np,© OpenStreetMap contributors,Open Database License,https://www.openstreetmap.org/copyright
70325382,1149,2019-12-22 05:06:31,27.71001,85.31968833333333,12.47,14.235390957418774,"Mobile Hub, Kathmandu, Kathmandu 66400, Nepal",27.710138,85.319691,Mobile Hub,,,66400,,,Kathmandu,Kathmandu,Three,Nepal,np,© OpenStreetMap contributors,Open Database License,https://www.openstreetmap.org/copyright
70325964,1149,2019-12-22 05:06:33,27.709868333333333,85.32091,0.04,17.52920519488302,"Tindhara Sadak, Kathmandu, Kathmandu 66400, Nepal",27.709831,85.321083,,,Tindhara Sadak,66400,,,Kathmandu,Kathmandu,Three,Nepal,np,© OpenStreetMap contributors,Open Database License,https://www.openstreetmap.org/copyright
