original_id,original_deviceid,original_servertime,original_latitude,original_longitude,original_speed,distance,formatted,lat,lon,name,housenumber,street,postcode,district,suburb,city,county,state,country,country_code,attribution,attribution_license,attribution_url
54191362,1152,2019-12-11 11:05:24,27.70166333333333,85.33981166666666,11.19,58.98592883115602,"Touchstone Infosys, Baburam Acharya Marg 175723, Baneshwar, Kathmandu 44600, Nepal",27.7017596,85.33916782177315,Touchstone Infosys,175723,Baburam Acharya Marg,44600,Kathmandu-10,Baneshwar,Kathmandu,Kathmandu,Bagmati Province,Nepal,np,© OpenStreetMap contributors,Open Database License,https://www.openstreetmap.org/copyright
54191782,1152,2019-12-11 11:05:48,27.70232,85.33798,9.39,116.0110689327586,"Lal Bahadur Bum Marg 34, Tilganga, Kathmandu 44703, Nepal",27.703272499999997,85.33846084387694,,34,Lal Bahadur Bum Marg,44703,Kathmandu-09,Tilganga,Kathmandu,Kathmandu,Bagmati Province,Nepal,np,© OpenStreetMap contributors,Open Database License,https://www.openstreetmap.org/copyright
54192303,1152,2019-12-11 11:06:18,27.702461666666668,85.337445,2.02,18.464888399887904,"Baburam Acharya Marg, Kathmandu, Kathmandu 44703, Nepal",27.702514,85.337267,,,Baburam Acharya Marg,44703,,,Kathmandu,Kathmandu,Three,Nepal,np,© OpenStreetMap contributors,Open Database License,https://www.openstreetmap.org/copyright
54192831,1152,2019-12-11 11:06:48,27.70249833333333,85.33728333333333,0.22,2.370745279435361,"Baburam Acharya Marg, Kathmandu, Kathmandu 44703, Nepal",27.702514,85.337267,,,Baburam Acharya Marg,44703,,,Kathmandu,Kathmandu,Three,Nepal,np,© OpenStreetMap contributors,Open Database License,https://www.openstreetmap.org/copyright
54193355,1152,2019-12-11 11:07:18,27.702511666666663,85.33722666666667,0.29,3.9792498252059865,"Baburam Acharya Marg, Kathmandu, Kathmandu 44703, Nepal",27.702514,85.337267,,,Baburam Acharya Marg,44703,,,Kathmandu,Kathmandu,Three,Nepal,np,© OpenStreetMap contributors,Open Database License,https://www.openstreetmap.org/copyright
54193875,1152,2019-12-11 11:07:47,27.702496666666665,85.33715,0.2,11.678690823769607,"Baburam Acharya Marg, Kathmandu, Kathmandu 44703, Nepal",27.702514,85.337267,,,Baburam Acharya Marg,44703,,,Kathmandu,Kathmandu,Three,Nepal,np,© OpenStreetMap contributors,Open Database License,https://www.openstreetmap.org/copyright
54194408,1152,2019-12-11 11:08:17,27.702565,85.33701666666667,0.29,25.289137800089826,"Baburam Acharya Marg, Kathmandu, Kathmandu 44703, Nepal",27.702514,85.337267,,,Baburam Acharya Marg,44703,,,Kathmandu,Kathmandu,Three,Nepal,np,© OpenStreetMap contributors,Open Database License,https://www.openstreetmap.org/copyright
54194955,1152,2019-12-11 11:08:48,27.70260333333333,85.336915,2.39,34.57859589007275,"Shrestha General Store, Setopul, Kathmandu, Kathmandu 00446, Nepal",27.702592,85.336564,Shrestha General Store,,Setopul,00446,,,Kathmandu,Kathmandu,Three,Nepal,np,© OpenStreetMap contributors,Open Database License,https://www.openstreetmap.org/copyright
54195469,1152,2019-12-11 11:09:17,27.702635,85.33676833333334,0.97,20.67685162004153,"Shrestha General Store, Setopul, Kathmandu, Kathmandu 00446, Nepal",27.702592,85.336564,Shrestha General Store,,Setopul,00446,,,Kathmandu,Kathmandu,Three,Nepal,np,© OpenStreetMap contributors,Open Database License,https://www.openstreetmap.org/copyright
54196012,1152,2019-12-11 11:09:47,27.702676666666665,85.33672166666666,0.26,18.15405466560733,"Shrestha General Store, Setopul, Kathmandu, Kathmandu 00446, Nepal",27.702592,85.336564,Shrestha General Store,,Setopul,00446,,,Kathmandu,Kathmandu,Three,Nepal,np,© OpenStreetMap contributors,Open Database License,https://www.openstreetmap.org/copyright
54196560,1152,2019-12-11 11:10:18,27.702696666666668,85.33671,0.22,18.49464683962409,"Shrestha General Store, Setopul, Kathmandu, Kathmandu 00446, Nepal",27.702592,85.336564,Shrestha General Store,,Setopul,00446,,,Kathmandu,Kathmandu,Three,Nepal,np,© OpenStreetMap contributors,Open Database License,https://www.openstreetmap.org/copyright
54197072,1152,2019-12-11 11:10:46,27.702695,85.33669,0.14,16.883331910503042,"Shrestha General Store, Setopul, Kathmandu, Kathmandu 00446, Nepal",27.702592,85.336564,Shrestha General Store,,Setopul,00446,,,Kathmandu,Kathmandu,Three,Nepal,np,© OpenStreetMap contributors,Open Database License,https://www.openstreetmap.org/copyright
54197595,1152,2019-12-11 11:11:16,27.702705,85.33669,0.37,17.65655315690976,"Shrestha General Store, Setopul, Kathmandu, Kathmandu 00446, Nepal",27.702592,85.336564,Shrestha General Store,,Setopul,00446,,,Kathmandu,Kathmandu,Three,Nepal,np,© OpenStreetMap contributors,Open Database License,https://www.openstreetmap.org/copyright
54198141,1152,2019-12-11 11:11:46,27.7027,85.33662333333334,2.42,13.354348395498938,"Shrestha General Store, Setopul, Kathmandu, Kathmandu 00446, Nepal",27.702592,85.336564,Shrestha General Store,,Setopul,00446,,,Kathmandu,Kathmandu,Three,Nepal,np,© OpenStreetMap contributors,Open Database License,https://www.openstreetmap.org/copyright
54198707,1152,2019-12-11 11:12:16,27.7028,85.336315,1.36,2.119430163147773,"Maitidevi, Kathmandu 00446, Nepal",27.7056104,85.3364598,,,,00446,Kathmandu-30,Maitidevi,Kathmandu,Kathmandu,Bagmati Province,Nepal,np,© OpenStreetMap contributors,Open Database License,https://www.openstreetmap.org/copyright
54199253,1152,2019-12-11 11:12:45,27.70302,85.33558333333333,0.53,10.26752719354048,"Rastriya Banijaya Bank Ltd, Dillibazaar Marg, Ghattekulo, Kathmandu 00446, Nepal",27.7031583,85.33552705,Rastriya Banijaya Bank Ltd,,Dillibazaar Marg,00446,Kathmandu-29,Ghattekulo,Kathmandu,Kathmandu,Bagmati Province,Nepal,np,© OpenStreetMap contributors,Open Database License,https://www.openstreetmap.org/copyright
54199832,1152,2019-12-11 11:13:15,27.70307,85.33539833333333,2.75,9.146187840722217,"Everest Bank Ltdएभरेष्ट बैंक लि. ६६७, Dillibazaar Marg, Ghattekulo, Kathmandu 00446, Nepal",27.7030337,85.3354817,Everest Bank Ltdएभरेष्ट बैंक लि. ६६७,,Dillibazaar Marg,00446,Kathmandu-29,Ghattekulo,Kathmandu,Kathmandu,Bagmati Province,Nepal,np,© OpenStreetMap contributors,Open Database License,https://www.openstreetmap.org/copyright
54200385,1152,2019-12-11 11:13:45,27.703291666666665,85.334665,3.57,15.595015881083572,"Citizen Bank International Ltd, Kathmandu, Kathmandu 00446, Nepal",27.703328,85.334818,Citizen Bank International Ltd,,,00446,,,Kathmandu,Kathmandu,Three,Nepal,np,© OpenStreetMap contributors,Open Database License,https://www.openstreetmap.org/copyright
54200906,1152,2019-12-11 11:14:15,27.70343666666667,85.33428666666667,7.63,10.85081615852361,"sun koshi foodland, Dillibazaar Marg, Ghattekulo, Kathmandu 00446, Nepal",27.7034606,85.33448974999999,sun koshi foodland,,Dillibazaar Marg,00446,Kathmandu-30,Ghattekulo,Kathmandu,Kathmandu,Bagmati Province,Nepal,np,© OpenStreetMap contributors,Open Database License,https://www.openstreetmap.org/copyright
54201452,1152,2019-12-11 11:14:45,27.703793333333333,85.33309833333334,8.97,12.216809219490633,"KKFC Maitidevi, Dillibazaar Marg, Ghattekulo, Kathmandu 00446, Nepal",27.7038705,85.33301,KKFC Maitidevi,,Dillibazaar Marg,00446,Kathmandu-30,Ghattekulo,Kathmandu,Kathmandu,Bagmati Province,Nepal,np,© OpenStreetMap contributors,Open Database License,https://www.openstreetmap.org/copyright
54201974,1152,2019-12-11 11:15:14,27.704261666666667,85.33167833333333,16.79,17.62566774941159,"Western Union Money Transfer, Dillibazar Sadak, Dillibazar, Kathmandu 44605, Nepal",27.7042414,85.3318559,Western Union Money Transfer,,Dillibazar Sadak,44605,Kathmandu-30,Dillibazar,Kathmandu,Kathmandu,Bagmati Province,Nepal,np,© OpenStreetMap contributors,Open Database License,https://www.openstreetmap.org/copyright
54202505,1152,2019-12-11 11:15:44,27.704985,85.32927,10.02,4.16308611125525,"Kathmandu Metropolitan Ward 29, Gyaneshwar Marg, Dillibazar, Kathmandu 44605, Nepal",27.7050604,85.32927955286168,Kathmandu Metropolitan Ward 29,,Gyaneshwar Marg,44605,Kathmandu-30,Dillibazar,Kathmandu,Kathmandu,Bagmati Province,Nepal,np,© OpenStreetMap contributors,Open Database License,https://www.openstreetmap.org/copyright
54203033,1152,2019-12-11 11:16:14,27.70539833333333,85.32765166666667,5.19,68.21365745280364,"Destiny Educational Institute, Dillibazar Sadak 30, Kathmandu, Kathmandu 44600, Nepal",27.705194,85.328305,Destiny Educational Institute,30,Dillibazar Sadak,44600,,,Kathmandu,Kathmandu,Three,Nepal,np,© OpenStreetMap contributors,Open Database License,https://www.openstreetmap.org/copyright
54203555,1152,2019-12-11 11:16:44,27.705366666666663,85.32623833333334,13.71,6.553711301235781,"Platinum Educational Consultancy, Dillibazar Sadak, Ghattekulo, Kathmandu 44605, Nepal",27.7054245,85.3262255,Platinum Educational Consultancy,,Dillibazar Sadak,44605,Kathmandu-30,Ghattekulo,Kathmandu,Kathmandu,Bagmati Province,Nepal,np,© OpenStreetMap contributors,Open Database License,https://www.openstreetmap.org/copyright
54204143,1152,2019-12-11 11:17:16,27.705611666666663,85.32384166666667,16.59,25.307683936489845,"Punya Mansion, Dilli Bazaar Road 33, Kathmandu, Kathmandu 00977, Nepal",27.705795,85.323994,Punya Mansion,33,Dilli Bazaar Road,00977,,,Kathmandu,Kathmandu,Three,Nepal,np,© OpenStreetMap contributors,Open Database License,https://www.openstreetmap.org/copyright
54204670,1152,2019-12-11 11:17:43,27.70562333333333,85.32310333333334,0.5,18.72639722696433,"Alta-Vista, A school of Spanish Language, Putalisadak Chowk 1306, Kathmandu, Kathmandu GPO 8975 EPC 5067, Nepal",27.705746,85.322973,"Alta-Vista, A school of Spanish Language",1306,Putalisadak Chowk,GPO 8975 EPC 5067,,,Kathmandu,Kathmandu,Three,Nepal,np,© OpenStreetMap contributors,Open Database License,https://www.openstreetmap.org/copyright
54205225,1152,2019-12-11 11:18:13,27.70563333333333,85.32301833333334,0.12,13.299162320062475,"Alta-Vista, A school of Spanish Language, Putalisadak Chowk 1306, Kathmandu, Kathmandu GPO 8975 EPC 5067, Nepal",27.705746,85.322973,"Alta-Vista, A school of Spanish Language",1306,Putalisadak Chowk,GPO 8975 EPC 5067,,,Kathmandu,Kathmandu,Three,Nepal,np,© OpenStreetMap contributors,Open Database License,https://www.openstreetmap.org/copyright
54205755,1152,2019-12-11 11:18:43,27.70566833333333,85.32293333333334,3.17,3.1252228862161586,"Somtala Patanjali Ayurvedic Center Pvt.Ltd, Putali Sadak, Dillibazar, Kathmandu 46600, Nepal",27.7056935,85.3229192,Somtala Patanjali Ayurvedic Center Pvt.Ltd,,Putali Sadak,46600,Kathmandu-28,Dillibazar,Kathmandu,Kathmandu,Bagmati Province,Nepal,np,© OpenStreetMap contributors,Open Database License,https://www.openstreetmap.org/copyright
54206285,1152,2019-12-11 11:19:13,27.70686,85.32274166666667,6.8,2.2041495386207557,"Sahara Tandoori Cafe, Putali Sadak, Narayan Chaur, Kathmandu 46000, Nepal",27.7068451,85.3227269,Sahara Tandoori Cafe,,Putali Sadak,46000,Kathmandu-28,Narayan Chaur,Kathmandu,Kathmandu,Bagmati Province,Nepal,np,© OpenStreetMap contributors,Open Database License,https://www.openstreetmap.org/copyright
54206860,1152,2019-12-11 11:19:46,27.707328333333333,85.32244833333333,1.69,6.718286781566824,"SMN Traders, Putali Sadak, Narayan Chaur, Kathmandu 46000, Nepal",27.7073072,85.3223844,SMN Traders,,Putali Sadak,46000,Kathmandu-28,Narayan Chaur,Kathmandu,Kathmandu,Bagmati Province,Nepal,np,© OpenStreetMap contributors,Open Database License,https://www.openstreetmap.org/copyright
54207343,1152,2019-12-11 11:20:12,27.707545,85.32229333333333,8.94,9.467462481815879,"Arena International Education Center, Kathmandu, Kathmandu 46000, Nepal",27.707501,85.322211,Arena International Education Center,,,46000,,,Kathmandu,Kathmandu,Three,Nepal,np,© OpenStreetMap contributors,Open Database License,https://www.openstreetmap.org/copyright
54207879,1152,2019-12-11 11:20:42,27.70799,85.32082666666666,14.4,2.7364721553935385,"Kamaladi Marg, Kathmandu, Kathmandu 46000, Nepal",27.707971,85.320809,,,Kamaladi Marg,46000,,,Kathmandu,Kathmandu,Three,Nepal,np,© OpenStreetMap contributors,Open Database License,https://www.openstreetmap.org/copyright
54208456,1152,2019-12-11 11:21:12,27.708213333333333,85.31994833333333,6.86,24.398490221782676,"Prabhu Bank, Kathmandu Metropolitan City, Kathmandu 46000, Nepal",27.708171749999998,85.319704983467,Prabhu Bank,,,46000,Kathmandu-28,,Kathmandu Metropolitan City,Kathmandu,Bagmati Province,Nepal,np,© OpenStreetMap contributors,Open Database License,https://www.openstreetmap.org/copyright
54208976,1152,2019-12-11 11:21:42,27.70966333333333,85.32006833333334,11.15,17.100742145335815,"Bank of Kathmandu, Pragya Marg, Baghbazar, Kathmandu 66400, Nepal",27.7097885,85.3199674,Bank of Kathmandu,,Pragya Marg,66400,Kathmandu-01,Baghbazar,Kathmandu,Kathmandu,Bagmati Province,Nepal,np,© OpenStreetMap contributors,Open Database License,https://www.openstreetmap.org/copyright
54271180,1152,2019-12-11 12:20:16,27.710138333333333,85.33291333333334,13.76,7.625483542322174,"German Embassy, Gyaneshwar Marg, Maitidevi, Kathmandu 00975, Nepal",27.709540949999997,85.33348460677628,German Embassy,,Gyaneshwar Marg,00975,Kathmandu-30,Maitidevi,Kathmandu,Kathmandu,Bagmati Province,Nepal,np,© OpenStreetMap contributors,Open Database License,https://www.openstreetmap.org/copyright
54271709,1152,2019-12-11 12:20:46,27.70865833333333,85.33228166666666,11.32,8.78743062828925,"KitabKalam Stationery Mart, Pashupati Sadak, Maitidevi, Kathmandu 44600, Nepal",27.7086005,85.3323425,KitabKalam Stationery Mart,,Pashupati Sadak,44600,Kathmandu-30,Maitidevi,Kathmandu,Kathmandu,Bagmati Province,Nepal,np,© OpenStreetMap contributors,Open Database License,https://www.openstreetmap.org/copyright
54272215,1152,2019-12-11 12:21:16,27.708265,85.33376166666666,6.51,5.150319658746409,"CLPIU, Ministry of Education, Pashupati Marga, Maitidevi, Kathmandu 44605, Nepal",27.70823,85.3337274,"CLPIU, Ministry of Education",,Pashupati Marga,44605,Kathmandu-30,Maitidevi,Kathmandu,Kathmandu,Bagmati Province,Nepal,np,© OpenStreetMap contributors,Open Database License,https://www.openstreetmap.org/copyright
54272736,1152,2019-12-11 12:21:46,27.70818166666667,85.33527166666667,4.72,8.293526809503568,"Welcare Hospital and Research Centre, Pashupati Sadak, Maitidevi, Kathmandu 44605, Nepal",27.70797695,85.33527921821374,Welcare Hospital and Research Centre,,Pashupati Sadak,44605,Kathmandu-30,Maitidevi,Kathmandu,Kathmandu,Bagmati Province,Nepal,np,© OpenStreetMap contributors,Open Database License,https://www.openstreetmap.org/copyright
54274267,1152,2019-12-11 12:23:15,27.708145,85.336095,2.93,6.265613705499445,"Butwal cosmetic, Pashupati Sadak, Maitidevi, Kathmandu 44605, Nepal",27.7082005,85.336084,Butwal cosmetic,,Pashupati Sadak,44605,Kathmandu-30,Maitidevi,Kathmandu,Kathmandu,Bagmati Province,Nepal,np,© OpenStreetMap contributors,Open Database License,https://www.openstreetmap.org/copyright
54274777,1152,2019-12-11 12:23:45,27.708135,85.33646833333333,1.84,5.876498530452451,"Ratopul, Kathmandu, Kathmandu 00975, Nepal",27.708085,85.336449,Ratopul,,,00975,,,Kathmandu,Kathmandu,Three,Nepal,np,© OpenStreetMap contributors,Open Database License,https://www.openstreetmap.org/copyright
54275300,1152,2019-12-11 12:24:16,27.708106666666666,85.33674166666667,0.71,1.8848650107749945,"Maitidevi, Kathmandu 44660, Nepal",27.7078461,85.3366654,,,,44660,Kathmandu-30,Maitidevi,Kathmandu,Kathmandu,Bagmati Province,Nepal,np,© OpenStreetMap contributors,Open Database License,https://www.openstreetmap.org/copyright
54275784,1152,2019-12-11 12:24:44,27.708045,85.33726,5.89,1.2103993177503007,"Ratopul Marg, Chabahil, Kathmandu 44660, Nepal",27.7080579,85.3371963,Ratopul Marg,,Ratopul Marg,44660,Kathmandu-07,Chabahil,Kathmandu,Kathmandu,Bagmati Province,Nepal,np,© OpenStreetMap contributors,Open Database License,https://www.openstreetmap.org/copyright
54276292,1152,2019-12-11 12:25:14,27.707986666666667,85.33902666666667,19.21,14.071386639055197,"Wigan & Leigh College, Pashupati Sadak, Chabahil, Kathmandu 44660, Nepal",27.70814345,85.33914129437514,Wigan & Leigh College,,Pashupati Sadak,44660,Kathmandu-07,Chabahil,Kathmandu,Kathmandu,Bagmati Province,Nepal,np,© OpenStreetMap contributors,Open Database License,https://www.openstreetmap.org/copyright
54388196,1152,2019-12-11 14:16:26,27.68785833333333,85.336685,1.97,1.8945954808966505,"Minbhawan, Kathmandu 44617, Nepal",27.6880487,85.3359171,,,,44617,Kathmandu-31,Minbhawan,Kathmandu,Kathmandu,Bagmati Province,Nepal,np,© OpenStreetMap contributors,Open Database License,https://www.openstreetmap.org/copyright
54388693,1152,2019-12-11 14:16:56,27.68780333333333,85.33662,0.14,9.342607718689926,"Minbhawan, Kathmandu 44617, Nepal",27.6880487,85.3359171,,,,44617,Kathmandu-31,Minbhawan,Kathmandu,Kathmandu,Bagmati Province,Nepal,np,© OpenStreetMap contributors,Open Database License,https://www.openstreetmap.org/copyright
54389164,1152,2019-12-11 14:17:26,27.687891666666665,85.33665,0.06,0.8986618225231573,"Minbhawan, Kathmandu 44617, Nepal",27.6880487,85.3359171,,,,44617,Kathmandu-31,Minbhawan,Kathmandu,Kathmandu,Bagmati Province,Nepal,np,© OpenStreetMap contributors,Open Database License,https://www.openstreetmap.org/copyright
54389642,1152,2019-12-11 14:17:55,27.68791,85.33666,0.09,3.1114891418859014,"Minbhawan, Kathmandu 44617, Nepal",27.6880487,85.3359171,,,,44617,Kathmandu-31,Minbhawan,Kathmandu,Kathmandu,Bagmati Province,Nepal,np,© OpenStreetMap contributors,Open Database License,https://www.openstreetmap.org/copyright
54390282,1152,2019-12-11 14:18:33,27.68790333333333,85.336645,0.05,2.043990231680723,"Minbhawan, Kathmandu 44617, Nepal",27.6880487,85.3359171,,,,44617,Kathmandu-31,Minbhawan,Kathmandu,Kathmandu,Bagmati Province,Nepal,np,© OpenStreetMap contributors,Open Database License,https://www.openstreetmap.org/copyright
54390666,1152,2019-12-11 14:18:55,27.687875,85.33667333333334,0.11,0.3630451462504713,"Minbhawan, Kathmandu 44617, Nepal",27.6880487,85.3359171,,,,44617,Kathmandu-31,Minbhawan,Kathmandu,Kathmandu,Bagmati Province,Nepal,np,© OpenStreetMap contributors,Open Database License,https://www.openstreetmap.org/copyright
54391185,1152,2019-12-11 14:19:25,27.687916666666663,85.336685,0.17,4.410282351226258,"Minbhawan, Kathmandu 44617, Nepal",27.6880487,85.3359171,,,,44617,Kathmandu-31,Minbhawan,Kathmandu,Kathmandu,Bagmati Province,Nepal,np,© OpenStreetMap contributors,Open Database License,https://www.openstreetmap.org/copyright
54391692,1152,2019-12-11 14:19:55,27.687886666666667,85.33665333333333,3.98,0.43534182324701337,"Minbhawan, Kathmandu 44617, Nepal",27.6880487,85.3359171,,,,44617,Kathmandu-31,Minbhawan,Kathmandu,Kathmandu,Bagmati Province,Nepal,np,© OpenStreetMap contributors,Open Database License,https://www.openstreetmap.org/copyright
54392175,1152,2019-12-11 14:20:24,27.687998333333333,85.33551,5.97,5.63290526468007,"Provident Merchant Banking Limited प्रोभिडेन्ट मर्चेन्ट बैंकिङ्ग लिमिटेड, Sankhamul Marg 31, Shankhamul, Kathmandu 44617, Nepal",27.6879494,85.3355248,Provident Merchant Banking Limited प्रोभिडेन्ट मर्चेन्ट बैंकिङ्ग लिमिटेड,31,Sankhamul Marg,44617,Kathmandu-10,Shankhamul,Kathmandu,Kathmandu,Bagmati Province,Nepal,np,© OpenStreetMap contributors,Open Database License,https://www.openstreetmap.org/copyright
54401332,1152,2019-12-11 14:29:50,27.68771333333333,85.33524333333334,9.46,38.155625441858184,"Provident Merchant Banking Limited प्रोभिडेन्ट मर्चेन्ट बैंकिङ्ग लिमिटेड, Sankhamul Marg 31, Kathmandu, Kathmandu 44617, Nepal",27.687949,85.335525,Provident Merchant Banking Limited प्रोभिडेन्ट मर्चेन्ट बैंकिङ्ग लिमिटेड,31,Sankhamul Marg,44617,,,Kathmandu,Kathmandu,Three,Nepal,np,© OpenStreetMap contributors,Open Database License,https://www.openstreetmap.org/copyright
54401819,1152,2019-12-11 14:30:20,27.68801,85.33665666666667,18.45,3.3758031570638893,"Madan Bhandari Path, Minbhawan, Kathmandu 44617, Nepal",27.6879663,85.3369901,Madan Bhandari Path,,Madan Bhandari Path,44617,Kathmandu-31,Minbhawan,Kathmandu,Kathmandu,Bagmati Province,Nepal,np,© OpenStreetMap contributors,Open Database License,https://www.openstreetmap.org/copyright
58496943,1152,2019-12-14 08:50:25,27.687951666666667,85.33545333333333,0.14,3.9989056012415043,"New Baneshwar Department Store, Sankhamul Marg, Shankhamul, Kathmandu 44617, Nepal",27.687884150000002,85.33556535139367,New Baneshwar Department Store,,Sankhamul Marg,44617,Kathmandu-31,Shankhamul,Kathmandu,Kathmandu,Bagmati Province,Nepal,np,© OpenStreetMap contributors,Open Database License,https://www.openstreetmap.org/copyright
58497431,1152,2019-12-14 08:50:55,27.687975,85.33544833333333,0.09,8.049234142180085,"Provident Merchant Banking Limited प्रोभिडेन्ट मर्चेन्ट बैंकिङ्ग लिमिटेड, Sankhamul Marg 31, Shankhamul, Kathmandu 44617, Nepal",27.6879494,85.3355248,Provident Merchant Banking Limited प्रोभिडेन्ट मर्चेन्ट बैंकिङ्ग लिमिटेड,31,Sankhamul Marg,44617,Kathmandu-10,Shankhamul,Kathmandu,Kathmandu,Bagmati Province,Nepal,np,© OpenStreetMap contributors,Open Database License,https://www.openstreetmap.org/copyright
58497950,1152,2019-12-14 08:51:24,27.68799333333333,85.33545,0.01,4.488240238887903,"Shubham Polyclinic, Sankhamul Marg, Shankhamul, Kathmandu 44617, Nepal",27.68801105,85.3353677714527,Shubham Polyclinic,,Sankhamul Marg,44617,Kathmandu-10,Shankhamul,Kathmandu,Kathmandu,Bagmati Province,Nepal,np,© OpenStreetMap contributors,Open Database License,https://www.openstreetmap.org/copyright
58498444,1152,2019-12-14 08:51:54,27.68801333333333,85.33546166666666,0.09,9.443552059510651,"Provident Merchant Banking Limited प्रोभिडेन्ट मर्चेन्ट बैंकिङ्ग लिमिटेड, Sankhamul Marg 31, Shankhamul, Kathmandu 44617, Nepal",27.6879494,85.3355248,Provident Merchant Banking Limited प्रोभिडेन्ट मर्चेन्ट बैंकिङ्ग लिमिटेड,31,Sankhamul Marg,44617,Kathmandu-10,Shankhamul,Kathmandu,Kathmandu,Bagmati Province,Nepal,np,© OpenStreetMap contributors,Open Database License,https://www.openstreetmap.org/copyright
58498946,1152,2019-12-14 08:52:24,27.68801,85.33544666666667,0.18,3.8811497079503705,"Shubham Polyclinic, Sankhamul Marg, Shankhamul, Kathmandu 44617, Nepal",27.68801105,85.3353677714527,Shubham Polyclinic,,Sankhamul Marg,44617,Kathmandu-10,Shankhamul,Kathmandu,Kathmandu,Bagmati Province,Nepal,np,© OpenStreetMap contributors,Open Database License,https://www.openstreetmap.org/copyright
58499459,1152,2019-12-14 08:52:54,27.6882,85.33555,0.5,5.975025085075989,"पुरानो बानेश्वर सडक, Kathmandu, Kathmandu 44617, Nepal",27.688253,85.33554,,,पुरानो बानेश्वर सडक,44617,,,Kathmandu,Kathmandu,Three,Nepal,np,© OpenStreetMap contributors,Open Database License,https://www.openstreetmap.org/copyright
58499962,1152,2019-12-14 08:53:23,27.687818333333333,85.33762,19.91,0.4216647778411573,"Madan Bhandari Path, Minbhawan, Kathmandu 44617, Nepal",27.6879663,85.3369901,Madan Bhandari Path,,Madan Bhandari Path,44617,Kathmandu-31,Minbhawan,Kathmandu,Kathmandu,Bagmati Province,Nepal,np,© OpenStreetMap contributors,Open Database License,https://www.openstreetmap.org/copyright
58849421,1152,2019-12-14 14:34:56,27.690045,85.33923833333333,9.89,2.5722100584531375,"Central Cooperative Training Center, Kali Marg, Naya Baneshwar, Kathmandu 44703, Nepal",27.690259599999997,85.33986380847035,Central Cooperative Training Center,,Kali Marg,44703,Kathmandu-31,Naya Baneshwar,Kathmandu,Kathmandu,Bagmati Province,Nepal,np,© OpenStreetMap contributors,Open Database License,https://www.openstreetmap.org/copyright
58849970,1152,2019-12-14 14:35:26,27.69056833333333,85.33887833333333,7.62,39.25614294576293,"Fsquare Innomotive Cafe, Sri Ekata Marg 31, Naya Baneshwar, Kathmandu 44703, Nepal",27.6909208,85.33885565,Fsquare Innomotive Cafe,31,Sri Ekata Marg,44703,Kathmandu-31,Naya Baneshwar,Kathmandu,Kathmandu,Bagmati Province,Nepal,np,© OpenStreetMap contributors,Open Database License,https://www.openstreetmap.org/copyright
58850518,1152,2019-12-14 14:35:56,27.690835,85.33722,4.35,14.57650349967569,"Sai Shankar Dental Clinic, Bibhuti Janak Marg, Naya Baneshwar, Kathmandu 44617, Nepal",27.6909051,85.3373451,Sai Shankar Dental Clinic,,Bibhuti Janak Marg,44617,Kathmandu-31,Naya Baneshwar,Kathmandu,Kathmandu,Bagmati Province,Nepal,np,© OpenStreetMap contributors,Open Database License,https://www.openstreetmap.org/copyright
58851035,1152,2019-12-14 14:36:25,27.69132833333333,85.33741166666667,3.46,51.368031967537476,"Lumbini Bank Limited, Bibhuti Janak Marg, Naya Baneshwar, Kathmandu 44617, Nepal",27.690875300000002,85.33751375114822,Lumbini Bank Limited,,Bibhuti Janak Marg,44617,Kathmandu-31,Naya Baneshwar,Kathmandu,Kathmandu,Bagmati Province,Nepal,np,© OpenStreetMap contributors,Open Database License,https://www.openstreetmap.org/copyright
58851539,1152,2019-12-14 14:36:55,27.69154333333333,85.33774666666666,0.42,13.719019294735704,"Har Din Bachat Finance, Jana Sahayogi Marga, Naya Baneshwar, Kathmandu 44703, Nepal",27.6915424,85.337886,Har Din Bachat Finance,,Jana Sahayogi Marga,44703,Kathmandu-31,Naya Baneshwar,Kathmandu,Kathmandu,Bagmati Province,Nepal,np,© OpenStreetMap contributors,Open Database License,https://www.openstreetmap.org/copyright
58852038,1152,2019-12-14 14:37:25,27.692171666666667,85.338,6.05,21.22305116062674,"Deurali Marg, Kathmandu, Kathmandu 00446, Nepal",27.692158,85.337785,,,Deurali Marg,00446,,,Kathmandu,Kathmandu,Three,Nepal,np,© OpenStreetMap contributors,Open Database License,https://www.openstreetmap.org/copyright
58852539,1152,2019-12-14 14:37:55,27.692743333333333,85.338345,7.07,13.342705169163287,"D&D girls hostel, Shree Panchakumari Marg, Naya Baneshwar, Kathmandu 44703, Nepal",27.69292155,85.33839817210924,D&D girls hostel,,Shree Panchakumari Marg,44703,Kathmandu-31,Naya Baneshwar,Kathmandu,Kathmandu,Bagmati Province,Nepal,np,© OpenStreetMap contributors,Open Database License,https://www.openstreetmap.org/copyright
58853031,1152,2019-12-14 14:38:25,27.693115,85.33991666666667,13.01,7.136720106398003,"CIST (Central Institute of Science and Technology), Shree Panchakumari Marg, Naya Baneshwar, Kathmandu 44703, Nepal",27.693362999999998,85.34005518340122,CIST (Central Institute of Science and Technology),,Shree Panchakumari Marg,44703,Kathmandu-31,Naya Baneshwar,Kathmandu,Kathmandu,Bagmati Province,Nepal,np,© OpenStreetMap contributors,Open Database License,https://www.openstreetmap.org/copyright
58929442,1152,2019-12-14 15:53:22,27.687876666666668,85.33684666666667,14.55,3.826195481333964,"Minbhawan, Kathmandu 44617, Nepal",27.6880487,85.3359171,,,,44617,Kathmandu-31,Minbhawan,Kathmandu,Kathmandu,Bagmati Province,Nepal,np,© OpenStreetMap contributors,Open Database License,https://www.openstreetmap.org/copyright
58929967,1152,2019-12-14 15:53:54,27.68833833333333,85.33482333333333,11.18,2.96949991383342,"New Baneshwar bus stop, Madan Bhandari Path, Buddha Nagar, Kathmandu 44617, Nepal",27.6883306,85.3348522,New Baneshwar bus stop,,Madan Bhandari Path,44617,Kathmandu-10,Buddha Nagar,Kathmandu,Kathmandu,Bagmati Province,Nepal,np,© OpenStreetMap contributors,Open Database License,https://www.openstreetmap.org/copyright
58930446,1152,2019-12-14 15:54:22,27.688571666666668,85.33354333333334,0.1,0.44451452978306405,"Minbhawan, Kathmandu 44617, Nepal",27.6880487,85.3359171,,,,44617,Kathmandu-31,Minbhawan,Kathmandu,Kathmandu,Bagmati Province,Nepal,np,© OpenStreetMap contributors,Open Database License,https://www.openstreetmap.org/copyright
58930955,1152,2019-12-14 15:54:52,27.688591666666667,85.333525,0.08,2.1731229977503723,"Minbhawan, Kathmandu 44617, Nepal",27.6880487,85.3359171,,,,44617,Kathmandu-31,Minbhawan,Kathmandu,Kathmandu,Bagmati Province,Nepal,np,© OpenStreetMap contributors,Open Database License,https://www.openstreetmap.org/copyright
58931455,1152,2019-12-14 15:55:21,27.688603333333333,85.33353,0.08,3.550422135131931,"Minbhawan, Kathmandu 44617, Nepal",27.6880487,85.3359171,,,,44617,Kathmandu-31,Minbhawan,Kathmandu,Kathmandu,Bagmati Province,Nepal,np,© OpenStreetMap contributors,Open Database License,https://www.openstreetmap.org/copyright
58932165,1152,2019-12-14 15:56:03,27.688581666666668,85.33352833333333,0.4,1.1716890598766494,"Minbhawan, Kathmandu 44617, Nepal",27.6880487,85.3359171,,,,44617,Kathmandu-31,Minbhawan,Kathmandu,Kathmandu,Bagmati Province,Nepal,np,© OpenStreetMap contributors,Open Database License,https://www.openstreetmap.org/copyright
58932493,1152,2019-12-14 15:56:22,27.688645,85.333275,12.52,2.055035769120082,"Minbhawan, Kathmandu 44617, Nepal",27.6880487,85.3359171,,,,44617,Kathmandu-31,Minbhawan,Kathmandu,Kathmandu,Bagmati Province,Nepal,np,© OpenStreetMap contributors,Open Database License,https://www.openstreetmap.org/copyright
58933048,1152,2019-12-14 15:56:54,27.688875,85.331205,11.56,30.384249921821695,"Kantipur Handicrafts, Shram Marg 340, Buddha Nagar, Kathmandu 44617, Nepal",27.6886091,85.3312761,Kantipur Handicrafts,340,Shram Marg,44617,Kathmandu-10,Buddha Nagar,Kathmandu,Kathmandu,Bagmati Province,Nepal,np,© OpenStreetMap contributors,Open Database License,https://www.openstreetmap.org/copyright
58933490,1152,2019-12-14 15:57:20,27.687955,85.33101666666667,4.2,8.697230445357215,"mandir, Kathmandu, Kathmandu 44617, Nepal",27.688011,85.330955,mandir,,,44617,,,Kathmandu,Kathmandu,Three,Nepal,np,© OpenStreetMap contributors,Open Database License,https://www.openstreetmap.org/copyright
59833433,1152,2019-12-15 06:21:12,27.708001666666668,85.33884333333333,6.16,13.482326509602071,"Burger Bites, Pashupati Sadak, Chabahil, Kathmandu 44660, Nepal",27.70814135,85.3387271,Burger Bites,,Pashupati Sadak,44660,Kathmandu-07,Chabahil,Kathmandu,Kathmandu,Bagmati Province,Nepal,np,© OpenStreetMap contributors,Open Database License,https://www.openstreetmap.org/copyright
59833434,1152,2019-12-15 06:21:12,27.707996666666663,85.337905,3.02,12.274841650140875,"Fruit Store, Kathmandu, Kathmandu 44660, Nepal",27.708107,85.337901,Fruit Store,,,44660,,,Kathmandu,Kathmandu,Three,Nepal,np,© OpenStreetMap contributors,Open Database License,https://www.openstreetmap.org/copyright
59833435,1152,2019-12-15 06:21:12,27.708033333333333,85.33725333333334,6.2,2.5302039082593586,"Ratopul Marg, Chabahil, Kathmandu 44660, Nepal",27.7080579,85.3371963,Ratopul Marg,,Ratopul Marg,44660,Kathmandu-07,Chabahil,Kathmandu,Kathmandu,Bagmati Province,Nepal,np,© OpenStreetMap contributors,Open Database License,https://www.openstreetmap.org/copyright
59833436,1152,2019-12-15 06:21:12,27.708105,85.33633166666667,10.83,11.762914557102567,"Ratopul, Kathmandu, Kathmandu 44605, Nepal",27.708085,85.336449,Ratopul,,,44605,,,Kathmandu,Kathmandu,Three,Nepal,np,© OpenStreetMap contributors,Open Database License,https://www.openstreetmap.org/copyright
59833438,1152,2019-12-15 06:21:12,27.70820833333333,85.334135,11.83,15.397405491305014,"Shanta Plaza, Pashupati Sadak, Maitidevi, Kathmandu 44605, Nepal",27.7080902,85.3342166,Shanta Plaza,,Pashupati Sadak,44605,Kathmandu-30,Maitidevi,Kathmandu,Kathmandu,Bagmati Province,Nepal,np,© OpenStreetMap contributors,Open Database License,https://www.openstreetmap.org/copyright
59833439,1152,2019-12-15 06:21:12,27.708411666666667,85.33273833333334,14.42,25.868601391560645,"Honda Showroom, Pashupati Marga, Maitidevi, Kathmandu 44605, Nepal",27.708598,85.332581,Honda Showroom,,Pashupati Marga,44605,Kathmandu-30,Maitidevi,Kathmandu,Kathmandu,Bagmati Province,Nepal,np,© OpenStreetMap contributors,Open Database License,https://www.openstreetmap.org/copyright
59833462,1152,2019-12-15 06:21:13,27.709186666666668,85.33227166666667,12.01,15.213039296111964,"International Centre for Academics, Kathmandu, Kathmandu 00975, Nepal",27.709242,85.332413,International Centre for Academics,,,00975,,,Kathmandu,Kathmandu,Three,Nepal,np,© OpenStreetMap contributors,Open Database License,https://www.openstreetmap.org/copyright
59833477,1152,2019-12-15 06:21:14,27.711095,85.33351333333333,17.44,31.270688043183956,"Bank of Kathmandu Ltd, Kathmandu, Kathmandu 00975, Nepal",27.711376,85.333526,Bank of Kathmandu Ltd,,,00975,,,Kathmandu,Kathmandu,Three,Nepal,np,© OpenStreetMap contributors,Open Database License,https://www.openstreetmap.org/copyright
60318260,1152,2019-12-15 13:39:31,27.70799,85.33785333333333,10.1,13.83022525078242,"Fruit Store, Kathmandu, Kathmandu 44660, Nepal",27.708107,85.337901,Fruit Store,,,44660,,,Kathmandu,Kathmandu,Three,Nepal,np,© OpenStreetMap contributors,Open Database License,https://www.openstreetmap.org/copyright
60318796,1152,2019-12-15 13:40:01,27.70896,85.33713833333333,17.27,48.60282494323161,"Rudra Mati Marg-2, Chabahil, Kathmandu 44660, Nepal",27.708542,85.336994,,,Rudra Mati Marg-2,44660,,Chabahil,Kathmandu,Kathmandu,Three,Nepal,np,© OpenStreetMap contributors,Open Database License,https://www.openstreetmap.org/copyright
60420019,1152,2019-12-15 15:15:20,27.70794666666667,85.33960833333333,15.12,9.101771162118647,"Baram and Basel Furniture Showroom, Pashupati Sadak, Chabahil, Kathmandu 44660, Nepal",27.7079999,85.3395381,Baram and Basel Furniture Showroom,,Pashupati Sadak,44660,Kathmandu-07,Chabahil,Kathmandu,Kathmandu,Bagmati Province,Nepal,np,© OpenStreetMap contributors,Open Database License,https://www.openstreetmap.org/copyright
60420566,1152,2019-12-15 15:15:50,27.70804,85.33724833333333,6.4,1.8068851878657868,"Ratopul Marg, Chabahil, Kathmandu 44660, Nepal",27.7080579,85.3371963,Ratopul Marg,,Ratopul Marg,44660,Kathmandu-07,Chabahil,Kathmandu,Kathmandu,Bagmati Province,Nepal,np,© OpenStreetMap contributors,Open Database License,https://www.openstreetmap.org/copyright
60421230,1152,2019-12-15 15:16:27,27.708175,85.33524666666666,16.6,7.296906183421448,"Welcare Hospital and Research Centre, Pashupati Sadak, Maitidevi, Kathmandu 44605, Nepal",27.70797695,85.33527921821374,Welcare Hospital and Research Centre,,Pashupati Sadak,44605,Kathmandu-30,Maitidevi,Kathmandu,Kathmandu,Bagmati Province,Nepal,np,© OpenStreetMap contributors,Open Database License,https://www.openstreetmap.org/copyright
60421620,1152,2019-12-15 15:16:49,27.708071666666665,85.33337666666667,7.46,30.219011256654944,"Subidha Travel, Pashupati Marga, Kathmandu, Kathmandu 44605, Nepal",27.708218,85.333118,Subidha Travel,,Pashupati Marga,44605,,,Kathmandu,Kathmandu,Three,Nepal,np,© OpenStreetMap contributors,Open Database License,https://www.openstreetmap.org/copyright
60422180,1152,2019-12-15 15:17:19,27.70624833333333,85.33377,8.01,10.014988709899837,"Maitidevi Sweet House, Kathmandu, Kathmandu 00446, Nepal",27.706168,85.333724,Maitidevi Sweet House,,,00446,,,Kathmandu,Kathmandu,Three,Nepal,np,© OpenStreetMap contributors,Open Database License,https://www.openstreetmap.org/copyright
60422791,1152,2019-12-15 15:17:52,27.7045,85.33297833333333,13.32,21.613677730923875,"Western Union Money Transfer, Maiti Devi marg, Maitidevi, Kathmandu 00446, Nepal",27.7046376,85.3331334,Western Union Money Transfer,,Maiti Devi marg,00446,Kathmandu-30,Maitidevi,Kathmandu,Kathmandu,Bagmati Province,Nepal,np,© OpenStreetMap contributors,Open Database License,https://www.openstreetmap.org/copyright
60423263,1152,2019-12-15 15:18:19,27.70432,85.33152833333334,19.9,10.249062140021099,"Khotange Khaja Ghar, Dillibazar Sadak, Dillibazar, Kathmandu 44605, Nepal",27.7043558,85.3314324,Khotange Khaja Ghar,,Dillibazar Sadak,44605,Kathmandu-30,Dillibazar,Kathmandu,Kathmandu,Bagmati Province,Nepal,np,© OpenStreetMap contributors,Open Database License,https://www.openstreetmap.org/copyright
60423814,1152,2019-12-15 15:18:48,27.704968333333333,85.32915166666666,2.67,15.8319455893234,"Radha Krishna Temple, Dillibazar Sadak, Dillibazar, Kathmandu 44605, Nepal",27.7048779,85.3290020480224,Radha Krishna Temple,,Dillibazar Sadak,44605,Kathmandu-29,Dillibazar,Kathmandu,Kathmandu,Bagmati Province,Nepal,np,© OpenStreetMap contributors,Open Database License,https://www.openstreetmap.org/copyright
60424338,1152,2019-12-15 15:19:18,27.70495,85.329115,0.19,11.700500979711316,"Radha Krishna Temple, Dillibazar Sadak, Dillibazar, Kathmandu 44605, Nepal",27.7048779,85.3290020480224,Radha Krishna Temple,,Dillibazar Sadak,44605,Kathmandu-29,Dillibazar,Kathmandu,Kathmandu,Bagmati Province,Nepal,np,© OpenStreetMap contributors,Open Database License,https://www.openstreetmap.org/copyright
60424859,1152,2019-12-15 15:19:48,27.70515333333333,85.32841666666667,10.82,11.847638304621626,"Destiny Educational Institute, Dillibazar Sadak 30, Dillibazar, Kathmandu 44600, Nepal",27.7051935,85.3283052,Destiny Educational Institute,30,Dillibazar Sadak,44600,Kathmandu-30,Dillibazar,Kathmandu,Kathmandu,Bagmati Province,Nepal,np,© OpenStreetMap contributors,Open Database License,https://www.openstreetmap.org/copyright
60425385,1152,2019-12-15 15:20:18,27.705315,85.326245,16.68,12.32626777811532,"Platinum Educational Consultancy, Dillibazar Sadak, Ghattekulo, Kathmandu 44605, Nepal",27.7054245,85.3262255,Platinum Educational Consultancy,,Dillibazar Sadak,44605,Kathmandu-30,Ghattekulo,Kathmandu,Kathmandu,Bagmati Province,Nepal,np,© OpenStreetMap contributors,Open Database License,https://www.openstreetmap.org/copyright
60425896,1152,2019-12-15 15:20:48,27.70560833333333,85.32354333333333,15.34,48.981740493303256,"Punya Mansion, Dilli Bazaar Road 33, Kathmandu, Kathmandu 00977, Nepal",27.705795,85.323994,Punya Mansion,33,Dilli Bazaar Road,00977,,,Kathmandu,Kathmandu,Three,Nepal,np,© OpenStreetMap contributors,Open Database License,https://www.openstreetmap.org/copyright
60426472,1152,2019-12-15 15:21:20,27.70658833333333,85.32285333333333,14.21,5.645816760415429,"Himalayan Fast Food And Syanko Katti Roll, Kathmandu, Kathmandu 46600, Nepal",27.706607,85.3228,Himalayan Fast Food And Syanko Katti Roll,,,46600,,,Kathmandu,Kathmandu,Three,Nepal,np,© OpenStreetMap contributors,Open Database License,https://www.openstreetmap.org/copyright
60426978,1152,2019-12-15 15:21:49,27.708686666666665,85.321915,19.24,1.4746042311560676,"Baghbazar, Kathmandu 46000, Nepal",27.708932,85.3219638,,,,46000,Kathmandu-28,Baghbazar,Kathmandu,Kathmandu,Bagmati Province,Nepal,np,© OpenStreetMap contributors,Open Database License,https://www.openstreetmap.org/copyright
60427468,1152,2019-12-15 15:22:17,27.710306666666668,85.322035,12.79,7.399485306399199,"Dragon, Hattisar Sadak, Narayan Chaur, Kathmandu 46000, Nepal",27.7103723,85.3220226,Dragon,,Hattisar Sadak,46000,Kathmandu-01,Narayan Chaur,Kathmandu,Kathmandu,Bagmati Province,Nepal,np,© OpenStreetMap contributors,Open Database License,https://www.openstreetmap.org/copyright
61733888,1152,2019-12-16 11:34:13,27.707951666666663,85.33999666666666,16.79,14.90424564900986,"S and S Meat Shop, Kathmandu, Kathmandu 44660, Nepal",27.708077,85.339943,S and S Meat Shop,,,44660,,,Kathmandu,Kathmandu,Three,Nepal,np,© OpenStreetMap contributors,Open Database License,https://www.openstreetmap.org/copyright
61734471,1152,2019-12-16 11:34:42,27.708016666666666,85.33792166666667,9.37,10.24859386573114,"Fruit Store, Kathmandu, Kathmandu 44660, Nepal",27.708107,85.337901,Fruit Store,,,44660,,,Kathmandu,Kathmandu,Three,Nepal,np,© OpenStreetMap contributors,Open Database License,https://www.openstreetmap.org/copyright
61735056,1152,2019-12-16 11:35:12,27.708058333333334,85.33690333333334,9.49,2.017048792488381,"Ratopul, Kathmandu, Kathmandu 44660, Nepal",27.708071,85.336918,,,Ratopul,44660,,,Kathmandu,Kathmandu,Three,Nepal,np,© OpenStreetMap contributors,Open Database License,https://www.openstreetmap.org/copyright
61735602,1152,2019-12-16 11:35:42,27.708626666666667,85.33683166666667,12.81,18.547656195472673,"Rudra Mati Marg-2, Kathmandu, Kathmandu 44660, Nepal",27.708542,85.336994,,,Rudra Mati Marg-2,44660,,,Kathmandu,Kathmandu,Three,Nepal,np,© OpenStreetMap contributors,Open Database License,https://www.openstreetmap.org/copyright
61736141,1152,2019-12-16 11:36:12,27.710373333333333,85.33714833333333,14.61,1.5283478687381946,"Rudra Mati Marg, Maitidevi, Kathmandu 00975, Nepal",27.7096953,85.3370232,Rudra Mati Marg,,Rudra Mati Marg,00975,Kathmandu-30,Maitidevi,Kathmandu,Kathmandu,Bagmati Province,Nepal,np,© OpenStreetMap contributors,Open Database License,https://www.openstreetmap.org/copyright
62877227,1152,2019-12-17 05:32:30,27.70799833333333,85.33867,16.79,10.425502597603877,"Burger Bites, Pashupati Sadak, Chabahil, Kathmandu 44660, Nepal",27.70814135,85.3387271,Burger Bites,,Pashupati Sadak,44660,Kathmandu-07,Chabahil,Kathmandu,Kathmandu,Bagmati Province,Nepal,np,© OpenStreetMap contributors,Open Database License,https://www.openstreetmap.org/copyright
62877764,1152,2019-12-17 05:32:59,27.708213333333333,85.33714166666667,8.66,4.81400826354386,"Rudra Mati Marg-2, Chabahil, Kathmandu 44660, Nepal",27.7098912,85.337262,Rudra Mati Marg-2,,Rudra Mati Marg-2,44660,Kathmandu-07,Chabahil,Kathmandu,Kathmandu,Bagmati Province,Nepal,np,© OpenStreetMap contributors,Open Database License,https://www.openstreetmap.org/copyright
62878309,1152,2019-12-17 05:33:29,27.709655,85.33723166666667,10.63,7.8143473852400644,"manju and anuska khaja ghar, Rudra Mati Marg-2, Chabahil, Kathmandu 44660, Nepal",27.7096384,85.3373088,manju and anuska khaja ghar,,Rudra Mati Marg-2,44660,Kathmandu-07,Chabahil,Kathmandu,Kathmandu,Bagmati Province,Nepal,np,© OpenStreetMap contributors,Open Database License,https://www.openstreetmap.org/copyright
62991127,1152,2019-12-17 07:16:45,27.693141666666666,85.33958833333334,8.17,14.086747635100913,"rastriya taal samrakshyan bikash samiti, Shree Panchakumari Marg, Naya Baneshwar, Kathmandu 44703, Nepal",27.6931792,85.33973193981481,rastriya taal samrakshyan bikash samiti,,Shree Panchakumari Marg,44703,Kathmandu-31,Naya Baneshwar,Kathmandu,Kathmandu,Bagmati Province,Nepal,np,© OpenStreetMap contributors,Open Database License,https://www.openstreetmap.org/copyright
62991652,1152,2019-12-17 07:17:15,27.69279333333333,85.33845,3.15,3.0201982558887073,"Shree Panchakumari Marg, Kathmandu, Kathmandu 44703, Nepal",27.692799,85.33848,,,Shree Panchakumari Marg,44703,,,Kathmandu,Kathmandu,Three,Nepal,np,© OpenStreetMap contributors,Open Database License,https://www.openstreetmap.org/copyright
62992188,1152,2019-12-17 07:17:45,27.692126666666667,85.338065,3.4,22.285264602940092,"Lalitpur community park, Naya Baneshwar, Kathmandu 44703, Nepal",27.6919711,85.3382077,Lalitpur community park,,,44703,Kathmandu-31,Naya Baneshwar,Kathmandu,Kathmandu,Bagmati Province,Nepal,np,© OpenStreetMap contributors,Open Database License,https://www.openstreetmap.org/copyright
62992713,1152,2019-12-17 07:18:15,27.69175333333333,85.33794833333333,0.25,12.969334428435587,"Jana Sahayogi Marga, Kathmandu, Kathmandu 44703, Nepal",27.691681,85.337845,,,Jana Sahayogi Marga,44703,,,Kathmandu,Kathmandu,Three,Nepal,np,© OpenStreetMap contributors,Open Database License,https://www.openstreetmap.org/copyright
62993269,1152,2019-12-17 07:18:44,27.69149833333333,85.337505,2.87,37.82583749743613,"Har Din Bachat Finance, Kathmandu, Kathmandu 44703, Nepal",27.691542,85.337886,Har Din Bachat Finance,,,44703,,,Kathmandu,Kathmandu,Three,Nepal,np,© OpenStreetMap contributors,Open Database License,https://www.openstreetmap.org/copyright
62993808,1152,2019-12-17 07:19:14,27.691085,85.33723166666667,5.61,28.429263201977818,"Samaj Dental Care, Kathmandu, Kathmandu 44617, Nepal",27.690893,85.337041,Samaj Dental Care,,,44617,,,Kathmandu,Kathmandu,Three,Nepal,np,© OpenStreetMap contributors,Open Database License,https://www.openstreetmap.org/copyright
62994348,1152,2019-12-17 07:19:44,27.690925,85.336315,4.49,18.282376126521374,"Samaj Dental Care, Bibhuti Janak Marg, Naya Baneshwar, Kathmandu 44617, Nepal",27.69108735,85.3365396759082,Samaj Dental Care,,Bibhuti Janak Marg,44617,Kathmandu-31,Naya Baneshwar,Kathmandu,Kathmandu,Bagmati Province,Nepal,np,© OpenStreetMap contributors,Open Database License,https://www.openstreetmap.org/copyright
62994977,1152,2019-12-17 07:20:19,27.689351666666667,85.33583666666667,21.91,21.993154542815702,"kailash bikas bank, Naya Baneshwar Sadak, Buddha Nagar, Kathmandu 44617, Nepal",27.6893526,85.3356133,kailash bikas bank,,Naya Baneshwar Sadak,44617,Kathmandu-10,Buddha Nagar,Kathmandu,Kathmandu,Bagmati Province,Nepal,np,© OpenStreetMap contributors,Open Database License,https://www.openstreetmap.org/copyright
62995439,1152,2019-12-17 07:20:44,27.688648333333333,85.3357,0.15,22.51674560009828,"Binayak aankha clinic, Kathmandu, Kathmandu 44617, Nepal",27.688664,85.335472,Binayak aankha clinic,,,44617,,,Kathmandu,Kathmandu,Three,Nepal,np,© OpenStreetMap contributors,Open Database License,https://www.openstreetmap.org/copyright
62995980,1152,2019-12-17 07:21:13,27.688591666666667,85.33566666666667,0.05,20.786375367826988,"Binayak aankha clinic, Kathmandu, Kathmandu 44617, Nepal",27.688664,85.335472,Binayak aankha clinic,,,44617,,,Kathmandu,Kathmandu,Three,Nepal,np,© OpenStreetMap contributors,Open Database License,https://www.openstreetmap.org/copyright
62996509,1152,2019-12-17 07:21:43,27.688595,85.335695,0.12,23.258856792539614,"Binayak aankha clinic, Kathmandu, Kathmandu 44617, Nepal",27.688664,85.335472,Binayak aankha clinic,,,44617,,,Kathmandu,Kathmandu,Three,Nepal,np,© OpenStreetMap contributors,Open Database License,https://www.openstreetmap.org/copyright
62997049,1152,2019-12-17 07:22:13,27.68857,85.33571,0.2,25.18462764179613,"Naya Baneshwar Sadak, Kathmandu, Kathmandu 44617, Nepal",27.688376,85.335578,,,Naya Baneshwar Sadak,44617,,,Kathmandu,Kathmandu,Three,Nepal,np,© OpenStreetMap contributors,Open Database License,https://www.openstreetmap.org/copyright
62997602,1152,2019-12-17 07:22:43,27.68852,85.33568166666667,2.67,18.988791847228832,"Naya Baneshwar Sadak, Kathmandu, Kathmandu 44617, Nepal",27.688376,85.335578,,,Naya Baneshwar Sadak,44617,,,Kathmandu,Kathmandu,Three,Nepal,np,© OpenStreetMap contributors,Open Database License,https://www.openstreetmap.org/copyright
63093413,1152,2019-12-17 08:51:05,27.687715,85.33538166666666,1.47,5.8248489045458,"NBDS parking, Sankhamul Marg, Shankhamul, Kathmandu 44617, Nepal",27.687537900000002,85.33554728979037,NBDS parking,,Sankhamul Marg,44617,Kathmandu-31,Shankhamul,Kathmandu,Kathmandu,Bagmati Province,Nepal,np,© OpenStreetMap contributors,Open Database License,https://www.openstreetmap.org/copyright
63093955,1152,2019-12-17 08:51:35,27.687776666666668,85.33538833333333,0.13,23.415464282735684,"Provident Merchant Banking Limited प्रोभिडेन्ट मर्चेन्ट बैंकिङ्ग लिमिटेड, Sankhamul Marg 31, Kathmandu, Kathmandu 44617, Nepal",27.687949,85.335525,Provident Merchant Banking Limited प्रोभिडेन्ट मर्चेन्ट बैंकिङ्ग लिमिटेड,31,Sankhamul Marg,44617,,,Kathmandu,Kathmandu,Three,Nepal,np,© OpenStreetMap contributors,Open Database License,https://www.openstreetmap.org/copyright
63094489,1152,2019-12-17 08:52:05,27.687775,85.33535666666667,0.08,25.47659538353891,"Provident Merchant Banking Limited प्रोभिडेन्ट मर्चेन्ट बैंकिङ्ग लिमिटेड, Sankhamul Marg 31, Kathmandu, Kathmandu 44617, Nepal",27.687949,85.335525,Provident Merchant Banking Limited प्रोभिडेन्ट मर्चेन्ट बैंकिङ्ग लिमिटेड,31,Sankhamul Marg,44617,,,Kathmandu,Kathmandu,Three,Nepal,np,© OpenStreetMap contributors,Open Database License,https://www.openstreetmap.org/copyright
63095043,1152,2019-12-17 08:52:35,27.687786666666668,85.33535833333333,0.44,24.39523751817707,"Provident Merchant Banking Limited प्रोभिडेन्ट मर्चेन्ट बैंकिङ्ग लिमिटेड, Sankhamul Marg 31, Kathmandu, Kathmandu 44617, Nepal",27.687949,85.335525,Provident Merchant Banking Limited प्रोभिडेन्ट मर्चेन्ट बैंकिङ्ग लिमिटेड,31,Sankhamul Marg,44617,,,Kathmandu,Kathmandu,Three,Nepal,np,© OpenStreetMap contributors,Open Database License,https://www.openstreetmap.org/copyright
63095614,1152,2019-12-17 08:53:22,27.688098333333333,85.33654333333334,19.62,3.395703985100668,"Madan Bhandari Path, Minbhawan, Kathmandu 44617, Nepal",27.6879663,85.3369901,Madan Bhandari Path,,Madan Bhandari Path,44617,Kathmandu-31,Minbhawan,Kathmandu,Kathmandu,Bagmati Province,Nepal,np,© OpenStreetMap contributors,Open Database License,https://www.openstreetmap.org/copyright
63132164,1152,2019-12-17 09:26:58,27.708021666666667,85.33813833333333,16.78,7.079435189556704,"Nice Tailor, Pashupati Sadak, Chabahil, Kathmandu 44660, Nepal",27.708124249999997,85.33812175,Nice Tailor,,Pashupati Sadak,44660,Kathmandu-07,Chabahil,Kathmandu,Kathmandu,Bagmati Province,Nepal,np,© OpenStreetMap contributors,Open Database License,https://www.openstreetmap.org/copyright
63132687,1152,2019-12-17 09:27:25,27.708123333333333,85.335905,16.79,9.297002321937178,"Samarpan electrical solution, Pashupati Sadak, Maitidevi, Kathmandu 44605, Nepal",27.7080748,85.3359819,Samarpan electrical solution,,Pashupati Sadak,44605,Kathmandu-30,Maitidevi,Kathmandu,Kathmandu,Bagmati Province,Nepal,np,© OpenStreetMap contributors,Open Database License,https://www.openstreetmap.org/copyright
63133182,1152,2019-12-17 09:27:49,27.708246666666668,85.33320333333333,15.38,8.98499001792543,"Subidha Travel, Pashupati Marga, Kathmandu, Kathmandu 44605, Nepal",27.708218,85.333118,Subidha Travel,,Pashupati Marga,44605,,,Kathmandu,Kathmandu,Three,Nepal,np,© OpenStreetMap contributors,Open Database License,https://www.openstreetmap.org/copyright
63133758,1152,2019-12-17 09:28:19,27.708831666666665,85.33096333333333,16.26,13.893586727640791,"Crush Candy Hotel, Pashupati Sadak, Maitidevi, Kathmandu 44605, Nepal",27.7087082,85.330985,Crush Candy Hotel,,Pashupati Sadak,44605,Kathmandu-30,Maitidevi,Kathmandu,Kathmandu,Bagmati Province,Nepal,np,© OpenStreetMap contributors,Open Database License,https://www.openstreetmap.org/copyright
63134469,1152,2019-12-17 09:28:55,27.709295,85.32880166666666,18.12,2.7287930803419758,"Yuna and Abhi Fashion Collection, Pashupati Marga, Kathmandu, Kathmandu 44600, Nepal",27.709318,85.328792,Yuna and Abhi Fashion Collection,,Pashupati Marga,44600,,,Kathmandu,Kathmandu,Three,Nepal,np,© OpenStreetMap contributors,Open Database License,https://www.openstreetmap.org/copyright
63134903,1152,2019-12-17 09:29:19,27.709486666666667,85.32798833333334,0.63,15.319571605769971,"prime bank, Pashupati Sadak, Maitidevi, Kathmandu 44605, Nepal",27.7095641,85.32815891197183,prime bank,,Pashupati Sadak,44605,Kathmandu-30,Maitidevi,Kathmandu,Kathmandu,Bagmati Province,Nepal,np,© OpenStreetMap contributors,Open Database License,https://www.openstreetmap.org/copyright
63135444,1152,2019-12-17 09:29:48,27.70982833333333,85.32647333333334,11.05,21.028442282002963,"Mazda, Pashupati Sadak, Narayan Chaur, Kathmandu 44605, Nepal",27.7098322,85.3266869,Mazda,,Pashupati Sadak,44605,Kathmandu-01,Narayan Chaur,Kathmandu,Kathmandu,Bagmati Province,Nepal,np,© OpenStreetMap contributors,Open Database License,https://www.openstreetmap.org/copyright
63136019,1152,2019-12-17 09:30:18,27.710086666666665,85.32607,6.66,44.74316841028743,"Sandar MoMo, Pashupati Sadak P85G+X8C, Kathmandu, Kathmandu 44600, Nepal",27.709913,85.32566,Sandar MoMo,P85G+X8C,Pashupati Sadak,44600,,,Kathmandu,Kathmandu,Three,Nepal,np,© OpenStreetMap contributors,Open Database License,https://www.openstreetmap.org/copyright
64354627,1152,2019-12-18 05:00:15,27.702531666666665,85.33713,0.55,13.629841202585984,"Baburam Acharya Marg, Kathmandu, Kathmandu 44703, Nepal",27.702514,85.337267,,,Baburam Acharya Marg,44703,,,Kathmandu,Kathmandu,Three,Nepal,np,© OpenStreetMap contributors,Open Database License,https://www.openstreetmap.org/copyright
64355160,1152,2019-12-18 05:00:45,27.702546666666667,85.33714666666667,0.28,12.391074309833613,"Baburam Acharya Marg, Kathmandu, Kathmandu 44703, Nepal",27.702514,85.337267,,,Baburam Acharya Marg,44703,,,Kathmandu,Kathmandu,Three,Nepal,np,© OpenStreetMap contributors,Open Database License,https://www.openstreetmap.org/copyright
64355727,1152,2019-12-18 05:01:15,27.702576666666666,85.33713666666667,0.1,14.601229419644694,"Baburam Acharya Marg, Kathmandu, Kathmandu 44703, Nepal",27.702514,85.337267,,,Baburam Acharya Marg,44703,,,Kathmandu,Kathmandu,Three,Nepal,np,© OpenStreetMap contributors,Open Database License,https://www.openstreetmap.org/copyright
64356250,1152,2019-12-18 05:01:45,27.70255333333333,85.33712833333334,0.08,14.335115763413564,"Baburam Acharya Marg, Kathmandu, Kathmandu 44703, Nepal",27.702514,85.337267,,,Baburam Acharya Marg,44703,,,Kathmandu,Kathmandu,Three,Nepal,np,© OpenStreetMap contributors,Open Database License,https://www.openstreetmap.org/copyright
64356777,1152,2019-12-18 05:02:14,27.702581666666667,85.33714166666667,0.41,14.452108019751197,"Baburam Acharya Marg, Kathmandu, Kathmandu 44703, Nepal",27.702514,85.337267,,,Baburam Acharya Marg,44703,,,Kathmandu,Kathmandu,Three,Nepal,np,© OpenStreetMap contributors,Open Database License,https://www.openstreetmap.org/copyright
64357299,1152,2019-12-18 05:02:44,27.70256833333333,85.33714333333333,0.44,13.591486312819411,"Baburam Acharya Marg, Kathmandu, Kathmandu 44703, Nepal",27.702514,85.337267,,,Baburam Acharya Marg,44703,,,Kathmandu,Kathmandu,Three,Nepal,np,© OpenStreetMap contributors,Open Database License,https://www.openstreetmap.org/copyright
64357823,1152,2019-12-18 05:03:14,27.70257,85.33712333333334,0.12,15.453908396607064,"Baburam Acharya Marg, Kathmandu, Kathmandu 44703, Nepal",27.702514,85.337267,,,Baburam Acharya Marg,44703,,,Kathmandu,Kathmandu,Three,Nepal,np,© OpenStreetMap contributors,Open Database License,https://www.openstreetmap.org/copyright
64358345,1152,2019-12-18 05:03:43,27.702555,85.33713833333333,0.24,13.462556429152663,"Baburam Acharya Marg, Kathmandu, Kathmandu 44703, Nepal",27.702514,85.337267,,,Baburam Acharya Marg,44703,,,Kathmandu,Kathmandu,Three,Nepal,np,© OpenStreetMap contributors,Open Database License,https://www.openstreetmap.org/copyright
64358874,1152,2019-12-18 05:04:13,27.702591666666667,85.33703166666666,5.72,24.725612390225383,"Baburam Acharya Marg, Kathmandu, Kathmandu 44703, Nepal",27.702514,85.337267,,,Baburam Acharya Marg,44703,,,Kathmandu,Kathmandu,Three,Nepal,np,© OpenStreetMap contributors,Open Database License,https://www.openstreetmap.org/copyright
64359422,1152,2019-12-18 05:04:43,27.702396666666665,85.33606,16.51,5.9921076685175425,"Ghattekulo, Kathmandu 00446, Nepal",27.7005346,85.3345147,,,,00446,Kathmandu-29,Ghattekulo,Kathmandu,Kathmandu,Bagmati Province,Nepal,np,© OpenStreetMap contributors,Open Database License,https://www.openstreetmap.org/copyright
64359959,1152,2019-12-18 05:05:13,27.700536666666668,85.33452666666666,18.03,0.685237109904092,"Ghattekulo, Kathmandu 00446, Nepal",27.7005346,85.3345147,,,,00446,Kathmandu-29,Ghattekulo,Kathmandu,Kathmandu,Bagmati Province,Nepal,np,© OpenStreetMap contributors,Open Database License,https://www.openstreetmap.org/copyright
64360487,1152,2019-12-18 05:05:43,27.69972333333333,85.33254166666667,12.17,2.4895852355452908,"Ghattekulo, Kathmandu 00446, Nepal",27.7005346,85.3345147,,,,00446,Kathmandu-29,Ghattekulo,Kathmandu,Kathmandu,Bagmati Province,Nepal,np,© OpenStreetMap contributors,Open Database License,https://www.openstreetmap.org/copyright
64361018,1152,2019-12-18 05:06:12,27.699461666666668,85.33077333333334,13.83,3.088041669603927,"Ghattekulo, Kathmandu 00446, Nepal",27.6995534,85.3308393,,,,00446,Kathmandu-29,Ghattekulo,Kathmandu,Kathmandu,Bagmati Province,Nepal,np,© OpenStreetMap contributors,Open Database License,https://www.openstreetmap.org/copyright
64361584,1152,2019-12-18 05:06:42,27.698011666666662,85.331545,11.07,1.2319876811978794,"Baneshwar, Kathmandu 00446, Nepal",27.6982816,85.3319847,,,,00446,Kathmandu-10,Baneshwar,Kathmandu,Kathmandu,Bagmati Province,Nepal,np,© OpenStreetMap contributors,Open Database License,https://www.openstreetmap.org/copyright
64362136,1152,2019-12-18 05:07:12,27.696606666666668,85.33130833333334,9.32,0.38824457390745815,"Baneshwar, Kathmandu 00446, Nepal",27.6980928,85.3312599,,,,00446,Kathmandu-10,Baneshwar,Kathmandu,Kathmandu,Bagmati Province,Nepal,np,© OpenStreetMap contributors,Open Database License,https://www.openstreetmap.org/copyright
64362679,1152,2019-12-18 05:07:42,27.69563833333333,85.330065,7.58,16.50225895603418,"Shanti Binayak Marg, Buddha Nagar, Kathmandu 00446, Nepal",27.695651,85.330232,,,Shanti Binayak Marg,00446,,Buddha Nagar,Kathmandu,Kathmandu,Three,Nepal,np,© OpenStreetMap contributors,Open Database License,https://www.openstreetmap.org/copyright
64363217,1152,2019-12-18 05:08:12,27.694765,85.32958333333333,12.9,0,"Madan Bhandari Memorial College, Shanti Binayak Marg, Ghattekulo, Kathmandu 00446, Nepal",27.69499705,85.32965207999435,Madan Bhandari Memorial College,,Shanti Binayak Marg,00446,Kathmandu-10,Ghattekulo,Kathmandu,Kathmandu,Bagmati Province,Nepal,np,© OpenStreetMap contributors,Open Database License,https://www.openstreetmap.org/copyright
64363740,1152,2019-12-18 05:08:41,27.69426333333333,85.32982,3.95,2.2819741291432534,"Buddha Nagar, Kathmandu 00446, Nepal",27.6942278,85.3299422,,,,00446,Kathmandu-10,Buddha Nagar,Kathmandu,Kathmandu,Bagmati Province,Nepal,np,© OpenStreetMap contributors,Open Database License,https://www.openstreetmap.org/copyright
64364294,1152,2019-12-18 05:09:11,27.693011666666667,85.32915666666666,4.04,5.554003231733255,"Ghattekulo, Kathmandu 00446, Nepal",27.6946161,85.3293153,,,,00446,Kathmandu-29,Ghattekulo,Kathmandu,Kathmandu,Bagmati Province,Nepal,np,© OpenStreetMap contributors,Open Database License,https://www.openstreetmap.org/copyright
64364841,1152,2019-12-18 05:09:41,27.692726666666665,85.32901666666666,4.3,4.6103421554383734,"Ghattekulo, Kathmandu 00446, Nepal",27.6946161,85.3293153,,,,00446,Kathmandu-29,Ghattekulo,Kathmandu,Kathmandu,Bagmati Province,Nepal,np,© OpenStreetMap contributors,Open Database License,https://www.openstreetmap.org/copyright
64365369,1152,2019-12-18 05:10:11,27.692435,85.32876333333333,4.55,55.59284762079308,"Bhat-Bhateni, Bhaktithapa Road Anamnagar, Kathmandu, Kathmandu 44617, Nepal",27.692843,85.328437,Bhat-Bhateni,Anamnagar,Bhaktithapa Road,44617,,,Kathmandu,Kathmandu,Three,Nepal,np,© OpenStreetMap contributors,Open Database License,https://www.openstreetmap.org/copyright
64365904,1152,2019-12-18 05:10:40,27.690751666666667,85.32805333333333,2.07,28.691128339920272,"NH34, Kathmandu, Kathmandu 44617, Nepal",27.690498,85.328,,,NH34,44617,,,Kathmandu,Kathmandu,Three,Nepal,np,© OpenStreetMap contributors,Open Database License,https://www.openstreetmap.org/copyright
64366479,1152,2019-12-18 05:11:11,27.691011666666668,85.326825,20.98,4.202004650930535,"Madan Bhandari Path, Kathmandu, Kathmandu 44617, Nepal",27.6916763,85.3255084,Madan Bhandari Path,,Madan Bhandari Path,44617,Kathmandu-11,,Kathmandu,Kathmandu,Bagmati Province,Nepal,np,© OpenStreetMap contributors,Open Database License,https://www.openstreetmap.org/copyright
64367220,1152,2019-12-18 05:11:53,27.692326666666663,85.32398333333333,12.47,19.461051674364366,"Babarmahal, Kathmandu, Kathmandu 44617, Nepal",27.692462,85.323858,Babarmahal,,,44617,,,Kathmandu,Kathmandu,Three,Nepal,np,© OpenStreetMap contributors,Open Database License,https://www.openstreetmap.org/copyright
64367546,1152,2019-12-18 05:12:10,27.691461666666665,85.323605,8.11,16.391531417768967,"Inland Revenue Office, Prasuti Griha Marg, Kathmandu, Kathmandu 44617, Nepal",27.691570249999998,85.32391484315536,Inland Revenue Office,,Prasuti Griha Marg,44617,Kathmandu-11,,Kathmandu,Kathmandu,Bagmati Province,Nepal,np,© OpenStreetMap contributors,Open Database License,https://www.openstreetmap.org/copyright
64368136,1152,2019-12-18 05:12:43,27.690483333333333,85.323625,9.15,27.68815707936596,"Sappros Nepal (Support Activities for Poor Producers of Nepal), Surya Marg 39 Kha, Kathmandu, Kathmandu 44617, Nepal",27.6904334,85.3239005,Sappros Nepal (Support Activities for Poor Producers of Nepal),39 Kha,Surya Marg,44617,Kathmandu-11,,Kathmandu,Kathmandu,Bagmati Province,Nepal,np,© OpenStreetMap contributors,Open Database License,https://www.openstreetmap.org/copyright
64368612,1152,2019-12-18 05:13:09,27.690015,85.32358166666667,1.84,5.1080069331774345,"Dibyam Photo Copy, Prasuti Griha Marg, Kathmandu, Kathmandu 44617, Nepal",27.690034,85.3236289,Dibyam Photo Copy,,Prasuti Griha Marg,44617,Kathmandu-11,,Kathmandu,Kathmandu,Bagmati Province,Nepal,np,© OpenStreetMap contributors,Open Database License,https://www.openstreetmap.org/copyright
64369187,1152,2019-12-18 05:13:39,27.690191666666667,85.32275833333334,3.67,3.432091117957208,"Thapathali, Kathmandu 44617, Nepal",27.6899895,85.3233835,,,,44617,Kathmandu-11,Thapathali,Kathmandu,Kathmandu,Bagmati Province,Nepal,np,© OpenStreetMap contributors,Open Database License,https://www.openstreetmap.org/copyright
64369732,1152,2019-12-18 05:14:09,27.690475,85.32123833333333,8.11,1.7530795913041908,"Thapathali, Kathmandu 00779, Nepal",27.6904556,85.3211778,,,,00779,Kathmandu-11,Thapathali,Kathmandu,Kathmandu,Bagmati Province,Nepal,np,© OpenStreetMap contributors,Open Database License,https://www.openstreetmap.org/copyright
64370263,1152,2019-12-18 05:14:39,27.689096666666668,85.32039,7.58,0.3291376976725262,"Thapathali, Kathmandu 00779, Nepal",27.6895494,85.3206416,,,,00779,Kathmandu-11,Thapathali,Kathmandu,Kathmandu,Bagmati Province,Nepal,np,© OpenStreetMap contributors,Open Database License,https://www.openstreetmap.org/copyright
64370794,1152,2019-12-18 05:15:09,27.68929333333333,85.31981999999999,0.34,23.92371783838636,"Norvic international centre for health evaluation, Prasuti Griha Marg, Thapathali, Kathmandu 00779, Nepal",27.6893068,85.3200625,Norvic international centre for health evaluation,,Prasuti Griha Marg,00779,Kathmandu-11,Thapathali,Kathmandu,Kathmandu,Bagmati Province,Nepal,np,© OpenStreetMap contributors,Open Database License,https://www.openstreetmap.org/copyright
64371317,1152,2019-12-18 05:15:38,27.68935,85.319675,1.9,21.73265024225543,"Paropakar Maternity Hospital, Prasuti Griha Marg, Thapathali, Kathmandu 00779, Nepal",27.68930955,85.318871643873,Paropakar Maternity Hospital,,Prasuti Griha Marg,00779,Kathmandu-11,Thapathali,Kathmandu,Kathmandu,Bagmati Province,Nepal,np,© OpenStreetMap contributors,Open Database License,https://www.openstreetmap.org/copyright
64371941,1152,2019-12-18 05:16:13,27.689466666666668,85.31949333333333,1.1,5.044156662152152,"Norvic Hospital, Prasuti Griha Marg, Thapathali, Kathmandu 00779, Nepal",27.68993785,85.31918411154355,Norvic Hospital,,Prasuti Griha Marg,00779,Kathmandu-11,Thapathali,Kathmandu,Kathmandu,Bagmati Province,Nepal,np,© OpenStreetMap contributors,Open Database License,https://www.openstreetmap.org/copyright
64372390,1152,2019-12-18 05:16:38,27.68953,85.31928833333333,2.55,3.952161902649914,"Paropakar Maternity Hospital, Prasuti Griha Marg, Thapathali, Kathmandu 00779, Nepal",27.68930955,85.318871643873,Paropakar Maternity Hospital,,Prasuti Griha Marg,00779,Kathmandu-11,Thapathali,Kathmandu,Kathmandu,Bagmati Province,Nepal,np,© OpenStreetMap contributors,Open Database License,https://www.openstreetmap.org/copyright
64372931,1152,2019-12-18 05:17:08,27.68955833333333,85.319245,0.32,3.7030949109868914,"Paropakar Maternity Hospital, Prasuti Griha Marg, Thapathali, Kathmandu 00779, Nepal",27.68930955,85.318871643873,Paropakar Maternity Hospital,,Prasuti Griha Marg,00779,Kathmandu-11,Thapathali,Kathmandu,Kathmandu,Bagmati Province,Nepal,np,© OpenStreetMap contributors,Open Database License,https://www.openstreetmap.org/copyright
64373463,1152,2019-12-18 05:17:38,27.68969,85.31909166666667,2.15,5.530937539924485,"Paropakar Maternity Hospital, Prasuti Griha Marg, Thapathali, Kathmandu 00779, Nepal",27.68930955,85.318871643873,Paropakar Maternity Hospital,,Prasuti Griha Marg,00779,Kathmandu-11,Thapathali,Kathmandu,Kathmandu,Bagmati Province,Nepal,np,© OpenStreetMap contributors,Open Database License,https://www.openstreetmap.org/copyright
64373978,1152,2019-12-18 05:18:07,27.689756666666668,85.31903666666666,0.02,2.7281096943224106,"Prasuti Griha Marg, Kathmandu, Kathmandu 00779, Nepal",27.689758,85.319009,,,Prasuti Griha Marg,00779,,,Kathmandu,Kathmandu,Three,Nepal,np,© OpenStreetMap contributors,Open Database License,https://www.openstreetmap.org/copyright
64565111,1152,2019-12-18 08:17:20,27.69662333333333,85.33927666666666,13.17,4.306119957255792,"Valley View English Boarding School, Madhya Baneshwar Marga, Naya Baneshwar, Kathmandu 44703, Nepal",27.696732150000003,85.33957572122964,Valley View English Boarding School,,Madhya Baneshwar Marga,44703,Kathmandu-31,Naya Baneshwar,Kathmandu,Kathmandu,Bagmati Province,Nepal,np,© OpenStreetMap contributors,Open Database License,https://www.openstreetmap.org/copyright
64565642,1152,2019-12-18 08:17:50,27.69694833333333,85.33801,0.63,4.362918376023552,"Taplejung Sekuwa Corner, Madhya Baneshwar Marga, Naya Baneshwar, Kathmandu 44703, Nepal",27.6969786,85.3380382,Taplejung Sekuwa Corner,,Madhya Baneshwar Marga,44703,Kathmandu-31,Naya Baneshwar,Kathmandu,Kathmandu,Bagmati Province,Nepal,np,© OpenStreetMap contributors,Open Database License,https://www.openstreetmap.org/copyright
64566170,1152,2019-12-18 08:18:20,27.696971666666663,85.33786,1.01,15.15463039960272,"Venus Kitchen Restaurant, Devkota Sadak, Baneshwar, Kathmandu 44703, Nepal",27.6971068,85.33788,Venus Kitchen Restaurant,,Devkota Sadak,44703,Kathmandu-10,Baneshwar,Kathmandu,Kathmandu,Bagmati Province,Nepal,np,© OpenStreetMap contributors,Open Database License,https://www.openstreetmap.org/copyright
64566679,1152,2019-12-18 08:18:49,27.69699333333333,85.33779,1.03,12.050000154569242,"Time Out Bakery, Sweets and Cafe, Kathmandu, Kathmandu 44703, Nepal",27.697002,85.337668,"Time Out Bakery, Sweets and Cafe",,,44703,,,Kathmandu,Kathmandu,Three,Nepal,np,© OpenStreetMap contributors,Open Database License,https://www.openstreetmap.org/copyright
64567195,1152,2019-12-18 08:19:19,27.69721333333333,85.33716,12.05,5.0412164257339365,"Nepal Ideal School, Puja Pratisthan Marga, Baneshwar, Kathmandu 00446, Nepal",27.6970408,85.33729990506217,Nepal Ideal School,,Puja Pratisthan Marga,00446,Kathmandu-10,Baneshwar,Kathmandu,Kathmandu,Bagmati Province,Nepal,np,© OpenStreetMap contributors,Open Database License,https://www.openstreetmap.org/copyright
64567734,1152,2019-12-18 08:19:50,27.69786333333333,85.33531333333333,12.64,0,"pandey galli cafe, Prachin Galli, Baneshwar, Kathmandu 00446, Nepal",27.697926250000002,85.33535605,pandey galli cafe,,Prachin Galli,00446,Kathmandu-10,Baneshwar,Kathmandu,Kathmandu,Bagmati Province,Nepal,np,© OpenStreetMap contributors,Open Database License,https://www.openstreetmap.org/copyright
64568228,1152,2019-12-18 08:20:19,27.697941666666665,85.33475666666666,0.04,1.732326491266525,"Puja Pratisthan Marg, Baneshwar, Kathmandu 00446, Nepal",27.6979835,85.3346583,Puja Pratisthan Marg,,Puja Pratisthan Marg,00446,Kathmandu-10,Baneshwar,Kathmandu,Kathmandu,Bagmati Province,Nepal,np,© OpenStreetMap contributors,Open Database License,https://www.openstreetmap.org/copyright
64568740,1152,2019-12-18 08:20:49,27.697926666666667,85.33473,0.01,1.1384771861559713,"Puja Pratisthan Marg, Baneshwar, Kathmandu 00446, Nepal",27.6979835,85.3346583,Puja Pratisthan Marg,,Puja Pratisthan Marg,00446,Kathmandu-10,Baneshwar,Kathmandu,Kathmandu,Bagmati Province,Nepal,np,© OpenStreetMap contributors,Open Database License,https://www.openstreetmap.org/copyright
64569253,1152,2019-12-18 08:21:18,27.697948333333333,85.33474333333334,0.37,1.5883327507093818,"Puja Pratisthan Marg, Baneshwar, Kathmandu 00446, Nepal",27.6979835,85.3346583,Puja Pratisthan Marg,,Puja Pratisthan Marg,00446,Kathmandu-10,Baneshwar,Kathmandu,Kathmandu,Bagmati Province,Nepal,np,© OpenStreetMap contributors,Open Database License,https://www.openstreetmap.org/copyright
64569775,1152,2019-12-18 08:21:48,27.69779,85.33538,6.56,2.9839355650785135,"Puja Pratisthan Marg, Baneshwar, Kathmandu 00446, Nepal",27.6979835,85.3346583,Puja Pratisthan Marg,,Puja Pratisthan Marg,00446,Kathmandu-10,Baneshwar,Kathmandu,Kathmandu,Bagmati Province,Nepal,np,© OpenStreetMap contributors,Open Database License,https://www.openstreetmap.org/copyright
64570292,1152,2019-12-18 08:22:18,27.697285,85.33675166666667,10.19,9.09329341397092,"Puja Pratisthan Marga, Kathmandu, Kathmandu 00446, Nepal",27.697283,85.336844,,,Puja Pratisthan Marga,00446,,,Kathmandu,Kathmandu,Three,Nepal,np,© OpenStreetMap contributors,Open Database License,https://www.openstreetmap.org/copyright
64570828,1152,2019-12-18 08:22:48,27.69703,85.33763666666667,0.43,4.382947239783021,"Time Out Bakery, Sweets and Cafe, Kathmandu, Kathmandu 44703, Nepal",27.697002,85.337668,"Time Out Bakery, Sweets and Cafe",,,44703,,,Kathmandu,Kathmandu,Three,Nepal,np,© OpenStreetMap contributors,Open Database License,https://www.openstreetmap.org/copyright
64571330,1152,2019-12-18 08:23:17,27.69701,85.33782166666667,0.37,12.200028945162224,"Venus Kitchen Restaurant, Devkota Sadak, Baneshwar, Kathmandu 44703, Nepal",27.6971068,85.33788,Venus Kitchen Restaurant,,Devkota Sadak,44703,Kathmandu-10,Baneshwar,Kathmandu,Kathmandu,Bagmati Province,Nepal,np,© OpenStreetMap contributors,Open Database License,https://www.openstreetmap.org/copyright
64571839,1152,2019-12-18 08:23:47,27.69690333333333,85.33807833333333,5.8,9.255140439196174,"Taplejung Sekuwa Corner, Madhya Baneshwar Marga, Naya Baneshwar, Kathmandu 44703, Nepal",27.6969786,85.3380382,Taplejung Sekuwa Corner,,Madhya Baneshwar Marga,44703,Kathmandu-31,Naya Baneshwar,Kathmandu,Kathmandu,Bagmati Province,Nepal,np,© OpenStreetMap contributors,Open Database License,https://www.openstreetmap.org/copyright
64572364,1152,2019-12-18 08:24:17,27.69669833333333,85.33909333333334,5.77,20.709137416976034,"Nepal Health Clinic, Madhya Baneshwar Marga, Naya Baneshwar, Kathmandu 44703, Nepal",27.69648725,85.33925210000001,Nepal Health Clinic,,Madhya Baneshwar Marga,44703,Kathmandu-31,Naya Baneshwar,Kathmandu,Kathmandu,Bagmati Province,Nepal,np,© OpenStreetMap contributors,Open Database License,https://www.openstreetmap.org/copyright
64572887,1152,2019-12-18 08:24:47,27.696396666666665,85.339855,5.29,108.24844032330854,"Surya Bikram Gyawali Marga 10, Kathmandu, Kathmandu 00977, Nepal",27.696012,85.340865,,10,Surya Bikram Gyawali Marga,00977,,,Kathmandu,Kathmandu,Three,Nepal,np,© OpenStreetMap contributors,Open Database License,https://www.openstreetmap.org/copyright
64577630,1152,2019-12-18 08:29:15,27.68964666666667,85.33973,13.38,0.2113689081957633,"Uniglobe College, Kali Marg, Naya Baneshwar, Kathmandu 44703, Nepal",27.689738300000002,85.33999900053425,Uniglobe College,,Kali Marg,44703,Kathmandu-31,Naya Baneshwar,Kathmandu,Kathmandu,Bagmati Province,Nepal,np,© OpenStreetMap contributors,Open Database License,https://www.openstreetmap.org/copyright
64775259,1152,2019-12-18 11:30:27,27.707955,85.339415,11.06,13.101791214828623,"Baram and Basel Furniture Showroom, Kathmandu, Kathmandu 44660, Nepal",27.708,85.339538,Baram and Basel Furniture Showroom,,,44660,,,Kathmandu,Kathmandu,Three,Nepal,np,© OpenStreetMap contributors,Open Database License,https://www.openstreetmap.org/copyright
64775803,1152,2019-12-18 11:30:56,27.708013333333334,85.33776,2.37,10.097285849678814,"The Great Malika, Pashupati Sadak, Chabahil, Kathmandu 44660, Nepal",27.70816285,85.337752,The Great Malika,,Pashupati Sadak,44660,Kathmandu-07,Chabahil,Kathmandu,Kathmandu,Bagmati Province,Nepal,np,© OpenStreetMap contributors,Open Database License,https://www.openstreetmap.org/copyright
64776339,1152,2019-12-18 11:31:26,27.708046666666668,85.33703166666666,2.05,11.51230155986194,"Ratopul, Kathmandu, Kathmandu 44660, Nepal",27.708071,85.336918,,,Ratopul,44660,,,Kathmandu,Kathmandu,Three,Nepal,np,© OpenStreetMap contributors,Open Database License,https://www.openstreetmap.org/copyright
64776857,1152,2019-12-18 11:31:56,27.708085,85.33650333333334,3.11,4.101838356350681,"Pashupati Sadak, Kathmandu, Kathmandu 44605, Nepal",27.708085,85.336545,,,Pashupati Sadak,44605,,,Kathmandu,Kathmandu,Three,Nepal,np,© OpenStreetMap contributors,Open Database License,https://www.openstreetmap.org/copyright
64777397,1152,2019-12-18 11:32:26,27.708103333333334,85.33669833333333,6.8,15.23179867136066,"Pashupati Sadak, Kathmandu, Kathmandu 44660, Nepal",27.708085,85.336545,,,Pashupati Sadak,44660,,,Kathmandu,Kathmandu,Three,Nepal,np,© OpenStreetMap contributors,Open Database License,https://www.openstreetmap.org/copyright
64777939,1152,2019-12-18 11:32:56,27.709748333333334,85.33702666666667,13.96,1.0062035361033097,"Rudra Mati Marg, Maitidevi, Kathmandu 00975, Nepal",27.7096953,85.3370232,Rudra Mati Marg,,Rudra Mati Marg,00975,Kathmandu-30,Maitidevi,Kathmandu,Kathmandu,Bagmati Province,Nepal,np,© OpenStreetMap contributors,Open Database License,https://www.openstreetmap.org/copyright
64843078,1152,2019-12-18 12:33:47,27.710331666666665,85.33864166666666,9.66,7.192275517018471,"Jasmine Beauty Parlor and Training Center, Paneku Marg, Chabahil, Kathmandu 44660, Nepal",27.7103399,85.3385692,Jasmine Beauty Parlor and Training Center,,Paneku Marg,44660,Kathmandu-07,Chabahil,Kathmandu,Kathmandu,Bagmati Province,Nepal,np,© OpenStreetMap contributors,Open Database License,https://www.openstreetmap.org/copyright
64843589,1152,2019-12-18 12:34:16,27.709758333333333,85.33974,6.75,13.218412432999243,"Om Prakash Fresh House, Kathmandu, Kathmandu 44660, Nepal",27.70968,85.339841,Om Prakash Fresh House,,,44660,,,Kathmandu,Kathmandu,Three,Nepal,np,© OpenStreetMap contributors,Open Database License,https://www.openstreetmap.org/copyright
65956797,1152,2019-12-19 06:23:17,27.70040333333333,85.339205,14.48,7.526131818680902,"SAIM College, Devkota Sadak, Baneshwar, Kathmandu 44703, Nepal",27.7004709,85.3392005,SAIM College,,Devkota Sadak,44703,Kathmandu-10,Baneshwar,Kathmandu,Kathmandu,Bagmati Province,Nepal,np,© OpenStreetMap contributors,Open Database License,https://www.openstreetmap.org/copyright
65957316,1152,2019-12-19 06:23:47,27.69861833333333,85.33820166666666,14.03,3.798382366765063,"tej enterprise, Devkota Sadak, Baneshwar, Kathmandu 44703, Nepal",27.69861175,85.3382614701579,tej enterprise,,Devkota Sadak,44703,Kathmandu-10,Baneshwar,Kathmandu,Kathmandu,Bagmati Province,Nepal,np,© OpenStreetMap contributors,Open Database License,https://www.openstreetmap.org/copyright
65957845,1152,2019-12-19 06:24:16,27.697066666666668,85.33779,2.52,8.984043307974794,"Shrestha electronic, debkota sadak, Kathmandu, Kathmandu 44703, Nepal",27.69708,85.3377,Shrestha electronic,,debkota sadak,44703,,,Kathmandu,Kathmandu,Three,Nepal,np,© OpenStreetMap contributors,Open Database License,https://www.openstreetmap.org/copyright
65958383,1152,2019-12-19 06:24:46,27.697096666666667,85.33753166666666,6.95,6.4891728410356535,"Nepal Ideal School, Puja Pratisthan Marga, Baneshwar, Kathmandu 00446, Nepal",27.6970408,85.33729990506217,Nepal Ideal School,,Puja Pratisthan Marga,00446,Kathmandu-10,Baneshwar,Kathmandu,Kathmandu,Bagmati Province,Nepal,np,© OpenStreetMap contributors,Open Database License,https://www.openstreetmap.org/copyright
65958913,1152,2019-12-19 06:25:16,27.697416666666665,85.33662333333334,8.05,13.873224996614004,"Nepal Ideal School, Puja Pratisthan Marga, Baneshwar, Kathmandu 00446, Nepal",27.697251549999997,85.33648245,Nepal Ideal School,,Puja Pratisthan Marga,00446,Kathmandu-10,Baneshwar,Kathmandu,Kathmandu,Bagmati Province,Nepal,np,© OpenStreetMap contributors,Open Database License,https://www.openstreetmap.org/copyright
65959541,1152,2019-12-19 06:25:51,27.69790666666667,85.335,6.4,2.6470716703794928,"Puja Pratisthan Marg, Baneshwar, Kathmandu 00446, Nepal",27.6979835,85.3346583,Puja Pratisthan Marg,,Puja Pratisthan Marg,00446,Kathmandu-10,Baneshwar,Kathmandu,Kathmandu,Bagmati Province,Nepal,np,© OpenStreetMap contributors,Open Database License,https://www.openstreetmap.org/copyright
65959952,1152,2019-12-19 06:26:16,27.697983333333333,85.334755,4.1,5.436620826713144,"Puja Pratisthan Marg, Baneshwar, Kathmandu 00446, Nepal",27.6979835,85.3346583,Puja Pratisthan Marg,,Puja Pratisthan Marg,00446,Kathmandu-10,Baneshwar,Kathmandu,Kathmandu,Bagmati Province,Nepal,np,© OpenStreetMap contributors,Open Database License,https://www.openstreetmap.org/copyright
65960490,1152,2019-12-19 06:26:45,27.698411666666665,85.33340666666666,5.46,2.7289736285676867,"Mata Kumari Marg, Baneshwar, Kathmandu 00446, Nepal",27.6977249,85.3333464,Mata Kumari Marg,,Mata Kumari Marg,00446,Kathmandu-10,Baneshwar,Kathmandu,Kathmandu,Bagmati Province,Nepal,np,© OpenStreetMap contributors,Open Database License,https://www.openstreetmap.org/copyright
65961016,1152,2019-12-19 06:27:15,27.69746,85.333255,11.33,2.7497280380794953,"Mata Kumari Marg, Baneshwar, Kathmandu 00446, Nepal",27.6977249,85.3333464,Mata Kumari Marg,,Mata Kumari Marg,00446,Kathmandu-10,Baneshwar,Kathmandu,Kathmandu,Bagmati Province,Nepal,np,© OpenStreetMap contributors,Open Database License,https://www.openstreetmap.org/copyright
65961543,1152,2019-12-19 06:27:45,27.696911666666665,85.33417666666666,9.86,6.444008094866822,"Mahadevasthan Marg, Baneshwar, Kathmandu 00446, Nepal",27.6969338,85.3338249,Mahadevasthan Marg,,Mahadevasthan Marg,00446,Kathmandu-10,Baneshwar,Kathmandu,Kathmandu,Bagmati Province,Nepal,np,© OpenStreetMap contributors,Open Database License,https://www.openstreetmap.org/copyright
65962079,1152,2019-12-19 06:28:15,27.69607,85.33411666666667,9.73,31.738029834663944,"Sim-Sim Marg, Kathmandu, Kathmandu 00446, Nepal",27.696345,85.334203,,,Sim-Sim Marg,00446,,,Kathmandu,Kathmandu,Three,Nepal,np,© OpenStreetMap contributors,Open Database License,https://www.openstreetmap.org/copyright
65962713,1152,2019-12-19 06:28:49,27.696093333333334,85.33344,11.88,13.950154417167184,"Sastomart(Home Appliances and Ledtv), Kathmandu, Kathmandu 00446, Nepal",27.696069,85.333579,Sastomart(Home Appliances and Ledtv),,,00446,,,Kathmandu,Kathmandu,Three,Nepal,np,© OpenStreetMap contributors,Open Database License,https://www.openstreetmap.org/copyright
65963206,1152,2019-12-19 06:29:17,27.695691666666665,85.33248333333333,9.68,44.830267551251914,"New Shine Academy High School, Kathmandu, Kathmandu 00446, Nepal",27.695395,85.332175,New Shine Academy High School,,,00446,,,Kathmandu,Kathmandu,Three,Nepal,np,© OpenStreetMap contributors,Open Database License,https://www.openstreetmap.org/copyright
65963658,1152,2019-12-19 06:29:44,27.694926666666667,85.330945,11.75,7.9396681717610385,"Sahabhagita Marg, Baneshwar, Kathmandu 00446, Nepal",27.6952188,85.3312342,Sahabhagita Marg,,Sahabhagita Marg,00446,Kathmandu-10,Baneshwar,Kathmandu,Kathmandu,Bagmati Province,Nepal,np,© OpenStreetMap contributors,Open Database License,https://www.openstreetmap.org/copyright
65964205,1152,2019-12-19 06:30:14,27.694235,85.33022,6.46,3.8701754859171236,"Sahabhagita Marg, Buddha Nagar, Kathmandu 00446, Nepal",27.6941993,85.3302292,Sahabhagita Marg,,Sahabhagita Marg,00446,Kathmandu-10,Buddha Nagar,Kathmandu,Kathmandu,Bagmati Province,Nepal,np,© OpenStreetMap contributors,Open Database License,https://www.openstreetmap.org/copyright
65964735,1152,2019-12-19 06:30:44,27.693406666666668,85.32929666666666,17.14,2.110602784899424,"Ghattekulo, Kathmandu 00446, Nepal",27.6946161,85.3293153,,,,00446,Kathmandu-29,Ghattekulo,Kathmandu,Kathmandu,Bagmati Province,Nepal,np,© OpenStreetMap contributors,Open Database License,https://www.openstreetmap.org/copyright
65965248,1152,2019-12-19 06:31:14,27.692275,85.32871166666666,5.62,68.70493087621296,"Bhat-Bhateni, Bhaktithapa Road Anamnagar, Kathmandu, Kathmandu 44617, Nepal",27.692843,85.328437,Bhat-Bhateni,Anamnagar,Bhaktithapa Road,44617,,,Kathmandu,Kathmandu,Three,Nepal,np,© OpenStreetMap contributors,Open Database License,https://www.openstreetmap.org/copyright
65965812,1152,2019-12-19 06:31:44,27.690925,85.32817,3.32,35.813830829286445,"Bhairav Lumbini Fast Food And Tandoori bhojanalaya, Kathmandu, Kathmandu 44617, Nepal",27.690982,85.327812,Bhairav Lumbini Fast Food And Tandoori bhojanalaya,,,44617,,,Kathmandu,Kathmandu,Three,Nepal,np,© OpenStreetMap contributors,Open Database License,https://www.openstreetmap.org/copyright
65966336,1152,2019-12-19 06:32:13,27.690845,85.32813666666667,0.18,35.410831219434066,"Bhairav Lumbini Fast Food And Tandoori bhojanalaya, Kathmandu, Kathmandu 44617, Nepal",27.690982,85.327812,Bhairav Lumbini Fast Food And Tandoori bhojanalaya,,,44617,,,Kathmandu,Kathmandu,Three,Nepal,np,© OpenStreetMap contributors,Open Database License,https://www.openstreetmap.org/copyright
65966903,1152,2019-12-19 06:32:43,27.690835,85.32814333333333,0.21,36.48887763439336,"Bhairav Lumbini Fast Food And Tandoori bhojanalaya, Kathmandu, Kathmandu 44617, Nepal",27.690982,85.327812,Bhairav Lumbini Fast Food And Tandoori bhojanalaya,,,44617,,,Kathmandu,Kathmandu,Three,Nepal,np,© OpenStreetMap contributors,Open Database License,https://www.openstreetmap.org/copyright
65967452,1152,2019-12-19 06:33:13,27.69083833333333,85.32814666666667,0.06,36.61939127769101,"Bhairav Lumbini Fast Food And Tandoori bhojanalaya, Kathmandu, Kathmandu 44617, Nepal",27.690982,85.327812,Bhairav Lumbini Fast Food And Tandoori bhojanalaya,,,44617,,,Kathmandu,Kathmandu,Three,Nepal,np,© OpenStreetMap contributors,Open Database License,https://www.openstreetmap.org/copyright
65967977,1152,2019-12-19 06:33:42,27.690751666666667,85.32811666666667,0.59,30.45581456201556,"NH34, Kathmandu, Kathmandu 44617, Nepal",27.690498,85.328,,,NH34,44617,,,Kathmandu,Kathmandu,Three,Nepal,np,© OpenStreetMap contributors,Open Database License,https://www.openstreetmap.org/copyright
65968501,1152,2019-12-19 06:34:12,27.690538333333333,85.32819333333333,5.92,3.6990974832651315,"Kathmandu, Kathmandu 44617, Nepal",27.6905379,85.3281156,,,,44617,Kathmandu-11,,Kathmandu,Kathmandu,Bagmati Province,Nepal,np,© OpenStreetMap contributors,Open Database License,https://www.openstreetmap.org/copyright
65969018,1152,2019-12-19 06:34:42,27.690175,85.328865,0.7,0.38251689069910993,"Buddha Nagar, Kathmandu 44617, Nepal",27.6901672,85.3288726,,,,44617,Kathmandu-10,Buddha Nagar,Kathmandu,Kathmandu,Bagmati Province,Nepal,np,© OpenStreetMap contributors,Open Database License,https://www.openstreetmap.org/copyright
65969571,1152,2019-12-19 06:35:12,27.690138333333334,85.32887833333334,0.19,17.450777805938554,"Dhobikhola Marga, Kathmandu, Kathmandu 44617, Nepal",27.690229,85.329023,,,Dhobikhola Marga,44617,,,Kathmandu,Kathmandu,Three,Nepal,np,© OpenStreetMap contributors,Open Database License,https://www.openstreetmap.org/copyright
65970086,1152,2019-12-19 06:35:42,27.690093333333333,85.32865666666666,2.58,3.7592840259637756,"Buddha Nagar, Kathmandu 44617, Nepal",27.6900608,85.3287828,,,,44617,Kathmandu-10,Buddha Nagar,Kathmandu,Kathmandu,Bagmati Province,Nepal,np,© OpenStreetMap contributors,Open Database License,https://www.openstreetmap.org/copyright
65970603,1152,2019-12-19 06:36:11,27.69002,85.32850333333333,6.0,11.28723343830773,"Centre For Liver Disease, Rudramati Marg, Buddha Nagar, Kathmandu 44617, Nepal",27.6899266,85.32866124663163,Centre For Liver Disease,,Rudramati Marg,44617,Kathmandu-10,Buddha Nagar,Kathmandu,Kathmandu,Bagmati Province,Nepal,np,© OpenStreetMap contributors,Open Database License,https://www.openstreetmap.org/copyright
65971116,1152,2019-12-19 06:36:41,27.68838,85.32813333333333,20.59,49.26645764295952,"Kafe Codes, Babarmahal 2214, Kathmandu, Kathmandu 44617, Nepal",27.688771,85.327898,Kafe Codes,2214,Babarmahal,44617,,,Kathmandu,Kathmandu,Three,Nepal,np,© OpenStreetMap contributors,Open Database License,https://www.openstreetmap.org/copyright
66309525,1152,2019-12-19 11:48:28,27.687743333333334,85.337605,15.49,21.819749156434852,"Three Brothers oil store, Pipal Briksha Marg, Minbhawan, Kathmandu 44617, Nepal",27.6875602,85.3375254,Three Brothers oil store,,Pipal Briksha Marg,44617,Kathmandu-31,Minbhawan,Kathmandu,Kathmandu,Bagmati Province,Nepal,np,© OpenStreetMap contributors,Open Database License,https://www.openstreetmap.org/copyright
66310123,1152,2019-12-19 11:49:02,27.687981666666666,85.336425,4.23,88.69045716034606,"Provident Merchant Banking Limited प्रोभिडेन्ट मर्चेन्ट बैंकिङ्ग लिमिटेड, Sankhamul Marg 31, Kathmandu, Kathmandu 44617, Nepal",27.687949,85.335525,Provident Merchant Banking Limited प्रोभिडेन्ट मर्चेन्ट बैंकिङ्ग लिमिटेड,31,Sankhamul Marg,44617,,,Kathmandu,Kathmandu,Three,Nepal,np,© OpenStreetMap contributors,Open Database License,https://www.openstreetmap.org/copyright
66310565,1152,2019-12-19 11:49:27,27.687978333333334,85.33626333333333,2.11,0.9279775615583825,"Minbhawan, Kathmandu 44617, Nepal",27.6880487,85.3359171,,,,44617,Kathmandu-31,Minbhawan,Kathmandu,Kathmandu,Bagmati Province,Nepal,np,© OpenStreetMap contributors,Open Database License,https://www.openstreetmap.org/copyright
66311088,1152,2019-12-19 11:49:58,27.6881,85.33577,4.12,1.7335698469249232,"Minbhawan, Kathmandu 44617, Nepal",27.6880487,85.3359171,,,,44617,Kathmandu-31,Minbhawan,Kathmandu,Kathmandu,Bagmati Province,Nepal,np,© OpenStreetMap contributors,Open Database License,https://www.openstreetmap.org/copyright
66311614,1152,2019-12-19 11:50:27,27.687708333333333,85.33539333333333,2.4,4.540037969915331,"NBDS parking, Sankhamul Marg, Shankhamul, Kathmandu 44617, Nepal",27.687537900000002,85.33554728979037,NBDS parking,,Sankhamul Marg,44617,Kathmandu-31,Shankhamul,Kathmandu,Kathmandu,Bagmati Province,Nepal,np,© OpenStreetMap contributors,Open Database License,https://www.openstreetmap.org/copyright
67515217,1152,2019-12-20 07:17:05,27.707921666666667,85.33992166666667,6.93,17.204142733198886,"Purbeli Hotel, Pashupati Sadak, Chabahil, Kathmandu 44660, Nepal",27.708073,85.3398853,Purbeli Hotel,,Pashupati Sadak,44660,Kathmandu-07,Chabahil,Kathmandu,Kathmandu,Bagmati Province,Nepal,np,© OpenStreetMap contributors,Open Database License,https://www.openstreetmap.org/copyright
67515747,1152,2019-12-20 07:17:34,27.707978333333333,85.33777333333333,11.87,13.866049628124221,"The Great Malika, Pashupati Sadak, Chabahil, Kathmandu 44660, Nepal",27.70816285,85.337752,The Great Malika,,Pashupati Sadak,44660,Kathmandu-07,Chabahil,Kathmandu,Kathmandu,Bagmati Province,Nepal,np,© OpenStreetMap contributors,Open Database License,https://www.openstreetmap.org/copyright
67516272,1152,2019-12-20 07:18:04,27.708216666666665,85.337085,6.54,2.3632035931649313,"Rudra Mati Marg-2, Chabahil, Kathmandu 44660, Nepal",27.7098912,85.337262,Rudra Mati Marg-2,,Rudra Mati Marg-2,44660,Kathmandu-07,Chabahil,Kathmandu,Kathmandu,Bagmati Province,Nepal,np,© OpenStreetMap contributors,Open Database License,https://www.openstreetmap.org/copyright
67516805,1152,2019-12-20 07:18:34,27.709751666666666,85.33725666666666,14.15,13.600193961076924,"manju and anuska khaja ghar, Rudra Mati Marg-2, Chabahil, Kathmandu 44660, Nepal",27.7096384,85.3373088,manju and anuska khaja ghar,,Rudra Mati Marg-2,44660,Kathmandu-07,Chabahil,Kathmandu,Kathmandu,Bagmati Province,Nepal,np,© OpenStreetMap contributors,Open Database License,https://www.openstreetmap.org/copyright
68930862,1152,2019-12-21 06:00:46,27.707988333333333,85.33813333333333,11.59,10.805788543499284,"Nice Tailor, Pashupati Sadak, Chabahil, Kathmandu 44660, Nepal",27.708124249999997,85.33812175,Nice Tailor,,Pashupati Sadak,44660,Kathmandu-07,Chabahil,Kathmandu,Kathmandu,Bagmati Province,Nepal,np,© OpenStreetMap contributors,Open Database License,https://www.openstreetmap.org/copyright
68931342,1152,2019-12-21 06:01:16,27.708021666666667,85.337205,7.72,3.9959458789291618,"Ratopul Marg, Chabahil, Kathmandu 44660, Nepal",27.7080579,85.3371963,Ratopul Marg,,Ratopul Marg,44660,Kathmandu-07,Chabahil,Kathmandu,Kathmandu,Bagmati Province,Nepal,np,© OpenStreetMap contributors,Open Database License,https://www.openstreetmap.org/copyright
68931839,1152,2019-12-21 06:01:46,27.708206666666666,85.33663333333334,10.47,16.082450375029673,"Pashupati Sadak, Kathmandu, Kathmandu 00975, Nepal",27.708085,85.336545,,,Pashupati Sadak,00975,,,Kathmandu,Kathmandu,Three,Nepal,np,© OpenStreetMap contributors,Open Database License,https://www.openstreetmap.org/copyright
68932335,1152,2019-12-21 06:02:16,27.709946666666667,85.337095,15.45,1.9078208941498778,"Rudra Mati Marg, Maitidevi, Kathmandu 00975, Nepal",27.7096953,85.3370232,Rudra Mati Marg,,Rudra Mati Marg,00975,Kathmandu-30,Maitidevi,Kathmandu,Kathmandu,Bagmati Province,Nepal,np,© OpenStreetMap contributors,Open Database License,https://www.openstreetmap.org/copyright
69290732,1152,2019-12-21 11:56:59,27.700426666666665,85.339235,8.9,5.9586980255511355,"SAIM College, Kathmandu, Kathmandu 44703, Nepal",27.700471,85.339201,SAIM College,,,44703,,,Kathmandu,Kathmandu,Three,Nepal,np,© OpenStreetMap contributors,Open Database License,https://www.openstreetmap.org/copyright
69291241,1152,2019-12-21 11:57:27,27.699428333333334,85.33848666666667,5.78,13.261549215369351,"Green Land Cafe, Devkota Sadak, Baneshwar, Kathmandu 44703, Nepal",27.6995084,85.3385865,Green Land Cafe,,Devkota Sadak,44703,Kathmandu-10,Baneshwar,Kathmandu,Kathmandu,Bagmati Province,Nepal,np,© OpenStreetMap contributors,Open Database License,https://www.openstreetmap.org/copyright
69291782,1152,2019-12-21 11:57:57,27.698796666666667,85.33826833333333,3.49,8.95807998652598,"Apex College, Devkota Sadak, Baneshwar, Kathmandu 44703, Nepal",27.6989896,85.33804992574136,Apex College,,Devkota Sadak,44703,Kathmandu-10,Baneshwar,Kathmandu,Kathmandu,Bagmati Province,Nepal,np,© OpenStreetMap contributors,Open Database License,https://www.openstreetmap.org/copyright
69292282,1152,2019-12-21 11:58:27,27.697545,85.33796333333333,8.75,9.371377938280098,"Mata Pathivara Girls Hostel, Devkota Sadak, Baneshwar, Kathmandu 44703, Nepal",27.69748155,85.3380922194014,Mata Pathivara Girls Hostel,,Devkota Sadak,44703,Kathmandu-10,Baneshwar,Kathmandu,Kathmandu,Bagmati Province,Nepal,np,© OpenStreetMap contributors,Open Database License,https://www.openstreetmap.org/copyright
69292778,1152,2019-12-21 11:58:57,27.696566666666666,85.33770666666666,9.62,2.1525200060041265,"Central Cafe, Devkota Sadak, Baneshwar, Kathmandu 44703, Nepal",27.6965573,85.3377258,Central Cafe,,Devkota Sadak,44703,Kathmandu-10,Baneshwar,Kathmandu,Kathmandu,Bagmati Province,Nepal,np,© OpenStreetMap contributors,Open Database License,https://www.openstreetmap.org/copyright
69293290,1152,2019-12-21 11:59:27,27.695643333333333,85.33761333333334,5.48,8.652695088758602,"Banabanga Dhungadhara, Baneshwar, Kathmandu 44703, Nepal",27.6956978,85.3376761,Banabanga Dhungadhara,,,44703,Kathmandu-10,Baneshwar,Kathmandu,Kathmandu,Bagmati Province,Nepal,np,© OpenStreetMap contributors,Open Database License,https://www.openstreetmap.org/copyright
69293769,1152,2019-12-21 11:59:56,27.694191666666665,85.33712,14.09,5.637833022052988,"SchEMS, Devkota Sadak, Baneshwar, Kathmandu 00446, Nepal",27.694195450000002,85.33733938831966,SchEMS,,Devkota Sadak,00446,Kathmandu-10,Baneshwar,Kathmandu,Kathmandu,Bagmati Province,Nepal,np,© OpenStreetMap contributors,Open Database License,https://www.openstreetmap.org/copyright
69294289,1152,2019-12-21 12:00:26,27.692816666666666,85.33640333333334,6.1,15.51802062376667,"Yes Informatics, Devkota Sadak 10, Baneshwar, Kathmandu 44600, Nepal",27.69273655,85.33620229628806,Yes Informatics,10,Devkota Sadak,44600,Kathmandu-10,Baneshwar,Kathmandu,Kathmandu,Bagmati Province,Nepal,np,© OpenStreetMap contributors,Open Database License,https://www.openstreetmap.org/copyright
69294843,1152,2019-12-21 12:00:56,27.69258333333333,85.33625166666667,0.31,11.4411219479692,"Yes Informatics, Devkota Sadak 10, Baneshwar, Kathmandu 44600, Nepal",27.69273655,85.33620229628806,Yes Informatics,10,Devkota Sadak,44600,Kathmandu-10,Baneshwar,Kathmandu,Kathmandu,Bagmati Province,Nepal,np,© OpenStreetMap contributors,Open Database License,https://www.openstreetmap.org/copyright
69295370,1152,2019-12-21 12:01:26,27.69235833333333,85.335685,11.09,3.161035502401091,"Okharbot Marg, Buddha Nagar, Kathmandu 44617, Nepal",27.6919086,85.3350365,Okharbot Marg,,Okharbot Marg,44617,Kathmandu-10,Buddha Nagar,Kathmandu,Kathmandu,Bagmati Province,Nepal,np,© OpenStreetMap contributors,Open Database License,https://www.openstreetmap.org/copyright
69295875,1152,2019-12-21 12:01:55,27.691448333333334,85.33445,10.01,40.80092171385594,"nalsing gad hydropower project devlopment committe, Okharbot Marg, Buddha Nagar, Kathmandu 44617, Nepal",27.69147315,85.33396113110933,nalsing gad hydropower project devlopment committe,,Okharbot Marg,44617,Kathmandu-10,Buddha Nagar,Kathmandu,Kathmandu,Bagmati Province,Nepal,np,© OpenStreetMap contributors,Open Database License,https://www.openstreetmap.org/copyright
69296394,1152,2019-12-21 12:02:25,27.691265,85.33383333333333,0.87,16.88639022320494,"Metro High School, New Baneshwor, Kathmandu, Kathmandu 44617, Nepal",27.691314,85.333671,Metro High School,,New Baneshwor,44617,,,Kathmandu,Kathmandu,Three,Nepal,np,© OpenStreetMap contributors,Open Database License,https://www.openstreetmap.org/copyright
69296897,1152,2019-12-21 12:02:55,27.691486666666663,85.33271333333333,8.9,7.391653048576082,"Siddhartha Publication Pvt. Ltd., Bhaktithapa Road, Buddha Nagar, Kathmandu 44617, Nepal",27.6915155,85.33286123686196,Siddhartha Publication Pvt. Ltd.,,Bhaktithapa Road,44617,Kathmandu-10,Buddha Nagar,Kathmandu,Kathmandu,Bagmati Province,Nepal,np,© OpenStreetMap contributors,Open Database License,https://www.openstreetmap.org/copyright
69297441,1152,2019-12-21 12:03:25,27.691811666666663,85.331655,14.21,32.467983119616115,"Deneb International School, Bhaktithapa Road, Buddha Nagar, Kathmandu 44617, Nepal",27.6915987,85.3318806,Deneb International School,,Bhaktithapa Road,44617,Kathmandu-10,Buddha Nagar,Kathmandu,Kathmandu,Bagmati Province,Nepal,np,© OpenStreetMap contributors,Open Database License,https://www.openstreetmap.org/copyright
69297957,1152,2019-12-21 12:03:55,27.69216833333333,85.33011833333333,2.95,6.071434864025727,"Dept of Electricity Development, Bhaktithapa Road, Buddha Nagar, Kathmandu 44617, Nepal",27.6922228,85.330114,Dept of Electricity Development,,Bhaktithapa Road,44617,Kathmandu-10,Buddha Nagar,Kathmandu,Kathmandu,Bagmati Province,Nepal,np,© OpenStreetMap contributors,Open Database License,https://www.openstreetmap.org/copyright
69298457,1152,2019-12-21 12:04:24,27.692245,85.32991166666666,7.26,3.310908982574119,"Bhujel Dai ko Chiya Pasal, Bhaktithapa Road, Buddha Nagar, Kathmandu 44617, Nepal",27.69234675,85.32987857623435,Bhujel Dai ko Chiya Pasal,,Bhaktithapa Road,44617,Kathmandu-10,Buddha Nagar,Kathmandu,Kathmandu,Bagmati Province,Nepal,np,© OpenStreetMap contributors,Open Database License,https://www.openstreetmap.org/copyright
69298961,1152,2019-12-21 12:04:54,27.691746666666667,85.32867333333333,15.65,2.3163790867166636,"Dhobikhola (धोबीखोला) Marg, Kathmandu, Kathmandu 44617, Nepal",27.6919485,85.3287688,Dhobikhola (धोबीखोला) Marg,,Dhobikhola (धोबीखोला) Marg,44617,Kathmandu-11,,Kathmandu,Kathmandu,Bagmati Province,Nepal,np,© OpenStreetMap contributors,Open Database License,https://www.openstreetmap.org/copyright
69299460,1152,2019-12-21 12:05:24,27.690531666666665,85.32907,7.35,17.035455892516943,"Infertility Center, Kathmandu, Kathmandu 44617, Nepal",27.690385,85.32902,Infertility Center,,,44617,,,Kathmandu,Kathmandu,Three,Nepal,np,© OpenStreetMap contributors,Open Database License,https://www.openstreetmap.org/copyright
69299957,1152,2019-12-21 12:05:54,27.69011666666667,85.32887833333334,6.03,18.757735219686104,"Samsung Plaza, Kathmandu, Kathmandu 44617, Nepal",27.690019,85.328723,Samsung Plaza,,,44617,,,Kathmandu,Kathmandu,Three,Nepal,np,© OpenStreetMap contributors,Open Database License,https://www.openstreetmap.org/copyright
69300465,1152,2019-12-21 12:06:23,27.68932833333333,85.328385,9.34,7.557165349076115,"Pasant hardware, Rudramati Marg, Buddha Nagar, Kathmandu 44617, Nepal",27.6893907,85.3283545,Pasant hardware,,Rudramati Marg,44617,Kathmandu-11,Buddha Nagar,Kathmandu,Kathmandu,Bagmati Province,Nepal,np,© OpenStreetMap contributors,Open Database License,https://www.openstreetmap.org/copyright
69302014,1152,2019-12-21 12:07:53,27.687735,85.324855,3.35,2.550664711570224,"Rudramati Marg, Kathmandu, Kathmandu 44617, Nepal",27.6877226,85.3248232,Rudramati Marg,,Rudramati Marg,44617,Kathmandu-11,,Kathmandu,Kathmandu,Bagmati Province,Nepal,np,© OpenStreetMap contributors,Open Database License,https://www.openstreetmap.org/copyright
69303028,1152,2019-12-21 12:08:52,27.687776666666668,85.32317166666667,0.32,4.299024434157111,"Thapathali, Kathmandu 00779, Nepal",27.6877288,85.3231713,,,,00779,Kathmandu-11,Thapathali,Kathmandu,Kathmandu,Bagmati Province,Nepal,np,© OpenStreetMap contributors,Open Database License,https://www.openstreetmap.org/copyright
69303547,1152,2019-12-21 12:09:23,27.687861666666667,85.322925,2.71,2.812410312012873,"Thapathali, Kathmandu 00779, Nepal",27.6877288,85.3231713,,,,00779,Kathmandu-11,Thapathali,Kathmandu,Kathmandu,Bagmati Province,Nepal,np,© OpenStreetMap contributors,Open Database License,https://www.openstreetmap.org/copyright
69304030,1152,2019-12-21 12:09:52,27.687895,85.32284666666666,1.76,153.58983391947103,"Sameer's Home, Shiva Marg 13, Thapathali, Kathmandu 44617, Nepal",27.6871342,85.3241486,Sameer's Home,13,Shiva Marg,44617,Kathmandu-11,Thapathali,Kathmandu,Kathmandu,Bagmati Province,Nepal,np,© OpenStreetMap contributors,Open Database License,https://www.openstreetmap.org/copyright
69304542,1152,2019-12-21 12:10:22,27.687743333333334,85.32260666666667,3.78,5.253930147143389,"Thapathali, Kathmandu 00779, Nepal",27.6877226,85.3225413,,,,00779,Kathmandu-11,Thapathali,Kathmandu,Kathmandu,Bagmati Province,Nepal,np,© OpenStreetMap contributors,Open Database License,https://www.openstreetmap.org/copyright
69305536,1152,2019-12-21 12:11:21,27.688571666666668,85.31971666666666,5.61,21.65064736389278,"Department of Plant Resources, Shiva Marg, Thapathali, Kathmandu 44617, Nepal",27.688398399999997,85.32047390164345,Department of Plant Resources,,Shiva Marg,44617,Kathmandu-11,Thapathali,Kathmandu,Kathmandu,Bagmati Province,Nepal,np,© OpenStreetMap contributors,Open Database License,https://www.openstreetmap.org/copyright
69306049,1152,2019-12-21 12:11:51,27.68921,85.319935,5.84,16.536461233646804,"Norvic international centre for health evaluation, Prasuti Griha Marg, Thapathali, Kathmandu 00779, Nepal",27.6893068,85.3200625,Norvic international centre for health evaluation,,Prasuti Griha Marg,00779,Kathmandu-11,Thapathali,Kathmandu,Kathmandu,Bagmati Province,Nepal,np,© OpenStreetMap contributors,Open Database License,https://www.openstreetmap.org/copyright
69306541,1152,2019-12-21 12:12:21,27.689821666666667,85.31893166666667,11.52,3.1230775733454483,"Norvic Hospital, Prasuti Griha Marg, Thapathali, Kathmandu 00779, Nepal",27.68993785,85.31918411154355,Norvic Hospital,,Prasuti Griha Marg,00779,Kathmandu-11,Thapathali,Kathmandu,Kathmandu,Bagmati Province,Nepal,np,© OpenStreetMap contributors,Open Database License,https://www.openstreetmap.org/copyright
69525999,1152,2019-12-21 15:47:22,27.698516666666663,85.32127,17.31,33.94462873863038,"Prithivi Narayan Shah, Kathmandu, Kathmandu 44605, Nepal",27.698461,85.321609,Prithivi Narayan Shah,,,44605,,,Kathmandu,Kathmandu,Three,Nepal,np,© OpenStreetMap contributors,Open Database License,https://www.openstreetmap.org/copyright
69526493,1152,2019-12-21 15:47:52,27.696666666666665,85.32124333333333,20.51,11.979121973966992,"Singha Durbar West Stop, Kathmandu, Kathmandu 00446, Nepal",27.696566,85.3212,Singha Durbar West Stop,,,00446,,,Kathmandu,Kathmandu,Three,Nepal,np,© OpenStreetMap contributors,Open Database License,https://www.openstreetmap.org/copyright
69527275,1152,2019-12-21 15:48:39,27.694321666666667,85.32056833333333,12.55,7.104509861150375,"माइतिघर सडक, Kathmandu, Kathmandu 44617, Nepal",27.694265,85.320535,,,माइतिघर सडक,44617,,,Kathmandu,Kathmandu,Three,Nepal,np,© OpenStreetMap contributors,Open Database License,https://www.openstreetmap.org/copyright
70469383,1152,2019-12-22 07:07:49,27.70002,85.33881166666667,10.74,17.21609266791647,"Cherry on Top, Devkota Sadak, Baneshwar, Kathmandu 44703, Nepal",27.7000706,85.3386464,Cherry on Top,,Devkota Sadak,44703,Kathmandu-10,Baneshwar,Kathmandu,Kathmandu,Bagmati Province,Nepal,np,© OpenStreetMap contributors,Open Database License,https://www.openstreetmap.org/copyright
70469862,1152,2019-12-22 07:08:16,27.698985,85.33840166666667,12.11,5.196855986460473,"Presca's Cafe, Kathmandu, Kathmandu 44703, Nepal",27.698939,85.338411,Presca's Cafe,,,44703,,,Kathmandu,Kathmandu,Three,Nepal,np,© OpenStreetMap contributors,Open Database License,https://www.openstreetmap.org/copyright
