original_id,original_deviceid,original_servertime,original_latitude,original_longitude,original_speed,distance,formatted,lat,lon,name,housenumber,street,postcode,district,suburb,city,county,state,country,country_code,attribution,attribution_license,attribution_url
75224491,1153,2019-12-25 10:42:36,27.699573333333333,85.32812333333334,0.17,11.007714160353258,"Kimchi Restaurant, Tanka Prasad Ghumti Sadak, Bansh Ghari, Kathmandu 00446, Nepal",27.699666,85.328084,Kimchi Restaurant,,Tanka Prasad Ghumti Sadak,00446,Kathmandu-29,Bansh Ghari,Kathmandu,Kathmandu,Bagmati Province,Nepal,np,© OpenStreetMap contributors,Open Database License,https://www.openstreetmap.org/copyright
75225026,1153,2019-12-25 10:43:05,27.69948,85.328565,3.02,6.269125203630878,"Anamnagar Stop, Kathmandu, Kathmandu 00446, Nepal",27.699425,85.328551,Anamnagar Stop,,,00446,,,Kathmandu,Kathmandu,Three,Nepal,np,© OpenStreetMap contributors,Open Database License,https://www.openstreetmap.org/copyright
75225569,1153,2019-12-25 10:43:35,27.699348333333333,85.32894166666667,2.11,0.8884766083064695,"Anamnagar 2nd point, Tanka Prasad Ghumti Sadak, Ghattekulo, Kathmandu 00446, Nepal",27.6993514,85.32895,Anamnagar 2nd point,,Tanka Prasad Ghumti Sadak,00446,Kathmandu-29,Ghattekulo,Kathmandu,Kathmandu,Bagmati Province,Nepal,np,© OpenStreetMap contributors,Open Database License,https://www.openstreetmap.org/copyright
75226101,1153,2019-12-25 10:44:05,27.698521666666668,85.32870166666666,13.79,17.818416740784304,"Golden Crown Tours & Adventure Pvt. Ltd, Singha Durbar East Gate, Anamnagar House No. 817, Kathmandu, Kathmandu 00446, Nepal",27.698364,85.328734,Golden Crown Tours & Adventure Pvt. Ltd,House No. 817,"Singha Durbar East Gate, Anamnagar",00446,,,Kathmandu,Kathmandu,Three,Nepal,np,© OpenStreetMap contributors,Open Database License,https://www.openstreetmap.org/copyright
75226664,1153,2019-12-25 10:44:36,27.697086666666667,85.32831,9.48,19.6009640469246,"Global IME, Tanka Prasad Ghumti Sadak, Ghattekulo, Kathmandu 00446, Nepal",27.6972356,85.3284165,Global IME,,Tanka Prasad Ghumti Sadak,00446,Kathmandu-29,Ghattekulo,Kathmandu,Kathmandu,Bagmati Province,Nepal,np,© OpenStreetMap contributors,Open Database License,https://www.openstreetmap.org/copyright
75227198,1153,2019-12-25 10:45:07,27.695336666666662,85.327805,14.61,117.8931509866439,"Upveda Technology Pvt. Ltd., Tanka Prasad Ghumti Sadak 2, Ghattekulo, Kathmandu 44600, Nepal",27.69438405,85.32833065,Upveda Technology Pvt. Ltd.,2,Tanka Prasad Ghumti Sadak,44600,Kathmandu-29,Ghattekulo,Kathmandu,Kathmandu,Bagmati Province,Nepal,np,© OpenStreetMap contributors,Open Database License,https://www.openstreetmap.org/copyright
75227706,1153,2019-12-25 10:45:34,27.694198333333333,85.327675,2.37,67.77573712994955,"Upveda Technology Pvt. Ltd., Tanka Prasad Ghumti Sadak 2, Ghattekulo, Kathmandu 44600, Nepal",27.69438405,85.32833065,Upveda Technology Pvt. Ltd.,2,Tanka Prasad Ghumti Sadak,44600,Kathmandu-29,Ghattekulo,Kathmandu,Kathmandu,Bagmati Province,Nepal,np,© OpenStreetMap contributors,Open Database License,https://www.openstreetmap.org/copyright
75228254,1153,2019-12-25 10:46:04,27.693846666666666,85.32772166666666,0.8,15.141349439903582,"nepal kwanmaukan karate do association, Tanka Prasad Ghumti Sadak, Ghattekulo, Kathmandu 00446, Nepal",27.694025250000003,85.32781138341502,nepal kwanmaukan karate do association,,Tanka Prasad Ghumti Sadak,00446,Kathmandu-29,Ghattekulo,Kathmandu,Kathmandu,Bagmati Province,Nepal,np,© OpenStreetMap contributors,Open Database License,https://www.openstreetmap.org/copyright
75228821,1153,2019-12-25 10:46:34,27.693665,85.32768333333334,1.79,3.7118345787891025,"Hanumansthan Building, Tanka Prasad Ghumti Sadak, Ghattekulo, Kathmandu 00446, Nepal",27.693631449999998,85.32778650869565,Hanumansthan Building,,Tanka Prasad Ghumti Sadak,00446,Kathmandu-29,Ghattekulo,Kathmandu,Kathmandu,Bagmati Province,Nepal,np,© OpenStreetMap contributors,Open Database License,https://www.openstreetmap.org/copyright
75229372,1153,2019-12-25 10:47:04,27.69343333333333,85.327645,1.98,12.21655366640877,"Hanumanthan Stop, Kathmandu, Kathmandu 44617, Nepal",27.693515,85.327562,Hanumanthan Stop,,,44617,,,Kathmandu,Kathmandu,Three,Nepal,np,© OpenStreetMap contributors,Open Database License,https://www.openstreetmap.org/copyright
75229929,1153,2019-12-25 10:47:34,27.692958333333333,85.32796333333333,6.88,8.252752755871148,"Chitwan Sekuwa and Tass Corner, Bhaktithapa Road, Bansh Ghari, Kathmandu 44617, Nepal",27.69313635,85.32791587610669,Chitwan Sekuwa and Tass Corner,,Bhaktithapa Road,44617,Kathmandu-29,Bansh Ghari,Kathmandu,Kathmandu,Bagmati Province,Nepal,np,© OpenStreetMap contributors,Open Database License,https://www.openstreetmap.org/copyright
75230470,1153,2019-12-25 10:48:03,27.692631666666667,85.32856666666666,6.03,26.74327415631249,"Bhat-Bhateni, Bhaktithapa Road Anamnagar, Kathmandu, Kathmandu 44617, Nepal",27.692843,85.328437,Bhat-Bhateni,Anamnagar,Bhaktithapa Road,44617,,,Kathmandu,Kathmandu,Three,Nepal,np,© OpenStreetMap contributors,Open Database License,https://www.openstreetmap.org/copyright
75231020,1153,2019-12-25 10:48:33,27.692245,85.33002333333333,14.1,9.25601584780572,"Dept of Electricity Development, Kathmandu, Kathmandu 44617, Nepal",27.692223,85.330114,Dept of Electricity Development,,,44617,,,Kathmandu,Kathmandu,Three,Nepal,np,© OpenStreetMap contributors,Open Database License,https://www.openstreetmap.org/copyright
75231578,1153,2019-12-25 10:49:03,27.691861666666668,85.33166,8.3,29.807344752187685,"Suchana Prabidhi Bibhagh, Bhaktithapa Road, Buddha Nagar, Kathmandu 44617, Nepal",27.6921605,85.33149321419394,Suchana Prabidhi Bibhagh,,Bhaktithapa Road,44617,Kathmandu-10,Buddha Nagar,Kathmandu,Kathmandu,Bagmati Province,Nepal,np,© OpenStreetMap contributors,Open Database License,https://www.openstreetmap.org/copyright
75232112,1153,2019-12-25 10:49:33,27.69141,85.33297,10.18,8.159563977345615,"MoM'S KITCHEN, New Baneshwor, Kathmandu, Kathmandu 44617, Nepal",27.691482,85.332954,MoM'S KITCHEN,,New Baneshwor,44617,,,Kathmandu,Kathmandu,Three,Nepal,np,© OpenStreetMap contributors,Open Database License,https://www.openstreetmap.org/copyright
75232641,1153,2019-12-25 10:50:03,27.69110166666667,85.33401,8.12,2.372750089760721,"Thapagaun Stop, Kathmandu, Kathmandu 44617, Nepal",27.691081,85.334004,Thapagaun Stop,,,44617,,,Kathmandu,Kathmandu,Three,Nepal,np,© OpenStreetMap contributors,Open Database License,https://www.openstreetmap.org/copyright
75233163,1153,2019-12-25 10:50:32,27.69063,85.33512666666667,9.16,35.04745787598654,"Amass Computer Traders, Bhaktithapa Road 46/12, Buddha Nagar, Kathmandu 44617, Nepal",27.6906217,85.3354825,Amass Computer Traders,46/12,Bhaktithapa Road,44617,Kathmandu-10,Buddha Nagar,Kathmandu,Kathmandu,Bagmati Province,Nepal,np,© OpenStreetMap contributors,Open Database License,https://www.openstreetmap.org/copyright
75233709,1153,2019-12-25 10:51:02,27.69053,85.33533833333334,0.26,5.108025636540984,"Rojeko Dot Com Pvt Ltd, Bhaktithapa Road, Buddha Nagar, Kathmandu 44617, Nepal",27.6904447,85.33529579510304,Rojeko Dot Com Pvt Ltd,,Bhaktithapa Road,44617,Kathmandu-10,Buddha Nagar,Kathmandu,Kathmandu,Bagmati Province,Nepal,np,© OpenStreetMap contributors,Open Database License,https://www.openstreetmap.org/copyright
75234244,1153,2019-12-25 10:51:32,27.690446666666663,85.33590666666667,4.64,12.06292355335447,"Naya Baneshwar, Kathmandu, Kathmandu 44617, Nepal",27.69034,85.335929,Naya Baneshwar,,,44617,,,Kathmandu,Kathmandu,Three,Nepal,np,© OpenStreetMap contributors,Open Database License,https://www.openstreetmap.org/copyright
75234822,1153,2019-12-25 10:52:02,27.69177833333333,85.33616666666667,4.06,25.609842125844043,"Mini Market, Buddha Nagar, Kathmandu 44617, Nepal",27.69177445,85.33590659653649,Mini Market,,,44617,Kathmandu-10,Buddha Nagar,Kathmandu,Kathmandu,Bagmati Province,Nepal,np,© OpenStreetMap contributors,Open Database License,https://www.openstreetmap.org/copyright
75235347,1153,2019-12-25 10:52:31,27.69214833333333,85.33618833333334,3.07,65.42124578662037,"Yes Informatics, Devkota Sadak 10, Baneshwar, Kathmandu 44600, Nepal",27.69273655,85.33620229628806,Yes Informatics,10,Devkota Sadak,44600,Kathmandu-10,Baneshwar,Kathmandu,Kathmandu,Bagmati Province,Nepal,np,© OpenStreetMap contributors,Open Database License,https://www.openstreetmap.org/copyright
75235914,1153,2019-12-25 10:53:01,27.69228833333333,85.33631166666666,0.5,1.7704167713317793,"Eyeplex Mall, Devkota Sadak, Buddha Nagar, Kathmandu 00446, Nepal",27.6922532,85.33642284999999,Eyeplex Mall,,Devkota Sadak,00446,Kathmandu-10,Buddha Nagar,Kathmandu,Kathmandu,Bagmati Province,Nepal,np,© OpenStreetMap contributors,Open Database License,https://www.openstreetmap.org/copyright
75236445,1153,2019-12-25 10:53:31,27.692315,85.33635333333334,0.57,0,"Eyeplex Mall, Devkota Sadak, Buddha Nagar, Kathmandu 00446, Nepal",27.6922532,85.33642284999999,Eyeplex Mall,,Devkota Sadak,00446,Kathmandu-10,Buddha Nagar,Kathmandu,Kathmandu,Bagmati Province,Nepal,np,© OpenStreetMap contributors,Open Database License,https://www.openstreetmap.org/copyright
75236981,1153,2019-12-25 10:54:01,27.69232333333333,85.336355,0.15,0,"Eyeplex Mall, Devkota Sadak, Buddha Nagar, Kathmandu 00446, Nepal",27.6922532,85.33642284999999,Eyeplex Mall,,Devkota Sadak,00446,Kathmandu-10,Buddha Nagar,Kathmandu,Kathmandu,Bagmati Province,Nepal,np,© OpenStreetMap contributors,Open Database License,https://www.openstreetmap.org/copyright
75237516,1153,2019-12-25 10:54:31,27.692326666666663,85.33637833333333,0.23,0,"Eyeplex Mall, Devkota Sadak, Buddha Nagar, Kathmandu 00446, Nepal",27.6922532,85.33642284999999,Eyeplex Mall,,Devkota Sadak,00446,Kathmandu-10,Buddha Nagar,Kathmandu,Kathmandu,Bagmati Province,Nepal,np,© OpenStreetMap contributors,Open Database License,https://www.openstreetmap.org/copyright
75238048,1153,2019-12-25 10:55:00,27.69283,85.33656166666667,9.65,30.393453686605795,"Yes Informatics, Devkota Sadak 10, Baneshwar, Kathmandu 44600, Nepal",27.69273655,85.33620229628806,Yes Informatics,10,Devkota Sadak,44600,Kathmandu-10,Baneshwar,Kathmandu,Kathmandu,Bagmati Province,Nepal,np,© OpenStreetMap contributors,Open Database License,https://www.openstreetmap.org/copyright
75238571,1153,2019-12-25 10:55:30,27.694005,85.33708833333333,9.08,6.5026859133668395,"Old Whitehouse International College, Devkota Sadak, Baneshwar, Kathmandu 00446, Nepal",27.69402185,85.33730716567752,Old Whitehouse International College,,Devkota Sadak,00446,Kathmandu-10,Baneshwar,Kathmandu,Kathmandu,Bagmati Province,Nepal,np,© OpenStreetMap contributors,Open Database License,https://www.openstreetmap.org/copyright
75239113,1153,2019-12-25 10:56:00,27.695296666666668,85.33739833333334,5.54,15.923524396306833,"Internet Business Bureau, Sahabhagita Marg, Baneshwar, Kathmandu 00446, Nepal",27.69538025,85.33726700738065,Internet Business Bureau,,Sahabhagita Marg,00446,Kathmandu-10,Baneshwar,Kathmandu,Kathmandu,Bagmati Province,Nepal,np,© OpenStreetMap contributors,Open Database License,https://www.openstreetmap.org/copyright
75239635,1153,2019-12-25 10:56:30,27.69595333333333,85.337565,7.92,3.9775286907180045,"Ganga Heart Clinic, Kathmandu, Kathmandu 44703, Nepal",27.695944,85.337526,Ganga Heart Clinic,,,44703,,,Kathmandu,Kathmandu,Three,Nepal,np,© OpenStreetMap contributors,Open Database License,https://www.openstreetmap.org/copyright
75240163,1153,2019-12-25 10:57:00,27.697265,85.33784333333334,12.47,7.155179492170656,"Hearten Cafe, Kathmandu, Kathmandu 44703, Nepal",27.697266,85.337916,Hearten Cafe,,,44703,,,Kathmandu,Kathmandu,Three,Nepal,np,© OpenStreetMap contributors,Open Database License,https://www.openstreetmap.org/copyright
75240708,1153,2019-12-25 10:57:30,27.698415,85.33811333333334,0.08,12.593563497883508,"everest bank limited, Devkota Sadak, Baneshwar, Kathmandu 44703, Nepal",27.6983199,85.3381828,everest bank limited,,Devkota Sadak,44703,Kathmandu-10,Baneshwar,Kathmandu,Kathmandu,Bagmati Province,Nepal,np,© OpenStreetMap contributors,Open Database License,https://www.openstreetmap.org/copyright
75241239,1153,2019-12-25 10:57:59,27.698415,85.33811,0.48,12.774758858886559,"everest bank limited, Devkota Sadak, Baneshwar, Kathmandu 44703, Nepal",27.6983199,85.3381828,everest bank limited,,Devkota Sadak,44703,Kathmandu-10,Baneshwar,Kathmandu,Kathmandu,Bagmati Province,Nepal,np,© OpenStreetMap contributors,Open Database License,https://www.openstreetmap.org/copyright
75241789,1153,2019-12-25 10:58:29,27.698426666666663,85.33812166666667,0.23,13.308763093441712,"Royal Digital Studio, Devkota Sadak, Kathmandu, Kathmandu 44703, Nepal",27.698475,85.337998,Royal Digital Studio,,Devkota Sadak,44703,,,Kathmandu,Kathmandu,Three,Nepal,np,© OpenStreetMap contributors,Open Database License,https://www.openstreetmap.org/copyright
75242354,1153,2019-12-25 10:58:59,27.699231666666662,85.33837333333334,3.96,8.122759852459613,"Ever Green Restaurant and Cafe, Kathmandu, Kathmandu 44703, Nepal",27.699247,85.338454,Ever Green Restaurant and Cafe,,,44703,,,Kathmandu,Kathmandu,Three,Nepal,np,© OpenStreetMap contributors,Open Database License,https://www.openstreetmap.org/copyright
75242915,1153,2019-12-25 10:59:30,27.700201666666665,85.338915,0.11,11.426678056783851,"Global College, Devkota Sadak, Baneshwar, Kathmandu 44703, Nepal",27.7001962,85.3390309,Global College,,Devkota Sadak,44703,Kathmandu-10,Baneshwar,Kathmandu,Kathmandu,Bagmati Province,Nepal,np,© OpenStreetMap contributors,Open Database License,https://www.openstreetmap.org/copyright
75243457,1153,2019-12-25 10:59:58,27.70022,85.33892166666666,0.04,11.074995531818423,"Global College, Devkota Sadak, Baneshwar, Kathmandu 44703, Nepal",27.7001962,85.3390309,Global College,,Devkota Sadak,44703,Kathmandu-10,Baneshwar,Kathmandu,Kathmandu,Bagmati Province,Nepal,np,© OpenStreetMap contributors,Open Database License,https://www.openstreetmap.org/copyright
75244097,1153,2019-12-25 11:00:34,27.700435,85.33916333333333,5.4,5.415189219649281,"SAIM College, Devkota Sadak, Baneshwar, Kathmandu 44703, Nepal",27.7004709,85.3392005,SAIM College,,Devkota Sadak,44703,Kathmandu-10,Baneshwar,Kathmandu,Kathmandu,Bagmati Province,Nepal,np,© OpenStreetMap contributors,Open Database License,https://www.openstreetmap.org/copyright
75244514,1153,2019-12-25 11:00:58,27.70066,85.33964666666667,3.36,5.677022858228646,"Tempo Stop Near Old Baneshwar, Kathmandu, Kathmandu 44703, Nepal",27.700609,85.339644,Tempo Stop Near Old Baneshwar,,,44703,,,Kathmandu,Kathmandu,Three,Nepal,np,© OpenStreetMap contributors,Open Database License,https://www.openstreetmap.org/copyright
75245052,1153,2019-12-25 11:01:28,27.700805,85.33971,0.04,8.192023373776046,"Bina Gold Plated Jewellary, Devkota Sadak, Baneshwar, Kathmandu 44703, Nepal",27.7007961,85.3397926,Bina Gold Plated Jewellary,,Devkota Sadak,44703,Kathmandu-10,Baneshwar,Kathmandu,Kathmandu,Bagmati Province,Nepal,np,© OpenStreetMap contributors,Open Database License,https://www.openstreetmap.org/copyright
75245582,1153,2019-12-25 11:01:58,27.700816666666668,85.33972666666666,0.21,6.6767397883760955,"Elite Pathology Clinic & dental House, Devkota Sadak, Baneshwar, Kathmandu 44703, Nepal",27.7008461,85.33985661390533,Elite Pathology Clinic & dental House,,Devkota Sadak,44703,Kathmandu-10,Baneshwar,Kathmandu,Kathmandu,Bagmati Province,Nepal,np,© OpenStreetMap contributors,Open Database License,https://www.openstreetmap.org/copyright
75246265,1153,2019-12-25 11:02:35,27.700835,85.33975166666667,0.01,4.92099691308888,"Elite Pathology Clinic & dental House, Devkota Sadak, Baneshwar, Kathmandu 44703, Nepal",27.7008461,85.33985661390533,Elite Pathology Clinic & dental House,,Devkota Sadak,44703,Kathmandu-10,Baneshwar,Kathmandu,Kathmandu,Bagmati Province,Nepal,np,© OpenStreetMap contributors,Open Database License,https://www.openstreetmap.org/copyright
75246672,1153,2019-12-25 11:02:57,27.700835,85.339755,0.08,4.61610688634846,"Elite Pathology Clinic & dental House, Devkota Sadak, Baneshwar, Kathmandu 44703, Nepal",27.7008461,85.33985661390533,Elite Pathology Clinic & dental House,,Devkota Sadak,44703,Kathmandu-10,Baneshwar,Kathmandu,Kathmandu,Bagmati Province,Nepal,np,© OpenStreetMap contributors,Open Database License,https://www.openstreetmap.org/copyright
75247198,1153,2019-12-25 11:03:27,27.700846666666667,85.339755,0.02,5.095992497129973,"Elite Pathology Clinic & dental House, Devkota Sadak, Baneshwar, Kathmandu 44703, Nepal",27.7008461,85.33985661390533,Elite Pathology Clinic & dental House,,Devkota Sadak,44703,Kathmandu-10,Baneshwar,Kathmandu,Kathmandu,Bagmati Province,Nepal,np,© OpenStreetMap contributors,Open Database License,https://www.openstreetmap.org/copyright
75247729,1153,2019-12-25 11:03:57,27.70085333333333,85.33976,0.04,4.9128778279950955,"Elite Pathology Clinic & dental House, Devkota Sadak, Baneshwar, Kathmandu 44703, Nepal",27.7008461,85.33985661390533,Elite Pathology Clinic & dental House,,Devkota Sadak,44703,Kathmandu-10,Baneshwar,Kathmandu,Kathmandu,Bagmati Province,Nepal,np,© OpenStreetMap contributors,Open Database License,https://www.openstreetmap.org/copyright
75248251,1153,2019-12-25 11:04:26,27.70083,85.339765,0.07,3.495771499589868,"Elite Pathology Clinic & dental House, Devkota Sadak, Baneshwar, Kathmandu 44703, Nepal",27.7008461,85.33985661390533,Elite Pathology Clinic & dental House,,Devkota Sadak,44703,Kathmandu-10,Baneshwar,Kathmandu,Kathmandu,Bagmati Province,Nepal,np,© OpenStreetMap contributors,Open Database License,https://www.openstreetmap.org/copyright
75248789,1153,2019-12-25 11:04:56,27.700816666666668,85.33975,0.08,4.404520139956705,"Elite Pathology Clinic & dental House, Devkota Sadak, Baneshwar, Kathmandu 44703, Nepal",27.7008461,85.33985661390533,Elite Pathology Clinic & dental House,,Devkota Sadak,44703,Kathmandu-10,Baneshwar,Kathmandu,Kathmandu,Bagmati Province,Nepal,np,© OpenStreetMap contributors,Open Database License,https://www.openstreetmap.org/copyright
75249353,1153,2019-12-25 11:05:26,27.700816666666668,85.33975333333333,0.02,4.082198966523547,"Elite Pathology Clinic & dental House, Devkota Sadak, Baneshwar, Kathmandu 44703, Nepal",27.7008461,85.33985661390533,Elite Pathology Clinic & dental House,,Devkota Sadak,44703,Kathmandu-10,Baneshwar,Kathmandu,Kathmandu,Bagmati Province,Nepal,np,© OpenStreetMap contributors,Open Database License,https://www.openstreetmap.org/copyright
75249906,1153,2019-12-25 11:05:57,27.70083,85.33976,0.06,3.953106546902699,"Elite Pathology Clinic & dental House, Devkota Sadak, Baneshwar, Kathmandu 44703, Nepal",27.7008461,85.33985661390533,Elite Pathology Clinic & dental House,,Devkota Sadak,44703,Kathmandu-10,Baneshwar,Kathmandu,Kathmandu,Bagmati Province,Nepal,np,© OpenStreetMap contributors,Open Database License,https://www.openstreetmap.org/copyright
75250482,1153,2019-12-25 11:06:29,27.700848333333333,85.33977166666666,0.05,3.6400976135679706,"Elite Pathology Clinic & dental House, Devkota Sadak, Baneshwar, Kathmandu 44703, Nepal",27.7008461,85.33985661390533,Elite Pathology Clinic & dental House,,Devkota Sadak,44703,Kathmandu-10,Baneshwar,Kathmandu,Kathmandu,Bagmati Province,Nepal,np,© OpenStreetMap contributors,Open Database License,https://www.openstreetmap.org/copyright
75250989,1153,2019-12-25 11:06:55,27.70085333333333,85.33975166666667,0.31,5.675102797420366,"Elite Pathology Clinic & dental House, Devkota Sadak, Baneshwar, Kathmandu 44703, Nepal",27.7008461,85.33985661390533,Elite Pathology Clinic & dental House,,Devkota Sadak,44703,Kathmandu-10,Baneshwar,Kathmandu,Kathmandu,Bagmati Province,Nepal,np,© OpenStreetMap contributors,Open Database License,https://www.openstreetmap.org/copyright
75251565,1153,2019-12-25 11:07:25,27.701325,85.33997666666667,2.9,13.782740013225268,"burger king, Kathmandu, Kathmandu 44703, Nepal",27.701209,85.340026,burger king,,,44703,,,Kathmandu,Kathmandu,Three,Nepal,np,© OpenStreetMap contributors,Open Database License,https://www.openstreetmap.org/copyright
75443993,1153,2019-12-25 14:11:08,27.70795833333333,85.33974333333333,16.74,9.374219419083882,"Cosmos Diagonosis and Research Centre, Pashupati Sadak, Chabahil, Kathmandu 44660, Nepal",27.70814865,85.33979338472814,Cosmos Diagonosis and Research Centre,,Pashupati Sadak,44660,Kathmandu-07,Chabahil,Kathmandu,Kathmandu,Bagmati Province,Nepal,np,© OpenStreetMap contributors,Open Database License,https://www.openstreetmap.org/copyright
75444477,1153,2019-12-25 14:11:36,27.70805333333333,85.33761,11.91,11.820082065289954,"The Great Malika, Pashupati Sadak, Chabahil, Kathmandu 44660, Nepal",27.70816285,85.337752,The Great Malika,,Pashupati Sadak,44660,Kathmandu-07,Chabahil,Kathmandu,Kathmandu,Bagmati Province,Nepal,np,© OpenStreetMap contributors,Open Database License,https://www.openstreetmap.org/copyright
75444988,1153,2019-12-25 14:12:06,27.70809,85.33636166666666,11.94,8.61541100176825,"Ratopul, Kathmandu, Kathmandu 44605, Nepal",27.708085,85.336449,Ratopul,,,44605,,,Kathmandu,Kathmandu,Three,Nepal,np,© OpenStreetMap contributors,Open Database License,https://www.openstreetmap.org/copyright
75445489,1153,2019-12-25 14:12:36,27.7082,85.33458833333333,16.13,2.070874642171783,"Madan dai workshop, Pashupati Sadak, Maitidevi, Kathmandu 44605, Nepal",27.7082117,85.3346047,Madan dai workshop,,Pashupati Sadak,44605,Kathmandu-30,Maitidevi,Kathmandu,Kathmandu,Bagmati Province,Nepal,np,© OpenStreetMap contributors,Open Database License,https://www.openstreetmap.org/copyright
75445997,1153,2019-12-25 14:13:06,27.708491666666667,85.33249666666667,12.73,3.1690846172723957,"Maitidevi, Kathmandu 44605, Nepal",27.7086373,85.3319646,,,,44605,Kathmandu-30,Maitidevi,Kathmandu,Kathmandu,Bagmati Province,Nepal,np,© OpenStreetMap contributors,Open Database License,https://www.openstreetmap.org/copyright
75446497,1153,2019-12-25 14:13:35,27.708975,85.330555,9.82,28.543678595928675,"KRISHNA BOUTIQUE, Pashupati Sadak 494, Maitidevi, Kathmandu 44605, Nepal",27.7089307,85.3302694,KRISHNA BOUTIQUE,494,Pashupati Sadak,44605,Kathmandu-30,Maitidevi,Kathmandu,Kathmandu,Bagmati Province,Nepal,np,© OpenStreetMap contributors,Open Database License,https://www.openstreetmap.org/copyright
75447001,1153,2019-12-25 14:14:05,27.709305,85.32891833333333,10.25,9.43878753416133,"NIC Asia Bank, Pashupati Sadak, Maitidevi, Kathmandu 44605, Nepal",27.7093697,85.3289804,NIC Asia Bank,,Pashupati Sadak,44605,Kathmandu-30,Maitidevi,Kathmandu,Kathmandu,Bagmati Province,Nepal,np,© OpenStreetMap contributors,Open Database License,https://www.openstreetmap.org/copyright
75447499,1153,2019-12-25 14:14:35,27.709476666666667,85.32796833333333,3.93,17.57964422357964,"prime bank, Pashupati Sadak, Maitidevi, Kathmandu 44605, Nepal",27.7095641,85.32815891197183,prime bank,,Pashupati Sadak,44605,Kathmandu-30,Maitidevi,Kathmandu,Kathmandu,Bagmati Province,Nepal,np,© OpenStreetMap contributors,Open Database License,https://www.openstreetmap.org/copyright
75447999,1153,2019-12-25 14:15:05,27.708078333333333,85.32746666666667,14.45,1.6716410261012016,"Lavish Decor, Kathmandu, Kathmandu 44605, Nepal",27.708068,85.327479,Lavish Decor,,,44605,,,Kathmandu,Kathmandu,Three,Nepal,np,© OpenStreetMap contributors,Open Database License,https://www.openstreetmap.org/copyright
75448491,1153,2019-12-25 14:15:34,27.706523333333333,85.32698166666667,5.14,11.572973721048678,"ChaarKhaal, Gurju Marg, Dillibazar, Kathmandu 44605, Nepal",27.706210900000002,85.32734983783489,ChaarKhaal,,Gurju Marg,44605,Kathmandu-30,Dillibazar,Kathmandu,Kathmandu,Bagmati Province,Nepal,np,© OpenStreetMap contributors,Open Database License,https://www.openstreetmap.org/copyright
75448995,1153,2019-12-25 14:16:04,27.70659833333333,85.32661333333333,1.29,4.819843657150036,"Maple School, Gurju Marg, Dillibazar, Kathmandu 44605, Nepal",27.70661875,85.32650781878466,Maple School,,Gurju Marg,44605,Kathmandu-30,Dillibazar,Kathmandu,Kathmandu,Bagmati Province,Nepal,np,© OpenStreetMap contributors,Open Database License,https://www.openstreetmap.org/copyright
75449502,1153,2019-12-25 14:16:34,27.706886666666666,85.32709666666666,12.31,36.49346998821115,"Siddhi Poly Path Lab, Lokpriya Marga, Dillibazar, Kathmandu 44605, Nepal",27.7072117,85.32704534999999,Siddhi Poly Path Lab,,Lokpriya Marga,44605,Kathmandu-30,Dillibazar,Kathmandu,Kathmandu,Bagmati Province,Nepal,np,© OpenStreetMap contributors,Open Database License,https://www.openstreetmap.org/copyright
75450017,1153,2019-12-25 14:17:04,27.708961666666667,85.32761,14.77,0.2050169632952967,"Dillibazar, Kathmandu 44605, Nepal",27.7089668,85.327327,,,,44605,Kathmandu-30,Dillibazar,Kathmandu,Kathmandu,Bagmati Province,Nepal,np,© OpenStreetMap contributors,Open Database License,https://www.openstreetmap.org/copyright
75450521,1153,2019-12-25 14:17:34,27.709285,85.327725,3.37,17.180775377006544,"Ganesh Mandir, Thirbam Sadak 3, Dillibazar, Kathmandu 44605, Nepal",27.7091649,85.3276152,Ganesh Mandir,,Thirbam Sadak 3,44605,Kathmandu-30,Dillibazar,Kathmandu,Kathmandu,Bagmati Province,Nepal,np,© OpenStreetMap contributors,Open Database License,https://www.openstreetmap.org/copyright
75451018,1153,2019-12-25 14:18:03,27.709668333333333,85.32781666666666,3.41,5.506273274644045,"Angan, Kathmandu, Kathmandu 44605, Nepal",27.709717,85.327827,Angan,,,44605,,,Kathmandu,Kathmandu,Three,Nepal,np,© OpenStreetMap contributors,Open Database License,https://www.openstreetmap.org/copyright
75451520,1153,2019-12-25 14:18:33,27.71085666666667,85.32816833333334,8.64,2.7398356126748413,"OMG, Thirbam Sadak 3, Narayan Chaur, Kathmandu 44605, Nepal",27.7108323,85.3281642,OMG,,Thirbam Sadak 3,44605,Kathmandu-01,Narayan Chaur,Kathmandu,Kathmandu,Bagmati Province,Nepal,np,© OpenStreetMap contributors,Open Database License,https://www.openstreetmap.org/copyright
75478302,1153,2019-12-25 14:44:52,27.70967333333333,85.327875,1.14,6.77525121413616,"Angan, Kathmandu, Kathmandu 44605, Nepal",27.709717,85.327827,Angan,,,44605,,,Kathmandu,Kathmandu,Three,Nepal,np,© OpenStreetMap contributors,Open Database License,https://www.openstreetmap.org/copyright
75478803,1153,2019-12-25 14:45:22,27.709635,85.32739,10.65,10.579907048172085,"Kathmandu Fast Food, Kathmandu, Kathmandu 44605, Nepal",27.709566,85.327316,Kathmandu Fast Food,,,44605,,,Kathmandu,Kathmandu,Three,Nepal,np,© OpenStreetMap contributors,Open Database License,https://www.openstreetmap.org/copyright
75479307,1153,2019-12-25 14:45:52,27.709835,85.32647333333334,4.57,21.026350932988624,"Mazda, Pashupati Sadak, Narayan Chaur, Kathmandu 44605, Nepal",27.7098322,85.3266869,Mazda,,Pashupati Sadak,44605,Kathmandu-01,Narayan Chaur,Kathmandu,Kathmandu,Bagmati Province,Nepal,np,© OpenStreetMap contributors,Open Database License,https://www.openstreetmap.org/copyright
75479817,1153,2019-12-25 14:46:22,27.70976,85.32624833333334,4.13,60.354661347346685,"Sandar MoMo, Pashupati Sadak P85G+X8C, Narayan Chaur, Kathmandu 44600, Nepal",27.7099127,85.32566,Sandar MoMo,P85G+X8C,Pashupati Sadak,44600,Kathmandu-01,Narayan Chaur,Kathmandu,Kathmandu,Bagmati Province,Nepal,np,© OpenStreetMap contributors,Open Database License,https://www.openstreetmap.org/copyright
75480318,1153,2019-12-25 14:46:51,27.70928333333333,85.32562166666666,12.67,70.08414540749641,"Sandar MoMo, Pashupati Sadak P85G+X8C, Narayan Chaur, Kathmandu 44600, Nepal",27.7099127,85.32566,Sandar MoMo,P85G+X8C,Pashupati Sadak,44600,Kathmandu-01,Narayan Chaur,Kathmandu,Kathmandu,Bagmati Province,Nepal,np,© OpenStreetMap contributors,Open Database License,https://www.openstreetmap.org/copyright
75480817,1153,2019-12-25 14:47:21,27.70893833333333,85.324535,3.12,33.21928058840718,"Eurasia Reiyukai, putalisadak 278, Kathmandu, Kathmandu 46600, Nepal",27.70889,85.324202,Eurasia Reiyukai,278,putalisadak,46600,,,Kathmandu,Kathmandu,Three,Nepal,np,© OpenStreetMap contributors,Open Database License,https://www.openstreetmap.org/copyright
75481316,1153,2019-12-25 14:47:51,27.708755,85.32403,4.38,2.9535888499360916,"Snow Apex Academy, Dhobidhara Marg, Narayan Chaur, Kathmandu 46600, Nepal",27.70901465,85.3241011499047,Snow Apex Academy,,Dhobidhara Marg,46600,Kathmandu-01,Narayan Chaur,Kathmandu,Kathmandu,Bagmati Province,Nepal,np,© OpenStreetMap contributors,Open Database License,https://www.openstreetmap.org/copyright
75481818,1153,2019-12-25 14:48:21,27.70832833333333,85.32369666666666,4.65,15.70858618126729,"Dhobidhara Marga 246, Kathmandu, Kathmandu 46600, Nepal",27.708272,85.323843,,246,Dhobidhara Marga,46600,,,Kathmandu,Kathmandu,Three,Nepal,np,© OpenStreetMap contributors,Open Database License,https://www.openstreetmap.org/copyright
75482323,1153,2019-12-25 14:48:51,27.707428333333333,85.32334166666666,6.24,10.963410070028372,"Gurung Store, Dhobidhara Marg, Narayan Chaur, Kathmandu 46600, Nepal",27.7074173,85.323231,Gurung Store,,Dhobidhara Marg,46600,Kathmandu-01,Narayan Chaur,Kathmandu,Kathmandu,Bagmati Province,Nepal,np,© OpenStreetMap contributors,Open Database License,https://www.openstreetmap.org/copyright
75482828,1153,2019-12-25 14:49:21,27.706713333333333,85.32299666666667,8.1,5.559677493006102,"Global Education Foundation Pvt.Ltd, Putali Sadak, Dillibazar, Kathmandu 46600, Nepal",27.7066998,85.3229423,Global Education Foundation Pvt.Ltd,,Putali Sadak,46600,Kathmandu-28,Dillibazar,Kathmandu,Kathmandu,Bagmati Province,Nepal,np,© OpenStreetMap contributors,Open Database License,https://www.openstreetmap.org/copyright
75483345,1153,2019-12-25 14:49:51,27.70634666666667,85.32293333333334,1.21,0,"Nepal Investment Mega Bank Ltd, Putali Sadak, Dillibazar, Kathmandu 46600, Nepal",27.70626755,85.32297015,Nepal Investment Mega Bank Ltd,,Putali Sadak,46600,Kathmandu-30,Dillibazar,Kathmandu,Kathmandu,Bagmati Province,Nepal,np,© OpenStreetMap contributors,Open Database License,https://www.openstreetmap.org/copyright
75483835,1153,2019-12-25 14:50:20,27.70631833333333,85.32291166666667,0.16,1.1822649315437077,"Nepal Investment Mega Bank Ltd, Putali Sadak, Dillibazar, Kathmandu 46600, Nepal",27.70626755,85.32297015,Nepal Investment Mega Bank Ltd,,Putali Sadak,46600,Kathmandu-30,Dillibazar,Kathmandu,Kathmandu,Bagmati Province,Nepal,np,© OpenStreetMap contributors,Open Database License,https://www.openstreetmap.org/copyright
75484381,1153,2019-12-25 14:50:50,27.705221666666667,85.32287,15.07,1.181941762299927,"Joshi Photo Process and Digital Studio, Kathmandu, Kathmandu 46600, Nepal",27.705222,85.322882,Joshi Photo Process and Digital Studio,,,46600,,,Kathmandu,Kathmandu,Three,Nepal,np,© OpenStreetMap contributors,Open Database License,https://www.openstreetmap.org/copyright
75484961,1153,2019-12-25 14:51:19,27.704138333333333,85.3227,0.08,1.3189817315295747,"nepal store private ltd., Kathmandu Metropolitan City, Kathmandu 44605, Nepal",27.7040641,85.32280247136259,nepal store private ltd.,,,44605,Kathmandu-29,,Kathmandu Metropolitan City,Kathmandu,Bagmati Province,Nepal,np,© OpenStreetMap contributors,Open Database License,https://www.openstreetmap.org/copyright
75485497,1153,2019-12-25 14:51:49,27.702885,85.32248833333334,13.27,8.361486248692565,"Nise Pharma, Putali Sadak, Bansh Ghari, Kathmandu 46600, Nepal",27.702921,85.3225629,Nise Pharma,,Putali Sadak,46600,Kathmandu-29,Bansh Ghari,Kathmandu,Kathmandu,Bagmati Province,Nepal,np,© OpenStreetMap contributors,Open Database License,https://www.openstreetmap.org/copyright
75486028,1153,2019-12-25 14:52:19,27.70086833333333,85.32219,16.93,14.586740796864877,"Manjusiri Pustak Griha, Ram Shah Path, Baghbazar, Kathmandu 44605, Nepal",27.700846,85.322044,Manjusiri Pustak Griha,,Ram Shah Path,44605,Kathmandu-28,Baghbazar,Kathmandu,Kathmandu,Bagmati Province,Nepal,np,© OpenStreetMap contributors,Open Database License,https://www.openstreetmap.org/copyright
75486543,1153,2019-12-25 14:52:49,27.69842833333333,85.32169166666667,11.8,0,"Singh Durbar, Saras Marg, Ghattekulo, Kathmandu 00446, Nepal",27.696478149999997,85.32461913495442,Singh Durbar,,Saras Marg,00446,Kathmandu-29,Ghattekulo,Kathmandu,Kathmandu,Bagmati Province,Nepal,np,© OpenStreetMap contributors,Open Database License,https://www.openstreetmap.org/copyright
75487059,1153,2019-12-25 14:53:19,27.696141666666666,85.321165,17.98,0,"Singh Durbar, Saras Marg, Ghattekulo, Kathmandu 00446, Nepal",27.696478149999997,85.32461913495442,Singh Durbar,,Saras Marg,00446,Kathmandu-29,Ghattekulo,Kathmandu,Kathmandu,Bagmati Province,Nepal,np,© OpenStreetMap contributors,Open Database License,https://www.openstreetmap.org/copyright
75487550,1153,2019-12-25 14:53:48,27.69453333333333,85.32081,0.15,5.23792726720731,"Pandit and Associates -Auditfirm- Office Of The Notary Public, Madan Bhandari Path, Thapathali, Kathmandu 44617, Nepal",27.6945573,85.3208558,Pandit and Associates -Auditfirm- Office Of The Notary Public,,Madan Bhandari Path,44617,Kathmandu-11,Thapathali,Kathmandu,Kathmandu,Bagmati Province,Nepal,np,© OpenStreetMap contributors,Open Database License,https://www.openstreetmap.org/copyright
75488045,1153,2019-12-25 14:54:18,27.694436666666668,85.32077166666667,3.53,5.061251651696586,"Asia Law Chamber, Madan Bhandari Path, Thapathali, Kathmandu 44617, Nepal",27.694427,85.3208219,Asia Law Chamber,,Madan Bhandari Path,44617,Kathmandu-11,Thapathali,Kathmandu,Kathmandu,Bagmati Province,Nepal,np,© OpenStreetMap contributors,Open Database License,https://www.openstreetmap.org/copyright
75488545,1153,2019-12-25 14:54:48,27.694,85.31932333333333,15.3,4.030979696656595,"Maitighar Bus Stop, Thapathali Road, Thapathali, Kathmandu 00779, Nepal",27.693971,85.3193479,Maitighar Bus Stop,,Thapathali Road,00779,Kathmandu-11,Thapathali,Kathmandu,Kathmandu,Bagmati Province,Nepal,np,© OpenStreetMap contributors,Open Database License,https://www.openstreetmap.org/copyright
76968713,1153,2019-12-26 14:59:32,27.68802,85.33738166666667,9.31,4.195527256883616,"Minbhawan, Kathmandu 44617, Nepal",27.688044,85.3371095,,,,44617,Kathmandu-31,Minbhawan,Kathmandu,Kathmandu,Bagmati Province,Nepal,np,© OpenStreetMap contributors,Open Database License,https://www.openstreetmap.org/copyright
76969219,1153,2019-12-26 15:00:02,27.68857833333333,85.338585,15.09,21.57313015871392,"Trolly Bus Station, Minbhawan Marg, Naya Baneshwar, Kathmandu 44703, Nepal",27.68853845,85.33913890070258,Trolly Bus Station,,Minbhawan Marg,44703,Kathmandu-31,Naya Baneshwar,Kathmandu,Kathmandu,Bagmati Province,Nepal,np,© OpenStreetMap contributors,Open Database License,https://www.openstreetmap.org/copyright
76969737,1153,2019-12-26 15:00:32,27.690256666666667,85.33887,10.89,73.86187416089365,"Fsquare Innomotive Cafe, Sri Ekata Marg 31, Naya Baneshwar, Kathmandu 44703, Nepal",27.6909208,85.33885565,Fsquare Innomotive Cafe,31,Sri Ekata Marg,44703,Kathmandu-31,Naya Baneshwar,Kathmandu,Kathmandu,Bagmati Province,Nepal,np,© OpenStreetMap contributors,Open Database License,https://www.openstreetmap.org/copyright
76970263,1153,2019-12-26 15:01:01,27.691181666666665,85.33878833333333,6.2,24.258649050572934,"Fsquare Innomotive Cafe, Sri Ekata Marg 31, Naya Baneshwar, Kathmandu 44703, Nepal",27.6909208,85.33885565,Fsquare Innomotive Cafe,31,Sri Ekata Marg,44703,Kathmandu-31,Naya Baneshwar,Kathmandu,Kathmandu,Bagmati Province,Nepal,np,© OpenStreetMap contributors,Open Database License,https://www.openstreetmap.org/copyright
76970766,1153,2019-12-26 15:01:31,27.69156,85.33850833333334,1.47,78.86941712013534,"Fsquare Innomotive Cafe, Sri Ekata Marg 31, Kathmandu, Kathmandu 44703, Nepal",27.690921,85.338856,Fsquare Innomotive Cafe,31,Sri Ekata Marg,44703,,,Kathmandu,Kathmandu,Three,Nepal,np,© OpenStreetMap contributors,Open Database License,https://www.openstreetmap.org/copyright
76971273,1153,2019-12-26 15:02:01,27.691611666666667,85.33819666666666,0.01,100.55481144195183,"Fsquare Innomotive Cafe, Sri Ekata Marg 31, Naya Baneshwar, Kathmandu 44703, Nepal",27.6909208,85.33885565,Fsquare Innomotive Cafe,31,Sri Ekata Marg,44703,Kathmandu-31,Naya Baneshwar,Kathmandu,Kathmandu,Bagmati Province,Nepal,np,© OpenStreetMap contributors,Open Database License,https://www.openstreetmap.org/copyright
76971773,1153,2019-12-26 15:02:31,27.69143833333333,85.33777166666667,3.81,16.11212092021541,"Har Din Bachat Finance, Kathmandu, Kathmandu 44703, Nepal",27.691542,85.337886,Har Din Bachat Finance,,,44703,,,Kathmandu,Kathmandu,Three,Nepal,np,© OpenStreetMap contributors,Open Database License,https://www.openstreetmap.org/copyright
76972273,1153,2019-12-26 15:03:00,27.691026666666662,85.337245,3.81,24.986965799462315,"Samaj Dental Care, Kathmandu, Kathmandu 44617, Nepal",27.690893,85.337041,Samaj Dental Care,,,44617,,,Kathmandu,Kathmandu,Three,Nepal,np,© OpenStreetMap contributors,Open Database License,https://www.openstreetmap.org/copyright
76972787,1153,2019-12-26 15:03:30,27.690736666666663,85.33607,10.26,10.383665341328093,"Nepal Investment Bank, Old Baneshwor Road, Buddha Nagar, Kathmandu 44617, Nepal",27.69068915,85.33632049088116,Nepal Investment Bank,,Old Baneshwor Road,44617,Kathmandu-10,Buddha Nagar,Kathmandu,Kathmandu,Bagmati Province,Nepal,np,© OpenStreetMap contributors,Open Database License,https://www.openstreetmap.org/copyright
76973285,1153,2019-12-26 15:04:00,27.688491666666668,85.33562,9.67,13.510046224232497,"Naya Baneshwar Sadak, Kathmandu, Kathmandu 44617, Nepal",27.688376,85.335578,,,Naya Baneshwar Sadak,44617,,,Kathmandu,Kathmandu,Three,Nepal,np,© OpenStreetMap contributors,Open Database License,https://www.openstreetmap.org/copyright
76973918,1153,2019-12-26 15:04:37,27.68847166666667,85.33462333333334,18.58,9.027568739012523,"Naya Baneshwar Bus Station, Kathmandu, Kathmandu 44617, Nepal",27.68847,85.334715,Naya Baneshwar Bus Station,,,44617,,,Kathmandu,Kathmandu,Three,Nepal,np,© OpenStreetMap contributors,Open Database License,https://www.openstreetmap.org/copyright
76974310,1153,2019-12-26 15:05:00,27.689236666666663,85.33121166666666,25.46,70.0701208216622,"Kantipur Handicrafts, Shram Marg 340, Buddha Nagar, Kathmandu 44617, Nepal",27.6886091,85.3312761,Kantipur Handicrafts,340,Shram Marg,44617,Kathmandu-10,Buddha Nagar,Kathmandu,Kathmandu,Bagmati Province,Nepal,np,© OpenStreetMap contributors,Open Database License,https://www.openstreetmap.org/copyright
76974838,1153,2019-12-26 15:05:30,27.690371666666667,85.32835833333333,19.63,2.2271033939081573,"Bijulibazar bridge, Kathmandu, Kathmandu 44617, Nepal",27.690389,85.328347,,,Bijulibazar bridge,44617,,,Kathmandu,Kathmandu,Three,Nepal,np,© OpenStreetMap contributors,Open Database License,https://www.openstreetmap.org/copyright
76975323,1153,2019-12-26 15:05:59,27.69201333333333,85.32490166666666,26.81,40.149858916621504,"Civil Aviation Authority of Nepal, Madan Bhandari Path, Kathmandu, Kathmandu 44617, Nepal",27.6923696,85.324968,Civil Aviation Authority of Nepal,,Madan Bhandari Path,44617,Kathmandu-11,,Kathmandu,Kathmandu,Bagmati Province,Nepal,np,© OpenStreetMap contributors,Open Database License,https://www.openstreetmap.org/copyright
76975815,1153,2019-12-26 15:06:29,27.693426666666667,85.32187666666667,24.31,53.06198528430996,"Watrin Hall, Ukti Marga, Kathmandu, Kathmandu 44617, Nepal",27.69303075,85.32157580594316,Watrin Hall,,Ukti Marga,44617,Kathmandu-11,,Kathmandu,Kathmandu,Bagmati Province,Nepal,np,© OpenStreetMap contributors,Open Database License,https://www.openstreetmap.org/copyright
76976303,1153,2019-12-26 15:06:59,27.694088333333333,85.31937166666667,14.86,8.23939935578943,"Nepal Food Corporation, Thapathali Road, Thapathali, Kathmandu 44617, Nepal",27.6932088,85.319650891967,Nepal Food Corporation,,Thapathali Road,44617,Kathmandu-11,Thapathali,Kathmandu,Kathmandu,Bagmati Province,Nepal,np,© OpenStreetMap contributors,Open Database License,https://www.openstreetmap.org/copyright
78253164,1153,2019-12-27 11:42:44,27.707971666666666,85.33993833333334,15.97,11.721554727798745,"S and S Meat Shop, Kathmandu, Kathmandu 44660, Nepal",27.708077,85.339943,S and S Meat Shop,,,44660,,,Kathmandu,Kathmandu,Three,Nepal,np,© OpenStreetMap contributors,Open Database License,https://www.openstreetmap.org/copyright
78253727,1153,2019-12-27 11:43:14,27.708036666666665,85.33817333333333,3.62,5.522023932195227,"Nice Tailor, Pashupati Sadak, Chabahil, Kathmandu 44660, Nepal",27.708124249999997,85.33812175,Nice Tailor,,Pashupati Sadak,44660,Kathmandu-07,Chabahil,Kathmandu,Kathmandu,Bagmati Province,Nepal,np,© OpenStreetMap contributors,Open Database License,https://www.openstreetmap.org/copyright
78254296,1153,2019-12-27 11:43:43,27.708021666666667,85.33793666666666,0.13,10.117448488965724,"Fruit Store, Kathmandu, Kathmandu 44660, Nepal",27.708107,85.337901,Fruit Store,,,44660,,,Kathmandu,Kathmandu,Three,Nepal,np,© OpenStreetMap contributors,Open Database License,https://www.openstreetmap.org/copyright
78254826,1153,2019-12-27 11:44:13,27.70801,85.33779333333334,0.13,10.471524266767489,"The Great Malika, Pashupati Sadak, Chabahil, Kathmandu 44660, Nepal",27.70816285,85.337752,The Great Malika,,Pashupati Sadak,44660,Kathmandu-07,Chabahil,Kathmandu,Kathmandu,Bagmati Province,Nepal,np,© OpenStreetMap contributors,Open Database License,https://www.openstreetmap.org/copyright
78255349,1153,2019-12-27 11:44:43,27.708006666666662,85.33776,0.2,10.832587157667852,"The Great Malika, Pashupati Sadak, Chabahil, Kathmandu 44660, Nepal",27.70816285,85.337752,The Great Malika,,Pashupati Sadak,44660,Kathmandu-07,Chabahil,Kathmandu,Kathmandu,Bagmati Province,Nepal,np,© OpenStreetMap contributors,Open Database License,https://www.openstreetmap.org/copyright
78255872,1153,2019-12-27 11:45:13,27.708015,85.33767,1.96,11.360464614641865,"The Great Malika, Pashupati Sadak, Chabahil, Kathmandu 44660, Nepal",27.70816285,85.337752,The Great Malika,,Pashupati Sadak,44660,Kathmandu-07,Chabahil,Kathmandu,Kathmandu,Bagmati Province,Nepal,np,© OpenStreetMap contributors,Open Database License,https://www.openstreetmap.org/copyright
78256403,1153,2019-12-27 11:45:42,27.708015,85.337435,0.09,7.524770160443358,"Ratopul Stop, Kathmandu, Kathmandu 44660, Nepal",27.708052,85.337371,Ratopul Stop,,,44660,,,Kathmandu,Kathmandu,Three,Nepal,np,© OpenStreetMap contributors,Open Database License,https://www.openstreetmap.org/copyright
78256929,1153,2019-12-27 11:46:12,27.708056666666668,85.33666,4.06,11.75127945505702,"Pashupati Sadak, Kathmandu, Kathmandu 44660, Nepal",27.708085,85.336545,,,Pashupati Sadak,44660,,,Kathmandu,Kathmandu,Three,Nepal,np,© OpenStreetMap contributors,Open Database License,https://www.openstreetmap.org/copyright
78257454,1153,2019-12-27 11:46:42,27.708446666666667,85.33678666666667,3.38,22.999307913265074,"Rudra Mati Marg-2, Kathmandu, Kathmandu 44660, Nepal",27.708542,85.336994,,,Rudra Mati Marg-2,44660,,,Kathmandu,Kathmandu,Three,Nepal,np,© OpenStreetMap contributors,Open Database License,https://www.openstreetmap.org/copyright
78258022,1153,2019-12-27 11:47:14,27.70996,85.33708,18.07,0.2710925106568553,"Rudra Mati Marg, Maitidevi, Kathmandu 00975, Nepal",27.7096953,85.3370232,Rudra Mati Marg,,Rudra Mati Marg,00975,Kathmandu-30,Maitidevi,Kathmandu,Kathmandu,Bagmati Province,Nepal,np,© OpenStreetMap contributors,Open Database License,https://www.openstreetmap.org/copyright
78316748,1153,2019-12-27 12:42:48,27.71038,85.33662,10.71,80.43079311783595,"Mahadev Galli 117/39, Maitidevi, Kathmandu 00975, Nepal",27.7110967,85.33650962635699,,117/39,Mahadev Galli,00975,Kathmandu-30,Maitidevi,Kathmandu,Kathmandu,Bagmati Province,Nepal,np,© OpenStreetMap contributors,Open Database License,https://www.openstreetmap.org/copyright
78317274,1153,2019-12-27 12:43:18,27.70959,85.33533833333334,7.42,37.14993929637789,"Shahid marg 51, Maitidevi, Kathmandu 00975, Nepal",27.7092781,85.33563128285263,,51,Shahid marg,00975,Kathmandu-30,Maitidevi,Kathmandu,Kathmandu,Bagmati Province,Nepal,np,© OpenStreetMap contributors,Open Database License,https://www.openstreetmap.org/copyright
78317790,1153,2019-12-27 12:43:48,27.708556666666667,85.33416666666666,9.63,7.069535367265051,"Little Flower Secondary School, Shahid marg, Maitidevi, Kathmandu 00975, Nepal",27.7086855,85.33406150732324,Little Flower Secondary School,,Shahid marg,00975,Kathmandu-30,Maitidevi,Kathmandu,Kathmandu,Bagmati Province,Nepal,np,© OpenStreetMap contributors,Open Database License,https://www.openstreetmap.org/copyright
78318290,1153,2019-12-27 12:44:17,27.70822833333333,85.33476166666667,9.03,7.1971765841525785,"Jhol MOMO, Kathmandu, Kathmandu 44605, Nepal",27.708246,85.334832,Jhol MOMO,,,44605,,,Kathmandu,Kathmandu,Three,Nepal,np,© OpenStreetMap contributors,Open Database License,https://www.openstreetmap.org/copyright
78318802,1153,2019-12-27 12:44:47,27.708206666666666,85.335135,0.15,4.37367315587107,"A.N. Tailoring Center, Kathmandu, Kathmandu 44605, Nepal",27.708246,85.335135,A.N. Tailoring Center,,,44605,,,Kathmandu,Kathmandu,Three,Nepal,np,© OpenStreetMap contributors,Open Database License,https://www.openstreetmap.org/copyright
78319318,1153,2019-12-27 12:45:17,27.70819,85.335135,0.03,6.226924493158141,"A.N. Tailoring Center, Kathmandu, Kathmandu 44605, Nepal",27.708246,85.335135,A.N. Tailoring Center,,,44605,,,Kathmandu,Kathmandu,Three,Nepal,np,© OpenStreetMap contributors,Open Database License,https://www.openstreetmap.org/copyright
78319820,1153,2019-12-27 12:45:47,27.708195,85.33513333333333,0.64,5.673322100814339,"A.N. Tailoring Center, Kathmandu, Kathmandu 44605, Nepal",27.708246,85.335135,A.N. Tailoring Center,,,44605,,,Kathmandu,Kathmandu,Three,Nepal,np,© OpenStreetMap contributors,Open Database License,https://www.openstreetmap.org/copyright
78320332,1153,2019-12-27 12:46:17,27.70815333333333,85.335835,11.11,16.893492360281947,"Samarpan electrical solution, Pashupati Sadak, Maitidevi, Kathmandu 44605, Nepal",27.7080748,85.3359819,Samarpan electrical solution,,Pashupati Sadak,44605,Kathmandu-30,Maitidevi,Kathmandu,Kathmandu,Bagmati Province,Nepal,np,© OpenStreetMap contributors,Open Database License,https://www.openstreetmap.org/copyright
78320871,1153,2019-12-27 12:46:46,27.708046666666668,85.33750333333333,8.74,13.040934204980761,"Ratopul Stop, Kathmandu, Kathmandu 44660, Nepal",27.708052,85.337371,Ratopul Stop,,,44660,,,Kathmandu,Kathmandu,Three,Nepal,np,© OpenStreetMap contributors,Open Database License,https://www.openstreetmap.org/copyright
78321380,1153,2019-12-27 12:47:16,27.707975,85.33924666666667,6.98,12.368639042846706,"Trip Land Travel and Tours, Kathmandu, Kathmandu 44660, Nepal",27.708082,85.339281,Trip Land Travel and Tours,,,44660,,,Kathmandu,Kathmandu,Three,Nepal,np,© OpenStreetMap contributors,Open Database License,https://www.openstreetmap.org/copyright
78402666,1153,2019-12-27 14:06:42,27.708,85.33847833333333,19.59,17.804943512239483,"S.S Sound and Light Hire Centre, Kathmandu, Kathmandu 44660, Nepal",27.708128,85.338587,S.S Sound and Light Hire Centre,,,44660,,,Kathmandu,Kathmandu,Three,Nepal,np,© OpenStreetMap contributors,Open Database License,https://www.openstreetmap.org/copyright
78403157,1153,2019-12-27 14:07:12,27.70816333333333,85.33651333333333,4.73,9.251332773309596,"Pashupati Sadak, Kathmandu, Kathmandu 00975, Nepal",27.708085,85.336545,,,Pashupati Sadak,00975,,,Kathmandu,Kathmandu,Three,Nepal,np,© OpenStreetMap contributors,Open Database License,https://www.openstreetmap.org/copyright
78403651,1153,2019-12-27 14:07:42,27.709921666666663,85.33706666666667,19.35,0.5446345773151524,"Rudra Mati Marg, Maitidevi, Kathmandu 00975, Nepal",27.7096953,85.3370232,Rudra Mati Marg,,Rudra Mati Marg,00975,Kathmandu-30,Maitidevi,Kathmandu,Kathmandu,Bagmati Province,Nepal,np,© OpenStreetMap contributors,Open Database License,https://www.openstreetmap.org/copyright
78457480,1153,2019-12-27 15:01:19,27.710145,85.33733833333334,16.2,2.340295696461219,"Pashupati Grill Udhyog, Rudra Mati Marg-2, Chabahil, Kathmandu 44660, Nepal",27.7101783,85.33738494453362,Pashupati Grill Udhyog,,Rudra Mati Marg-2,44660,Kathmandu-07,Chabahil,Kathmandu,Kathmandu,Bagmati Province,Nepal,np,© OpenStreetMap contributors,Open Database License,https://www.openstreetmap.org/copyright
78457964,1153,2019-12-27 15:01:49,27.70812833333333,85.33733666666667,11.79,2.120364503309868,"Rudra Mati Marg-2, Chabahil, Kathmandu 44660, Nepal",27.7098912,85.337262,Rudra Mati Marg-2,,Rudra Mati Marg-2,44660,Kathmandu-07,Chabahil,Kathmandu,Kathmandu,Bagmati Province,Nepal,np,© OpenStreetMap contributors,Open Database License,https://www.openstreetmap.org/copyright
78458449,1153,2019-12-27 15:02:19,27.708006666666662,85.33973,8.95,3.9708956872787184,"Cosmos Diagonosis and Research Centre, Pashupati Sadak, Chabahil, Kathmandu 44660, Nepal",27.70814865,85.33979338472814,Cosmos Diagonosis and Research Centre,,Pashupati Sadak,44660,Kathmandu-07,Chabahil,Kathmandu,Kathmandu,Bagmati Province,Nepal,np,© OpenStreetMap contributors,Open Database License,https://www.openstreetmap.org/copyright
79453438,1153,2019-12-28 07:40:43,27.708001666666668,85.338145,20.04,9.163616005157971,"Nice Tailor, Pashupati Sadak, Chabahil, Kathmandu 44660, Nepal",27.708124249999997,85.33812175,Nice Tailor,,Pashupati Sadak,44660,Kathmandu-07,Chabahil,Kathmandu,Kathmandu,Bagmati Province,Nepal,np,© OpenStreetMap contributors,Open Database License,https://www.openstreetmap.org/copyright
79453899,1153,2019-12-28 07:41:12,27.70811833333333,85.33610333333333,13.18,6.133158075980948,"Dangali bhojanalaya, Pashupati Sadak, Maitidevi, Kathmandu 44605, Nepal",27.7080876,85.3360516,Dangali bhojanalaya,,Pashupati Sadak,44605,Kathmandu-30,Maitidevi,Kathmandu,Kathmandu,Bagmati Province,Nepal,np,© OpenStreetMap contributors,Open Database License,https://www.openstreetmap.org/copyright
79454383,1153,2019-12-28 07:41:41,27.70822833333333,85.33380666666666,13.06,13.459024196706263,"Hero Honda, Pashupati Sadak, Maitidevi, Kathmandu 44605, Nepal",27.70834145,85.33365525495283,Hero Honda,,Pashupati Sadak,44605,Kathmandu-30,Maitidevi,Kathmandu,Kathmandu,Bagmati Province,Nepal,np,© OpenStreetMap contributors,Open Database License,https://www.openstreetmap.org/copyright
79454870,1153,2019-12-28 07:42:11,27.708693333333333,85.33198333333333,7.22,6.497826587209698,"Maitidevi, Kathmandu 44605, Nepal",27.7086373,85.3319646,,,,44605,Kathmandu-30,Maitidevi,Kathmandu,Kathmandu,Bagmati Province,Nepal,np,© OpenStreetMap contributors,Open Database License,https://www.openstreetmap.org/copyright
79455375,1153,2019-12-28 07:42:41,27.710608333333333,85.33321833333333,11.25,20.14486876101107,"Prakash New Generation Motorcycle Workshop, Gyaneshwar Marg, Maitidevi, Kathmandu 00975, Nepal",27.7107895,85.333218,Prakash New Generation Motorcycle Workshop,,Gyaneshwar Marg,00975,Kathmandu-30,Maitidevi,Kathmandu,Kathmandu,Bagmati Province,Nepal,np,© OpenStreetMap contributors,Open Database License,https://www.openstreetmap.org/copyright
79491126,1153,2019-12-28 08:17:56,27.710275,85.33300666666666,18.18,6.739228609579651,"ज्ञानेश्वर मार्ग, Kathmandu, Kathmandu 00975, Nepal",27.710215,85.332997,,,ज्ञानेश्वर मार्ग,00975,,,Kathmandu,Kathmandu,Three,Nepal,np,© OpenStreetMap contributors,Open Database License,https://www.openstreetmap.org/copyright
79491642,1153,2019-12-28 08:18:26,27.70868833333333,85.33205333333333,7.29,8.3737460448662,"Maitidevi, Kathmandu 44605, Nepal",27.7086373,85.3319646,,,,44605,Kathmandu-30,Maitidevi,Kathmandu,Kathmandu,Bagmati Province,Nepal,np,© OpenStreetMap contributors,Open Database License,https://www.openstreetmap.org/copyright
79492148,1153,2019-12-28 08:18:55,27.70826,85.33415333333333,14.74,19.88165275970415,"Shanta Plaza, Pashupati Sadak, Maitidevi, Kathmandu 44605, Nepal",27.7080902,85.3342166,Shanta Plaza,,Pashupati Sadak,44605,Kathmandu-30,Maitidevi,Kathmandu,Kathmandu,Bagmati Province,Nepal,np,© OpenStreetMap contributors,Open Database License,https://www.openstreetmap.org/copyright
79492652,1153,2019-12-28 08:19:25,27.708146666666668,85.33629,12.46,9.75861963351925,"Nikunj store, Pashupati Sadak, Maitidevi, Kathmandu 44605, Nepal",27.70818,85.3361983,Nikunj store,,Pashupati Sadak,44605,Kathmandu-30,Maitidevi,Kathmandu,Kathmandu,Bagmati Province,Nepal,np,© OpenStreetMap contributors,Open Database License,https://www.openstreetmap.org/copyright
79493148,1153,2019-12-28 08:19:55,27.708071666666665,85.337935,15.29,4.987856715005674,"Dahal books and stationery, Pashupati Sadak, Chabahil, Kathmandu 44660, Nepal",27.70814145,85.33792061332085,Dahal books and stationery,,Pashupati Sadak,44660,Kathmandu-07,Chabahil,Kathmandu,Kathmandu,Bagmati Province,Nepal,np,© OpenStreetMap contributors,Open Database License,https://www.openstreetmap.org/copyright
79493643,1153,2019-12-28 08:20:25,27.708031666666667,85.339865,15.73,5.000029827342575,"Purbeli Hotel, Kathmandu, Kathmandu 44660, Nepal",27.708073,85.339885,Purbeli Hotel,,,44660,,,Kathmandu,Kathmandu,Three,Nepal,np,© OpenStreetMap contributors,Open Database License,https://www.openstreetmap.org/copyright
79743580,1153,2019-12-28 12:26:42,27.710326666666667,85.33306666666667,5.72,14.184870729016044,"ज्ञानेश्वर मार्ग, Kathmandu, Kathmandu 00975, Nepal",27.710215,85.332997,,,ज्ञानेश्वर मार्ग,00975,,,Kathmandu,Kathmandu,Three,Nepal,np,© OpenStreetMap contributors,Open Database License,https://www.openstreetmap.org/copyright
79743955,1153,2019-12-28 12:27:03,27.710745,85.33330166666667,10.92,9.608379200263872,"Prakash New Generation Motorcycle Workshop, Gyaneshwar Marg, Maitidevi, Kathmandu 00975, Nepal",27.7107895,85.333218,Prakash New Generation Motorcycle Workshop,,Gyaneshwar Marg,00975,Kathmandu-30,Maitidevi,Kathmandu,Kathmandu,Bagmati Province,Nepal,np,© OpenStreetMap contributors,Open Database License,https://www.openstreetmap.org/copyright
79743959,1153,2019-12-28 12:27:03,27.70947,85.33245833333334,12.78,25.707706596424245,"International Centre for Academics, Gyaneshwar Marg, Maitidevi, Kathmandu 00975, Nepal",27.7092423,85.3324131,International Centre for Academics,,Gyaneshwar Marg,00975,Kathmandu-30,Maitidevi,Kathmandu,Kathmandu,Bagmati Province,Nepal,np,© OpenStreetMap contributors,Open Database License,https://www.openstreetmap.org/copyright
79743961,1153,2019-12-28 12:27:03,27.708441666666666,85.33276166666667,13.98,24.869861380340804,"Honda Showroom, Pashupati Marga, Maitidevi, Kathmandu 44605, Nepal",27.708598,85.332581,Honda Showroom,,Pashupati Marga,44605,Kathmandu-30,Maitidevi,Kathmandu,Kathmandu,Bagmati Province,Nepal,np,© OpenStreetMap contributors,Open Database License,https://www.openstreetmap.org/copyright
79743969,1153,2019-12-28 12:27:03,27.708246666666668,85.33435833333333,11.9,22.29482894480519,"Shanta Plaza, Kathmandu, Kathmandu 44605, Nepal",27.70809,85.334217,Shanta Plaza,,,44605,,,Kathmandu,Kathmandu,Three,Nepal,np,© OpenStreetMap contributors,Open Database License,https://www.openstreetmap.org/copyright
79743980,1153,2019-12-28 12:27:04,27.708216666666665,85.33566666666667,7.09,20.547035708361076,"Pashupati Sadak, Kathmandu, Kathmandu 44605, Nepal",27.708134,85.33548,,,Pashupati Sadak,44605,,,Kathmandu,Kathmandu,Three,Nepal,np,© OpenStreetMap contributors,Open Database License,https://www.openstreetmap.org/copyright
79743995,1153,2019-12-28 12:27:04,27.70809,85.33714333333333,5.79,8.01178409182796,"Rudra Mati Marg-2, Kathmandu, Kathmandu 44660, Nepal",27.708139,85.337203,,,Rudra Mati Marg-2,44660,,,Kathmandu,Kathmandu,Three,Nepal,np,© OpenStreetMap contributors,Open Database License,https://www.openstreetmap.org/copyright
79744014,1153,2019-12-28 12:27:05,27.708051666666663,85.33853,12.91,10.175025678097564,"S.S Sound and Light Hire Centre, Kathmandu, Kathmandu 44660, Nepal",27.708128,85.338587,S.S Sound and Light Hire Centre,,,44660,,,Kathmandu,Kathmandu,Three,Nepal,np,© OpenStreetMap contributors,Open Database License,https://www.openstreetmap.org/copyright
79744034,1153,2019-12-28 12:27:06,27.708025,85.33958333333334,1.03,5.2553308709892645,"Baram and Basel Furniture Showroom, Pashupati Sadak, Chabahil, Kathmandu 44660, Nepal",27.7079999,85.3395381,Baram and Basel Furniture Showroom,,Pashupati Sadak,44660,Kathmandu-07,Chabahil,Kathmandu,Kathmandu,Bagmati Province,Nepal,np,© OpenStreetMap contributors,Open Database License,https://www.openstreetmap.org/copyright
79744084,1153,2019-12-28 12:27:09,27.70801,85.339615,0.02,7.653209367339308,"Baram and Basel Furniture Showroom, Pashupati Sadak, Chabahil, Kathmandu 44660, Nepal",27.7079999,85.3395381,Baram and Basel Furniture Showroom,,Pashupati Sadak,44660,Kathmandu-07,Chabahil,Kathmandu,Kathmandu,Bagmati Province,Nepal,np,© OpenStreetMap contributors,Open Database License,https://www.openstreetmap.org/copyright
79744090,1153,2019-12-28 12:27:10,27.708001666666668,85.33963666666666,0.28,7.771741741971672,"Cosmos Diagonosis and Research Centre, Pashupati Sadak, Chabahil, Kathmandu 44660, Nepal",27.70814865,85.33979338472814,Cosmos Diagonosis and Research Centre,,Pashupati Sadak,44660,Kathmandu-07,Chabahil,Kathmandu,Kathmandu,Bagmati Province,Nepal,np,© OpenStreetMap contributors,Open Database License,https://www.openstreetmap.org/copyright
79744091,1153,2019-12-28 12:27:10,27.70799,85.339625,0.09,8.625337793844743,"Baram and Basel Furniture Showroom, Pashupati Sadak, Chabahil, Kathmandu 44660, Nepal",27.7079999,85.3395381,Baram and Basel Furniture Showroom,,Pashupati Sadak,44660,Kathmandu-07,Chabahil,Kathmandu,Kathmandu,Bagmati Province,Nepal,np,© OpenStreetMap contributors,Open Database License,https://www.openstreetmap.org/copyright
79744102,1153,2019-12-28 12:27:10,27.707985,85.33979666666667,8.95,6.531128273746412,"Cosmos Diagonosis and Research Centre, Pashupati Sadak, Chabahil, Kathmandu 44660, Nepal",27.70814865,85.33979338472814,Cosmos Diagonosis and Research Centre,,Pashupati Sadak,44660,Kathmandu-07,Chabahil,Kathmandu,Kathmandu,Bagmati Province,Nepal,np,© OpenStreetMap contributors,Open Database License,https://www.openstreetmap.org/copyright
79853305,1153,2019-12-28 14:14:35,27.68817,85.33590666666667,16.83,4.422502164036521,"Naya Baneshwar\New Baneshwar Chok नयाँ बानेश्वर चोक ६६७, Kathmandu, Kathmandu 44617, Nepal",27.688205,85.335928,Naya Baneshwar\New Baneshwar Chok नयाँ बानेश्वर चोक ६६७,,,44617,,,Kathmandu,Kathmandu,Three,Nepal,np,© OpenStreetMap contributors,Open Database License,https://www.openstreetmap.org/copyright
79853804,1153,2019-12-28 14:15:05,27.68863,85.33388166666667,11.91,30.970294544838605,"Nature Care Hospital, ChhakkuBakku Marg, Buddha Nagar, Kathmandu 44617, Nepal",27.688783,85.3341445,Nature Care Hospital,,ChhakkuBakku Marg,44617,Kathmandu-10,Buddha Nagar,Kathmandu,Kathmandu,Bagmati Province,Nepal,np,© OpenStreetMap contributors,Open Database License,https://www.openstreetmap.org/copyright
79854315,1153,2019-12-28 14:15:34,27.689401666666665,85.33060166666667,25.16,33.36938156621327,"Spacewood Nepal, Bogati Marga, Kathmandu, Kathmandu 44617, Nepal",27.689569,85.330883,Spacewood Nepal,,Bogati Marga,44617,,,Kathmandu,Kathmandu,Three,Nepal,np,© OpenStreetMap contributors,Open Database License,https://www.openstreetmap.org/copyright
79854818,1153,2019-12-28 14:16:04,27.690528333333333,85.328015,18.4,3.6820923930517586,"NH34, Kathmandu, Kathmandu 44617, Nepal",27.690498,85.328,,,NH34,44617,,,Kathmandu,Kathmandu,Three,Nepal,np,© OpenStreetMap contributors,Open Database License,https://www.openstreetmap.org/copyright
79855326,1153,2019-12-28 14:16:34,27.692126666666667,85.32466,27.22,27.7445738281472,"Madan Bhandari Path, Kathmandu, Kathmandu 44617, Nepal",27.692253,85.324417,,,Madan Bhandari Path,44617,,,Kathmandu,Kathmandu,Three,Nepal,np,© OpenStreetMap contributors,Open Database License,https://www.openstreetmap.org/copyright
79855812,1153,2019-12-28 14:17:04,27.69364833333333,85.321465,24.36,34.70485008336515,"Maitighar Bus Stop, Madan Bhandari Path, Kathmandu, Kathmandu 44617, Nepal",27.6938924,85.3212453,Maitighar Bus Stop,,Madan Bhandari Path,44617,Kathmandu-11,,Kathmandu,Kathmandu,Bagmati Province,Nepal,np,© OpenStreetMap contributors,Open Database License,https://www.openstreetmap.org/copyright
79856397,1153,2019-12-28 14:17:38,27.69365833333333,85.31902833333334,20.51,9.750451866632062,"Sunita Chamena House, Thapathali Road, Thapathali, Kathmandu 00779, Nepal",27.693681,85.319124,Sunita Chamena House,,Thapathali Road,00779,Kathmandu-11,Thapathali,Kathmandu,Kathmandu,Bagmati Province,Nepal,np,© OpenStreetMap contributors,Open Database License,https://www.openstreetmap.org/copyright
82406586,1153,2019-12-30 07:11:44,27.690026666666668,85.339015,7.89,4.704058281477724,"Launch and Tiffin Box Pvt. Ltd., Kali Marg, Naya Baneshwar, Kathmandu 44703, Nepal",27.6899504,85.33906005,Launch and Tiffin Box Pvt. Ltd.,,Kali Marg,44703,Kathmandu-31,Naya Baneshwar,Kathmandu,Kathmandu,Bagmati Province,Nepal,np,© OpenStreetMap contributors,Open Database License,https://www.openstreetmap.org/copyright
82407101,1153,2019-12-30 07:12:14,27.690608333333333,85.33892833333333,2.46,35.474101608370724,"Fsquare Innomotive Cafe, Sri Ekata Marg 31, Naya Baneshwar, Kathmandu 44703, Nepal",27.6909208,85.33885565,Fsquare Innomotive Cafe,31,Sri Ekata Marg,44703,Kathmandu-31,Naya Baneshwar,Kathmandu,Kathmandu,Bagmati Province,Nepal,np,© OpenStreetMap contributors,Open Database License,https://www.openstreetmap.org/copyright
82407618,1153,2019-12-30 07:12:43,27.690965,85.33881666666667,0.34,0.09548472234894016,"Fsquare Innomotive Cafe, Sri Ekata Marg 31, Naya Baneshwar, Kathmandu 44703, Nepal",27.6909208,85.33885565,Fsquare Innomotive Cafe,31,Sri Ekata Marg,44703,Kathmandu-31,Naya Baneshwar,Kathmandu,Kathmandu,Bagmati Province,Nepal,np,© OpenStreetMap contributors,Open Database License,https://www.openstreetmap.org/copyright
82408125,1153,2019-12-30 07:13:13,27.691051666666667,85.33887166666666,0.04,10.780285450355311,"Fsquare Innomotive Cafe, Sri Ekata Marg 31, Naya Baneshwar, Kathmandu 44703, Nepal",27.6909208,85.33885565,Fsquare Innomotive Cafe,31,Sri Ekata Marg,44703,Kathmandu-31,Naya Baneshwar,Kathmandu,Kathmandu,Bagmati Province,Nepal,np,© OpenStreetMap contributors,Open Database License,https://www.openstreetmap.org/copyright
82408641,1153,2019-12-30 07:13:43,27.691406666666666,85.33891666666666,0.41,50.171370864227995,"Fsquare Innomotive Cafe, Sri Ekata Marg 31, Naya Baneshwar, Kathmandu 44703, Nepal",27.6909208,85.33885565,Fsquare Innomotive Cafe,31,Sri Ekata Marg,44703,Kathmandu-31,Naya Baneshwar,Kathmandu,Kathmandu,Bagmati Province,Nepal,np,© OpenStreetMap contributors,Open Database License,https://www.openstreetmap.org/copyright
82409175,1153,2019-12-30 07:14:13,27.69158,85.33863333333333,1.94,76.48689415328909,"Fsquare Innomotive Cafe, Sri Ekata Marg 31, Kathmandu, Kathmandu 44703, Nepal",27.690921,85.338856,Fsquare Innomotive Cafe,31,Sri Ekata Marg,44703,,,Kathmandu,Kathmandu,Three,Nepal,np,© OpenStreetMap contributors,Open Database License,https://www.openstreetmap.org/copyright
82409686,1153,2019-12-30 07:14:43,27.69159833333333,85.33830166666667,0.32,93.01078903203393,"Fsquare Innomotive Cafe, Sri Ekata Marg 31, Naya Baneshwar, Kathmandu 44703, Nepal",27.6909208,85.33885565,Fsquare Innomotive Cafe,31,Sri Ekata Marg,44703,Kathmandu-31,Naya Baneshwar,Kathmandu,Kathmandu,Bagmati Province,Nepal,np,© OpenStreetMap contributors,Open Database License,https://www.openstreetmap.org/copyright
82410226,1153,2019-12-30 07:15:12,27.69176,85.33791,6.79,10.868471537854933,"Jana Sahayogi Marga, Kathmandu, Kathmandu 44703, Nepal",27.691681,85.337845,,,Jana Sahayogi Marga,44703,,,Kathmandu,Kathmandu,Three,Nepal,np,© OpenStreetMap contributors,Open Database License,https://www.openstreetmap.org/copyright
82410759,1153,2019-12-30 07:15:42,27.692666666666668,85.33825,8.44,2.8455465984405888,"Jana Sahayogi Marga, Naya Baneshwar, Kathmandu 44703, Nepal",27.6917205,85.3378572,Jana Sahayogi Marga,,Jana Sahayogi Marga,44703,Kathmandu-31,Naya Baneshwar,Kathmandu,Kathmandu,Bagmati Province,Nepal,np,© OpenStreetMap contributors,Open Database License,https://www.openstreetmap.org/copyright
82411304,1153,2019-12-30 07:16:12,27.693206666666665,85.33915,13.94,2.1435988413572864,"ADAPT - Nepal, Shree Panchakumari Marg, Naya Baneshwar, Kathmandu 44703, Nepal",27.69328845,85.33917359701645,ADAPT - Nepal,,Shree Panchakumari Marg,44703,Kathmandu-31,Naya Baneshwar,Kathmandu,Kathmandu,Bagmati Province,Nepal,np,© OpenStreetMap contributors,Open Database License,https://www.openstreetmap.org/copyright
82825166,1153,2019-12-30 13:43:44,27.702296666666665,85.33792333333334,14.49,120.72365160390217,"Lal Bahadur Bum Marg 34, Tilganga, Kathmandu 44703, Nepal",27.703272499999997,85.33846084387694,,34,Lal Bahadur Bum Marg,44703,Kathmandu-09,Tilganga,Kathmandu,Kathmandu,Bagmati Province,Nepal,np,© OpenStreetMap contributors,Open Database License,https://www.openstreetmap.org/copyright
82825675,1153,2019-12-30 13:44:14,27.702821666666665,85.33614666666666,12.08,10.52055352765847,"Setopul, Kathmandu, Kathmandu 00446, Nepal",27.702862,85.33605,,,Setopul,00446,,,Kathmandu,Kathmandu,Three,Nepal,np,© OpenStreetMap contributors,Open Database License,https://www.openstreetmap.org/copyright
82826176,1153,2019-12-30 13:44:44,27.70330333333333,85.33451,16.85,7.874569347433075,"Maitidevi Plaza, Kathmandu, Kathmandu 00446, Nepal",27.703235,85.334489,Maitidevi Plaza,,,00446,,,Kathmandu,Kathmandu,Three,Nepal,np,© OpenStreetMap contributors,Open Database License,https://www.openstreetmap.org/copyright
82826702,1153,2019-12-30 13:45:13,27.703896666666665,85.33269333333334,8.57,4.113310662064055,"Underground Opticals, Dillibazaar Marg, Ghattekulo, Kathmandu 00446, Nepal",27.7039012,85.3327348,Underground Opticals,,Dillibazaar Marg,00446,Kathmandu-30,Ghattekulo,Kathmandu,Kathmandu,Bagmati Province,Nepal,np,© OpenStreetMap contributors,Open Database License,https://www.openstreetmap.org/copyright
82827203,1153,2019-12-30 13:45:43,27.704435,85.33113833333333,6.59,5.688425422604348,"Versatile, Kathmandu, Kathmandu 44605, Nepal",27.704425,85.331195,Versatile,,,44605,,,Kathmandu,Kathmandu,Three,Nepal,np,© OpenStreetMap contributors,Open Database License,https://www.openstreetmap.org/copyright
82827713,1153,2019-12-30 13:46:13,27.704971666666665,85.32932166666667,9.05,3.4186467137100838,"Kathmandu Metropolitan Ward 29, Gyaneshwar Marg, Dillibazar, Kathmandu 44605, Nepal",27.7050604,85.32927955286168,Kathmandu Metropolitan Ward 29,,Gyaneshwar Marg,44605,Kathmandu-30,Dillibazar,Kathmandu,Kathmandu,Bagmati Province,Nepal,np,© OpenStreetMap contributors,Open Database License,https://www.openstreetmap.org/copyright
82828227,1153,2019-12-30 13:46:44,27.703961666666668,85.328745,10.46,0,"Maitidevi Kindergarten, Tulsi Marg, Ghattekulo, Kathmandu 00446, Nepal",27.7039676,85.3287235,Maitidevi Kindergarten,,Tulsi Marg,00446,Kathmandu-29,Ghattekulo,Kathmandu,Kathmandu,Bagmati Province,Nepal,np,© OpenStreetMap contributors,Open Database License,https://www.openstreetmap.org/copyright
82828713,1153,2019-12-30 13:47:13,27.702901666666666,85.32856666666666,12.04,1.4145839701421674,"Ghattekulo, Kathmandu 00446, Nepal",27.7033203,85.3286674,,,,00446,Kathmandu-29,Ghattekulo,Kathmandu,Kathmandu,Bagmati Province,Nepal,np,© OpenStreetMap contributors,Open Database License,https://www.openstreetmap.org/copyright
82829214,1153,2019-12-30 13:47:42,27.701761666666663,85.32826333333334,2.24,6.989876093575736,"Ganesh Temple, Birendra Marga, Ghattekulo, Kathmandu 00446, Nepal",27.7017756,85.3281941,Ganesh Temple,,Birendra Marga,00446,Kathmandu-29,Ghattekulo,Kathmandu,Kathmandu,Bagmati Province,Nepal,np,© OpenStreetMap contributors,Open Database License,https://www.openstreetmap.org/copyright
82829724,1153,2019-12-30 13:48:12,27.701118333333334,85.32796,5.59,23.62751600119754,"Kingdom Hall of Jehovah's Witnesses, Birendra Marg, Ghattekulo, Kathmandu 00446, Nepal",27.700862100000002,85.32796824124785,Kingdom Hall of Jehovah's Witnesses,,Birendra Marg,00446,Kathmandu-29,Ghattekulo,Kathmandu,Kathmandu,Bagmati Province,Nepal,np,© OpenStreetMap contributors,Open Database License,https://www.openstreetmap.org/copyright
82830226,1153,2019-12-30 13:48:42,27.700756666666667,85.32791,0.06,4.004983106521884,"Ghattekulo, Kathmandu 00446, Nepal",27.7006179,85.3281478,,,,00446,Kathmandu-29,Ghattekulo,Kathmandu,Kathmandu,Bagmati Province,Nepal,np,© OpenStreetMap contributors,Open Database License,https://www.openstreetmap.org/copyright
82830740,1153,2019-12-30 13:49:12,27.70044,85.327635,6.85,30.320641570112215,"Nepali Janata Dal Party Office, Sangam Galli, Ghattekulo, Kathmandu 00446, Nepal",27.70010595,85.3275228398258,Nepali Janata Dal Party Office,,Sangam Galli,00446,Kathmandu-29,Ghattekulo,Kathmandu,Kathmandu,Bagmati Province,Nepal,np,© OpenStreetMap contributors,Open Database License,https://www.openstreetmap.org/copyright
82831246,1153,2019-12-30 13:49:41,27.70021833333333,85.32723,0.84,7.501574376544918,"Sangam Galli, Kathmandu, Kathmandu 00446, Nepal",27.700199,85.327157,,,Sangam Galli,00446,,,Kathmandu,Kathmandu,Three,Nepal,np,© OpenStreetMap contributors,Open Database License,https://www.openstreetmap.org/copyright
82831744,1153,2019-12-30 13:50:11,27.69996666666667,85.32742,4.81,5.062357068266569,"Nepali Janata Dal Party Office, Sangam Galli, Ghattekulo, Kathmandu 00446, Nepal",27.700011850000003,85.3275291658559,Nepali Janata Dal Party Office,,Sangam Galli,00446,Kathmandu-29,Ghattekulo,Kathmandu,Kathmandu,Bagmati Province,Nepal,np,© OpenStreetMap contributors,Open Database License,https://www.openstreetmap.org/copyright
82832287,1153,2019-12-30 13:50:41,27.69973833333333,85.32736,7.28,17.23389960716903,"The Himalayan Times, Kumari Galli 2, Kathmandu, Kathmandu 00446, Nepal",27.699852,85.327241,The Himalayan Times,,Kumari Galli 2,00446,,,Kathmandu,Kathmandu,Three,Nepal,np,© OpenStreetMap contributors,Open Database License,https://www.openstreetmap.org/copyright
82832795,1153,2019-12-30 13:51:11,27.700176666666668,85.32507833333334,6.29,21.484685139798017,"Office of the Auditor General, Anamnagar, Tanka Prasad Ghumti Sadak, Bansh Ghari, Kathmandu 00446, Nepal",27.700381399999998,85.32518350620504,"Office of the Auditor General, Anamnagar",,Tanka Prasad Ghumti Sadak,00446,Kathmandu-29,Bansh Ghari,Kathmandu,Kathmandu,Bagmati Province,Nepal,np,© OpenStreetMap contributors,Open Database License,https://www.openstreetmap.org/copyright
82833298,1153,2019-12-30 13:51:41,27.70074333333333,85.323235,17.79,4.501110647182346,"New Plaza Stop, Kathmandu, Kathmandu 44605, Nepal",27.700776,85.323262,New Plaza Stop,,,44605,,,Kathmandu,Kathmandu,Three,Nepal,np,© OpenStreetMap contributors,Open Database License,https://www.openstreetmap.org/copyright
82833805,1153,2019-12-30 13:52:10,27.701695,85.32226166666666,12.28,9.341309081671138,"Exhibition Road, Kathmandu, Kathmandu 46600, Nepal",27.701611,85.322263,,,Exhibition Road,46600,,,Kathmandu,Kathmandu,Three,Nepal,np,© OpenStreetMap contributors,Open Database License,https://www.openstreetmap.org/copyright
82834323,1153,2019-12-30 13:52:40,27.70387833333333,85.32255333333333,19.89,3.4205201145026254,"The Topline Collection Shirting,Suiting And Tailoring, Putali Sadak, Baghbazar, Kathmandu 46600, Nepal",27.7038938,85.3225233,"The Topline Collection Shirting,Suiting And Tailoring",,Putali Sadak,46600,Kathmandu-28,Baghbazar,Kathmandu,Kathmandu,Bagmati Province,Nepal,np,© OpenStreetMap contributors,Open Database License,https://www.openstreetmap.org/copyright
82834833,1153,2019-12-30 13:53:10,27.705856666666666,85.32271833333333,13.7,7.224881468515997,"Surya Coffee Shop, Putali Sadak, Baghbazar, Kathmandu 46600, Nepal",27.7058742,85.322789,Surya Coffee Shop,,Putali Sadak,46600,Kathmandu-28,Baghbazar,Kathmandu,Kathmandu,Bagmati Province,Nepal,np,© OpenStreetMap contributors,Open Database License,https://www.openstreetmap.org/copyright
82835343,1153,2019-12-30 13:53:40,27.70794833333333,85.32183,10.33,7.748898736893173,"Samins Before Lunch And Restaurant And Bar, Thati Nati Galli, Baghbazar, Kathmandu 46000, Nepal",27.7079261,85.3217554,Samins Before Lunch And Restaurant And Bar,,Thati Nati Galli,46000,Kathmandu-28,Baghbazar,Kathmandu,Kathmandu,Bagmati Province,Nepal,np,© OpenStreetMap contributors,Open Database License,https://www.openstreetmap.org/copyright
82835847,1153,2019-12-30 13:54:10,27.70819333333333,85.31991666666667,12.84,20.976690769111904,"Prabhu Bank, Kathmandu Metropolitan City, Kathmandu 46000, Nepal",27.708171749999998,85.319704983467,Prabhu Bank,,,46000,Kathmandu-28,,Kathmandu Metropolitan City,Kathmandu,Bagmati Province,Nepal,np,© OpenStreetMap contributors,Open Database License,https://www.openstreetmap.org/copyright
82836368,1153,2019-12-30 13:54:39,27.70987833333333,85.31994666666667,8.65,10.13309617959001,"Bank of Kathmandu, Kathmandu, Kathmandu 66400, Nepal",27.709789,85.319967,Bank of Kathmandu,,,66400,,,Kathmandu,Kathmandu,Three,Nepal,np,© OpenStreetMap contributors,Open Database License,https://www.openstreetmap.org/copyright
82836884,1153,2019-12-30 13:55:09,27.709946666666667,85.31885,3.92,3.522428252586874,"Civil Bank Ltd, Tindhara Sadak, Narayan Chaur, Kathmandu 66400, Nepal",27.7099224,85.318873,Civil Bank Ltd,,Tindhara Sadak,66400,Kathmandu-01,Narayan Chaur,Kathmandu,Kathmandu,Bagmati Province,Nepal,np,© OpenStreetMap contributors,Open Database License,https://www.openstreetmap.org/copyright
83768367,1153,2019-12-31 05:08:24,27.71059,85.32815333333333,12.2,14.915977686333083,"Sonu Chasma Pasal, Thirbam Sadak 3, Narayan Chaur, Kathmandu 44605, Nepal",27.710507,85.3280343,Sonu Chasma Pasal,,Thirbam Sadak 3,44605,Kathmandu-01,Narayan Chaur,Kathmandu,Kathmandu,Bagmati Province,Nepal,np,© OpenStreetMap contributors,Open Database License,https://www.openstreetmap.org/copyright
83768871,1153,2019-12-31 05:08:54,27.70984,85.32792333333333,0.52,3.114153856719093,"Mischka Ktm, Kathmandu, Kathmandu 44605, Nepal",27.709812,85.327924,Mischka Ktm,,,44605,,,Kathmandu,Kathmandu,Three,Nepal,np,© OpenStreetMap contributors,Open Database License,https://www.openstreetmap.org/copyright
83769396,1153,2019-12-31 05:09:24,27.709841666666662,85.32793666666667,0.29,2.910543024600335,"Bal Kumar shrestha, Thirbam Sadak 3, Narayan Chaur, Kathmandu 44605, Nepal",27.7098648,85.3279505,Bal Kumar shrestha,,Thirbam Sadak 3,44605,Kathmandu-01,Narayan Chaur,Kathmandu,Kathmandu,Bagmati Province,Nepal,np,© OpenStreetMap contributors,Open Database License,https://www.openstreetmap.org/copyright
83769946,1153,2019-12-31 05:09:54,27.709831666666663,85.327935,0.11,2.44025767250382,"Mischka Ktm, Kathmandu, Kathmandu 44605, Nepal",27.709812,85.327924,Mischka Ktm,,,44605,,,Kathmandu,Kathmandu,Three,Nepal,np,© OpenStreetMap contributors,Open Database License,https://www.openstreetmap.org/copyright
83770455,1153,2019-12-31 05:10:23,27.709821666666667,85.32789833333334,0.02,2.745824736996449,"Mischka Ktm, Kathmandu, Kathmandu 44605, Nepal",27.709812,85.327924,Mischka Ktm,,,44605,,,Kathmandu,Kathmandu,Three,Nepal,np,© OpenStreetMap contributors,Open Database License,https://www.openstreetmap.org/copyright
83770970,1153,2019-12-31 05:10:53,27.70982833333333,85.327885,0.04,4.247169323587832,"Mischka Ktm, Kathmandu, Kathmandu 44605, Nepal",27.709812,85.327924,Mischka Ktm,,,44605,,,Kathmandu,Kathmandu,Three,Nepal,np,© OpenStreetMap contributors,Open Database License,https://www.openstreetmap.org/copyright
83771494,1153,2019-12-31 05:11:23,27.709823333333333,85.32789,0.06,3.576430447200728,"Mischka Ktm, Kathmandu, Kathmandu 44605, Nepal",27.709812,85.327924,Mischka Ktm,,,44605,,,Kathmandu,Kathmandu,Three,Nepal,np,© OpenStreetMap contributors,Open Database License,https://www.openstreetmap.org/copyright
83772010,1153,2019-12-31 05:11:53,27.70967,85.32782333333333,5.6,5.2386190534034975,"Angan, Kathmandu, Kathmandu 44605, Nepal",27.709717,85.327827,Angan,,,44605,,,Kathmandu,Kathmandu,Three,Nepal,np,© OpenStreetMap contributors,Open Database License,https://www.openstreetmap.org/copyright
83772518,1153,2019-12-31 05:12:22,27.708266666666667,85.32750333333334,8.22,8.719727219233036,"Orient Paradise Tours and Travels, Thirbam Sadak 3, Dillibazar, Kathmandu 44605, Nepal",27.7083398,85.3275353,Orient Paradise Tours and Travels,,Thirbam Sadak 3,44605,Kathmandu-30,Dillibazar,Kathmandu,Kathmandu,Bagmati Province,Nepal,np,© OpenStreetMap contributors,Open Database License,https://www.openstreetmap.org/copyright
83773046,1153,2019-12-31 05:12:52,27.706936666666667,85.327235,12.07,33.86521516617189,"Thirbam Sadak 3, Kathmandu, Kathmandu 44605, Nepal",27.706936,85.327579,,,Thirbam Sadak 3,44605,,,Kathmandu,Kathmandu,Three,Nepal,np,© OpenStreetMap contributors,Open Database License,https://www.openstreetmap.org/copyright
83773588,1153,2019-12-31 05:13:22,27.706576666666667,85.32671166666667,0.86,15.02363079003961,"Postal Service Department, Kathmandu, Kathmandu 44605, Nepal",27.706694,85.326636,Postal Service Department,,,44605,,,Kathmandu,Kathmandu,Three,Nepal,np,© OpenStreetMap contributors,Open Database License,https://www.openstreetmap.org/copyright
83774134,1153,2019-12-31 05:13:52,27.70659,85.326815,0.87,21.077432391339265,"Postal Service Department, Kathmandu, Kathmandu 44605, Nepal",27.706694,85.326636,Postal Service Department,,,44605,,,Kathmandu,Kathmandu,Three,Nepal,np,© OpenStreetMap contributors,Open Database License,https://www.openstreetmap.org/copyright
83774683,1153,2019-12-31 05:14:21,27.70654,85.32682166666666,0.26,25.046346786602953,"Postal Service Department, Kathmandu, Kathmandu 44605, Nepal",27.706694,85.326636,Postal Service Department,,,44605,,,Kathmandu,Kathmandu,Three,Nepal,np,© OpenStreetMap contributors,Open Database License,https://www.openstreetmap.org/copyright
83775214,1153,2019-12-31 05:14:51,27.7065,85.326795,0.35,24.33901649445616,"Maple School, Gurju Marg, Dillibazar, Kathmandu 44605, Nepal",27.70661875,85.32650781878466,Maple School,,Gurju Marg,44605,Kathmandu-30,Dillibazar,Kathmandu,Kathmandu,Bagmati Province,Nepal,np,© OpenStreetMap contributors,Open Database License,https://www.openstreetmap.org/copyright
83775737,1153,2019-12-31 05:15:21,27.706501666666668,85.32676666666667,0.02,21.685510958102956,"Maple School, Gurju Marg, Dillibazar, Kathmandu 44605, Nepal",27.70661875,85.32650781878466,Maple School,,Gurju Marg,44605,Kathmandu-30,Dillibazar,Kathmandu,Kathmandu,Bagmati Province,Nepal,np,© OpenStreetMap contributors,Open Database License,https://www.openstreetmap.org/copyright
83776251,1153,2019-12-31 05:15:51,27.70649333333333,85.32677333333334,0.14,22.662195530942547,"Maple School, Gurju Marg, Dillibazar, Kathmandu 44605, Nepal",27.70661875,85.32650781878466,Maple School,,Gurju Marg,44605,Kathmandu-30,Dillibazar,Kathmandu,Kathmandu,Bagmati Province,Nepal,np,© OpenStreetMap contributors,Open Database License,https://www.openstreetmap.org/copyright
83776773,1153,2019-12-31 05:16:21,27.706501666666668,85.32678166666666,0.39,23.04949438015339,"Maple School, Gurju Marg, Dillibazar, Kathmandu 44605, Nepal",27.70661875,85.32650781878466,Maple School,,Gurju Marg,44605,Kathmandu-30,Dillibazar,Kathmandu,Kathmandu,Bagmati Province,Nepal,np,© OpenStreetMap contributors,Open Database License,https://www.openstreetmap.org/copyright
83777285,1153,2019-12-31 05:16:50,27.706486666666667,85.32680833333333,0.15,26.1128264558565,"Maple School, Gurju Marg, Dillibazar, Kathmandu 44605, Nepal",27.70661875,85.32650781878466,Maple School,,Gurju Marg,44605,Kathmandu-30,Dillibazar,Kathmandu,Kathmandu,Bagmati Province,Nepal,np,© OpenStreetMap contributors,Open Database License,https://www.openstreetmap.org/copyright
83777802,1153,2019-12-31 05:17:20,27.70647333333333,85.32678666666666,0.31,24.829149715472614,"Maple School, Gurju Marg, Dillibazar, Kathmandu 44605, Nepal",27.70661875,85.32650781878466,Maple School,,Gurju Marg,44605,Kathmandu-30,Dillibazar,Kathmandu,Kathmandu,Bagmati Province,Nepal,np,© OpenStreetMap contributors,Open Database License,https://www.openstreetmap.org/copyright
83778341,1153,2019-12-31 05:17:50,27.706476666666667,85.32676166666667,0.1,22.499831341219796,"Maple School, Gurju Marg, Dillibazar, Kathmandu 44605, Nepal",27.70661875,85.32650781878466,Maple School,,Gurju Marg,44605,Kathmandu-30,Dillibazar,Kathmandu,Kathmandu,Bagmati Province,Nepal,np,© OpenStreetMap contributors,Open Database License,https://www.openstreetmap.org/copyright
83778863,1153,2019-12-31 05:18:20,27.706468333333333,85.32676666666667,0.22,23.398663508117284,"Maple School, Gurju Marg, Dillibazar, Kathmandu 44605, Nepal",27.70661875,85.32650781878466,Maple School,,Gurju Marg,44605,Kathmandu-30,Dillibazar,Kathmandu,Kathmandu,Bagmati Province,Nepal,np,© OpenStreetMap contributors,Open Database License,https://www.openstreetmap.org/copyright
83779374,1153,2019-12-31 05:18:50,27.706445,85.326765,0.14,24.726515403839212,"Maple School, Gurju Marg, Dillibazar, Kathmandu 44605, Nepal",27.70661875,85.32650781878466,Maple School,,Gurju Marg,44605,Kathmandu-30,Dillibazar,Kathmandu,Kathmandu,Bagmati Province,Nepal,np,© OpenStreetMap contributors,Open Database License,https://www.openstreetmap.org/copyright
83779894,1153,2019-12-31 05:19:19,27.70647333333333,85.32677333333334,0.11,23.679971324923184,"Maple School, Gurju Marg, Dillibazar, Kathmandu 44605, Nepal",27.70661875,85.32650781878466,Maple School,,Gurju Marg,44605,Kathmandu-30,Dillibazar,Kathmandu,Kathmandu,Bagmati Province,Nepal,np,© OpenStreetMap contributors,Open Database License,https://www.openstreetmap.org/copyright
83780423,1153,2019-12-31 05:19:49,27.70645,85.32677666666666,0.08,25.335411086912117,"Maple School, Gurju Marg, Dillibazar, Kathmandu 44605, Nepal",27.70661875,85.32650781878466,Maple School,,Gurju Marg,44605,Kathmandu-30,Dillibazar,Kathmandu,Kathmandu,Bagmati Province,Nepal,np,© OpenStreetMap contributors,Open Database License,https://www.openstreetmap.org/copyright
83780927,1153,2019-12-31 05:20:19,27.70645333333333,85.32679,0.18,26.230114890315118,"Maple School, Gurju Marg, Dillibazar, Kathmandu 44605, Nepal",27.70661875,85.32650781878466,Maple School,,Gurju Marg,44605,Kathmandu-30,Dillibazar,Kathmandu,Kathmandu,Bagmati Province,Nepal,np,© OpenStreetMap contributors,Open Database License,https://www.openstreetmap.org/copyright
83781440,1153,2019-12-31 05:20:49,27.70646,85.32678166666666,0.23,25.14194653756473,"Maple School, Gurju Marg, Dillibazar, Kathmandu 44605, Nepal",27.70661875,85.32650781878466,Maple School,,Gurju Marg,44605,Kathmandu-30,Dillibazar,Kathmandu,Kathmandu,Bagmati Province,Nepal,np,© OpenStreetMap contributors,Open Database License,https://www.openstreetmap.org/copyright
83781957,1153,2019-12-31 05:21:19,27.706465,85.32675333333333,0.12,22.49789840683568,"Maple School, Gurju Marg, Dillibazar, Kathmandu 44605, Nepal",27.70661875,85.32650781878466,Maple School,,Gurju Marg,44605,Kathmandu-30,Dillibazar,Kathmandu,Kathmandu,Bagmati Province,Nepal,np,© OpenStreetMap contributors,Open Database License,https://www.openstreetmap.org/copyright
83782480,1153,2019-12-31 05:21:48,27.706443333333333,85.32675333333333,0.27,23.934890997771017,"Maple School, Gurju Marg, Dillibazar, Kathmandu 44605, Nepal",27.70661875,85.32650781878466,Maple School,,Gurju Marg,44605,Kathmandu-30,Dillibazar,Kathmandu,Kathmandu,Bagmati Province,Nepal,np,© OpenStreetMap contributors,Open Database License,https://www.openstreetmap.org/copyright
83782988,1153,2019-12-31 05:22:18,27.706456666666668,85.32674166666666,0.14,22.11371741730198,"Maple School, Gurju Marg, Dillibazar, Kathmandu 44605, Nepal",27.70661875,85.32650781878466,Maple School,,Gurju Marg,44605,Kathmandu-30,Dillibazar,Kathmandu,Kathmandu,Bagmati Province,Nepal,np,© OpenStreetMap contributors,Open Database License,https://www.openstreetmap.org/copyright
83783540,1153,2019-12-31 05:22:48,27.706465,85.32677666666666,0.12,24.432073863462733,"Maple School, Gurju Marg, Dillibazar, Kathmandu 44605, Nepal",27.70661875,85.32650781878466,Maple School,,Gurju Marg,44605,Kathmandu-30,Dillibazar,Kathmandu,Kathmandu,Bagmati Province,Nepal,np,© OpenStreetMap contributors,Open Database License,https://www.openstreetmap.org/copyright
83784061,1153,2019-12-31 05:23:18,27.70647,85.32677166666667,0.1,23.72420254124969,"Maple School, Gurju Marg, Dillibazar, Kathmandu 44605, Nepal",27.70661875,85.32650781878466,Maple School,,Gurju Marg,44605,Kathmandu-30,Dillibazar,Kathmandu,Kathmandu,Bagmati Province,Nepal,np,© OpenStreetMap contributors,Open Database License,https://www.openstreetmap.org/copyright
83784602,1153,2019-12-31 05:23:47,27.70646333333333,85.32678166666666,0.53,24.949359196415923,"Maple School, Gurju Marg, Dillibazar, Kathmandu 44605, Nepal",27.70661875,85.32650781878466,Maple School,,Gurju Marg,44605,Kathmandu-30,Dillibazar,Kathmandu,Kathmandu,Bagmati Province,Nepal,np,© OpenStreetMap contributors,Open Database License,https://www.openstreetmap.org/copyright
83785110,1153,2019-12-31 05:24:17,27.70648333333333,85.32676,0.4,21.99140479952833,"Maple School, Gurju Marg, Dillibazar, Kathmandu 44605, Nepal",27.70661875,85.32650781878466,Maple School,,Gurju Marg,44605,Kathmandu-30,Dillibazar,Kathmandu,Kathmandu,Bagmati Province,Nepal,np,© OpenStreetMap contributors,Open Database License,https://www.openstreetmap.org/copyright
83785636,1153,2019-12-31 05:24:47,27.706476666666667,85.32675666666667,0.07,22.076160567019606,"Maple School, Gurju Marg, Dillibazar, Kathmandu 44605, Nepal",27.70661875,85.32650781878466,Maple School,,Gurju Marg,44605,Kathmandu-30,Dillibazar,Kathmandu,Kathmandu,Bagmati Province,Nepal,np,© OpenStreetMap contributors,Open Database License,https://www.openstreetmap.org/copyright
83786141,1153,2019-12-31 05:25:17,27.706471666666665,85.32676333333333,0.37,22.92531692442215,"Maple School, Gurju Marg, Dillibazar, Kathmandu 44605, Nepal",27.70661875,85.32650781878466,Maple School,,Gurju Marg,44605,Kathmandu-30,Dillibazar,Kathmandu,Kathmandu,Bagmati Province,Nepal,np,© OpenStreetMap contributors,Open Database License,https://www.openstreetmap.org/copyright
83786654,1153,2019-12-31 05:25:47,27.706481666666665,85.32676666666667,0.14,22.656254493891893,"Maple School, Gurju Marg, Dillibazar, Kathmandu 44605, Nepal",27.70661875,85.32650781878466,Maple School,,Gurju Marg,44605,Kathmandu-30,Dillibazar,Kathmandu,Kathmandu,Bagmati Province,Nepal,np,© OpenStreetMap contributors,Open Database License,https://www.openstreetmap.org/copyright
83787157,1153,2019-12-31 05:26:16,27.70647333333333,85.32676,0.33,22.548642590698122,"Maple School, Gurju Marg, Dillibazar, Kathmandu 44605, Nepal",27.70661875,85.32650781878466,Maple School,,Gurju Marg,44605,Kathmandu-30,Dillibazar,Kathmandu,Kathmandu,Bagmati Province,Nepal,np,© OpenStreetMap contributors,Open Database License,https://www.openstreetmap.org/copyright
83787668,1153,2019-12-31 05:26:46,27.70648,85.32675333333333,0.04,21.604688823981277,"Maple School, Gurju Marg, Dillibazar, Kathmandu 44605, Nepal",27.70661875,85.32650781878466,Maple School,,Gurju Marg,44605,Kathmandu-30,Dillibazar,Kathmandu,Kathmandu,Bagmati Province,Nepal,np,© OpenStreetMap contributors,Open Database License,https://www.openstreetmap.org/copyright
83788182,1153,2019-12-31 05:27:16,27.706478333333333,85.32683833333333,3.99,24.226537843365506,"ChaarKhaal, Gurju Marg, Dillibazar, Kathmandu 44605, Nepal",27.706210900000002,85.32734983783489,ChaarKhaal,,Gurju Marg,44605,Kathmandu-30,Dillibazar,Kathmandu,Kathmandu,Bagmati Province,Nepal,np,© OpenStreetMap contributors,Open Database License,https://www.openstreetmap.org/copyright
83788711,1153,2019-12-31 05:27:46,27.707936666666665,85.32734166666667,18.76,48.91119272492364,"Nepal Power Investment Corporation, Thirbam Sadak 3 Chaarkhaal 33, Dillibazar, Kathmandu 44601, Nepal",27.70816285,85.32691554206914,Nepal Power Investment Corporation,Chaarkhaal 33,Thirbam Sadak 3,44601,Kathmandu-30,Dillibazar,Kathmandu,Kathmandu,Bagmati Province,Nepal,np,© OpenStreetMap contributors,Open Database License,https://www.openstreetmap.org/copyright
83789218,1153,2019-12-31 05:28:16,27.709485,85.32791833333333,4.51,21.726042440312582,"prime bank, Pashupati Sadak, Maitidevi, Kathmandu 44605, Nepal",27.7095641,85.32815891197183,prime bank,,Pashupati Sadak,44605,Kathmandu-30,Maitidevi,Kathmandu,Kathmandu,Bagmati Province,Nepal,np,© OpenStreetMap contributors,Open Database License,https://www.openstreetmap.org/copyright
83789750,1153,2019-12-31 05:28:45,27.709075,85.329965,16.09,33.941097348182424,"KRISHNA BOUTIQUE, Radhe Marga 494, Kathmandu, Kathmandu 977, Nepal",27.708931,85.330269,KRISHNA BOUTIQUE,494,Radhe Marga,977,,,Kathmandu,Kathmandu,Three,Nepal,np,© OpenStreetMap contributors,Open Database License,https://www.openstreetmap.org/copyright
83790297,1153,2019-12-31 05:29:15,27.708605,85.33216666666667,15.8,3.6000242550892216,"Maitidevi, Kathmandu 44605, Nepal",27.7086373,85.3319646,,,,44605,Kathmandu-30,Maitidevi,Kathmandu,Kathmandu,Bagmati Province,Nepal,np,© OpenStreetMap contributors,Open Database License,https://www.openstreetmap.org/copyright
83790861,1153,2019-12-31 05:29:46,27.708196666666662,85.33427833333333,15.25,13.307331306638563,"Shanta Plaza, Pashupati Sadak, Maitidevi, Kathmandu 44605, Nepal",27.7080902,85.3342166,Shanta Plaza,,Pashupati Sadak,44605,Kathmandu-30,Maitidevi,Kathmandu,Kathmandu,Bagmati Province,Nepal,np,© OpenStreetMap contributors,Open Database License,https://www.openstreetmap.org/copyright
83791372,1153,2019-12-31 05:30:15,27.708113333333333,85.33642833333333,10.3,3.7503412367951983,"Ratopul, Kathmandu, Kathmandu 44605, Nepal",27.708085,85.336449,Ratopul,,,44605,,,Kathmandu,Kathmandu,Three,Nepal,np,© OpenStreetMap contributors,Open Database License,https://www.openstreetmap.org/copyright
83791889,1153,2019-12-31 05:30:44,27.708023333333333,85.33778166666667,12.9,8.872572384580122,"The Great Malika, Pashupati Sadak, Chabahil, Kathmandu 44660, Nepal",27.70816285,85.337752,The Great Malika,,Pashupati Sadak,44660,Kathmandu-07,Chabahil,Kathmandu,Kathmandu,Bagmati Province,Nepal,np,© OpenStreetMap contributors,Open Database License,https://www.openstreetmap.org/copyright
83828556,1153,2019-12-31 06:05:30,27.707978333333333,85.338985,0.38,16.503289917977803,"Wigan & Leigh College, Pashupati Sadak, Chabahil, Kathmandu 44660, Nepal",27.70814345,85.33914129437514,Wigan & Leigh College,,Pashupati Sadak,44660,Kathmandu-07,Chabahil,Kathmandu,Kathmandu,Bagmati Province,Nepal,np,© OpenStreetMap contributors,Open Database License,https://www.openstreetmap.org/copyright
83829115,1153,2019-12-31 06:05:59,27.707988333333333,85.33898666666667,0.11,15.446639641902353,"Wigan & Leigh College, Pashupati Sadak, Chabahil, Kathmandu 44660, Nepal",27.70814345,85.33914129437514,Wigan & Leigh College,,Pashupati Sadak,44660,Kathmandu-07,Chabahil,Kathmandu,Kathmandu,Bagmati Province,Nepal,np,© OpenStreetMap contributors,Open Database License,https://www.openstreetmap.org/copyright
83829663,1153,2019-12-31 06:06:29,27.70798333333333,85.338985,0.04,16.01289139141767,"Wigan & Leigh College, Pashupati Sadak, Chabahil, Kathmandu 44660, Nepal",27.70814345,85.33914129437514,Wigan & Leigh College,,Pashupati Sadak,44660,Kathmandu-07,Chabahil,Kathmandu,Kathmandu,Bagmati Province,Nepal,np,© OpenStreetMap contributors,Open Database License,https://www.openstreetmap.org/copyright
83830208,1153,2019-12-31 06:06:59,27.70799166666667,85.338915,5.96,19.602404522590135,"Wigan & Leigh College, Pashupati Sadak, Chabahil, Kathmandu 44660, Nepal",27.70814345,85.33914129437514,Wigan & Leigh College,,Pashupati Sadak,44660,Kathmandu-07,Chabahil,Kathmandu,Kathmandu,Bagmati Province,Nepal,np,© OpenStreetMap contributors,Open Database License,https://www.openstreetmap.org/copyright
83830769,1153,2019-12-31 06:07:29,27.708178333333333,85.33712166666666,10.44,0.45362097942727747,"Rudra Mati Marg-2, Chabahil, Kathmandu 44660, Nepal",27.7098912,85.337262,Rudra Mati Marg-2,,Rudra Mati Marg-2,44660,Kathmandu-07,Chabahil,Kathmandu,Kathmandu,Bagmati Province,Nepal,np,© OpenStreetMap contributors,Open Database License,https://www.openstreetmap.org/copyright
83831298,1153,2019-12-31 06:07:59,27.71043,85.33736333333333,23.79,12.721761261085202,"Sunrize Beauty Parlor, Kathmandu, Kathmandu 44660, Nepal",27.710394,85.337486,Sunrize Beauty Parlor,,,44660,,,Kathmandu,Kathmandu,Three,Nepal,np,© OpenStreetMap contributors,Open Database License,https://www.openstreetmap.org/copyright
83954410,1153,2019-12-31 08:04:42,27.70178,85.33931333333334,11.8,8.392571838297137,"Touchstone Infosys, Baburam Acharya Marg 175723, Baneshwar, Kathmandu 44600, Nepal",27.7017596,85.33916782177315,Touchstone Infosys,175723,Baburam Acharya Marg,44600,Kathmandu-10,Baneshwar,Kathmandu,Kathmandu,Bagmati Province,Nepal,np,© OpenStreetMap contributors,Open Database License,https://www.openstreetmap.org/copyright
83954672,1153,2019-12-31 08:04:56,27.70241333333333,85.33749833333333,10.67,15.492684466020432,"NCDC Ilam, Kathmandu Office, Kathmandu, Kathmandu 44703, Nepal",27.70228,85.337544,"NCDC Ilam, Kathmandu Office",,,44703,,,Kathmandu,Kathmandu,Three,Nepal,np,© OpenStreetMap contributors,Open Database License,https://www.openstreetmap.org/copyright
83955208,1153,2019-12-31 08:05:25,27.702593333333333,85.33688833333333,5.27,23.315456342244623,"Kamal Shoes Center, Haatti Gaunda Marg, Baneshwar, Kathmandu 00446, Nepal",27.7024177,85.3370177,Kamal Shoes Center,,Haatti Gaunda Marg,00446,Kathmandu-10,Baneshwar,Kathmandu,Kathmandu,Bagmati Province,Nepal,np,© OpenStreetMap contributors,Open Database License,https://www.openstreetmap.org/copyright
83955722,1153,2019-12-31 08:05:55,27.70293833333333,85.335815,7.99,18.02101546836294,"Maitidevi Petrol Station, Rudra Mati Marg, Ghattekulo, Kathmandu 00446, Nepal",27.7028872,85.3356413,Maitidevi Petrol Station,,Rudra Mati Marg,00446,Kathmandu-29,Ghattekulo,Kathmandu,Kathmandu,Bagmati Province,Nepal,np,© OpenStreetMap contributors,Open Database License,https://www.openstreetmap.org/copyright
83985080,1153,2019-12-31 08:34:05,27.70289333333333,85.33617333333333,0.08,1.6463520439375783,"Tilganga, Kathmandu 00446, Nepal",27.70302,85.3362038,,,,00446,Kathmandu-09,Tilganga,Kathmandu,Kathmandu,Bagmati Province,Nepal,np,© OpenStreetMap contributors,Open Database License,https://www.openstreetmap.org/copyright
83985103,1153,2019-12-31 08:34:06,27.70290333333333,85.33618,0.27,1.0987481336453622,"Tilganga, Kathmandu 00446, Nepal",27.70302,85.3362038,,,,00446,Kathmandu-09,Tilganga,Kathmandu,Kathmandu,Bagmati Province,Nepal,np,© OpenStreetMap contributors,Open Database License,https://www.openstreetmap.org/copyright
83985112,1153,2019-12-31 08:34:06,27.702801666666662,85.33646166666666,1.84,8.452542803609951,"Maitidevi Kirana, Setopul, Kathmandu, Kathmandu 00446, Nepal",27.702873,85.336432,Maitidevi Kirana,,Setopul,00446,,,Kathmandu,Kathmandu,Three,Nepal,np,© OpenStreetMap contributors,Open Database License,https://www.openstreetmap.org/copyright
83985136,1153,2019-12-31 08:34:08,27.702475,85.337435,9.4,17.098534931381703,"Baburam Acharya Marg, Kathmandu, Kathmandu 44703, Nepal",27.702514,85.337267,,,Baburam Acharya Marg,44703,,,Kathmandu,Kathmandu,Three,Nepal,np,© OpenStreetMap contributors,Open Database License,https://www.openstreetmap.org/copyright
83985143,1153,2019-12-31 08:34:08,27.701816666666662,85.33942666666667,12.35,19.87580512292633,"Touchstone Infosys, Baburam Acharya Marg 175723, Baneshwar, Kathmandu 44600, Nepal",27.7017596,85.33916782177315,Touchstone Infosys,175723,Baburam Acharya Marg,44600,Kathmandu-10,Baneshwar,Kathmandu,Kathmandu,Bagmati Province,Nepal,np,© OpenStreetMap contributors,Open Database License,https://www.openstreetmap.org/copyright
84345578,1153,2019-12-31 14:13:26,27.70799166666667,85.33896833333333,16.47,16.094554551517955,"Wigan & Leigh College, Pashupati Sadak, Chabahil, Kathmandu 44660, Nepal",27.70814345,85.33914129437514,Wigan & Leigh College,,Pashupati Sadak,44660,Kathmandu-07,Chabahil,Kathmandu,Kathmandu,Bagmati Province,Nepal,np,© OpenStreetMap contributors,Open Database License,https://www.openstreetmap.org/copyright
84346095,1153,2019-12-31 14:13:57,27.708041666666663,85.33716,9.22,11.62136718091791,"Rudra Mati Marg-2, Kathmandu, Kathmandu 44660, Nepal",27.708139,85.337203,,,Rudra Mati Marg-2,44660,,,Kathmandu,Kathmandu,Three,Nepal,np,© OpenStreetMap contributors,Open Database License,https://www.openstreetmap.org/copyright
84346608,1153,2019-12-31 14:14:26,27.708166666666667,85.33511166666666,13.83,8.00145693282524,"Binayek Photo Studio, Kathmandu, Kathmandu 44605, Nepal",27.708096,85.335127,Binayek Photo Studio,,,44605,,,Kathmandu,Kathmandu,Three,Nepal,np,© OpenStreetMap contributors,Open Database License,https://www.openstreetmap.org/copyright
84347123,1153,2019-12-31 14:14:56,27.708241666666662,85.33326,11.07,14.224596664592209,"Subidha Travel, Pashupati Marga, Kathmandu, Kathmandu 44605, Nepal",27.708218,85.333118,Subidha Travel,,Pashupati Marga,44605,,,Kathmandu,Kathmandu,Three,Nepal,np,© OpenStreetMap contributors,Open Database License,https://www.openstreetmap.org/copyright
84347629,1153,2019-12-31 14:15:26,27.70865166666667,85.33154666666667,12.41,6.829865880738119,"Pashupati Sadak, Kathmandu, Kathmandu 44605, Nepal",27.708631,85.331612,,,Pashupati Sadak,44605,,,Kathmandu,Kathmandu,Three,Nepal,np,© OpenStreetMap contributors,Open Database License,https://www.openstreetmap.org/copyright
84348171,1153,2019-12-31 14:15:56,27.70919,85.32931,14.52,12.195820508993975,"Braindigit IT Solution, Pashupati Sadak, Maitidevi, Kathmandu 44605, Nepal",27.70941225,85.32935865659823,Braindigit IT Solution,,Pashupati Sadak,44605,Kathmandu-30,Maitidevi,Kathmandu,Kathmandu,Bagmati Province,Nepal,np,© OpenStreetMap contributors,Open Database License,https://www.openstreetmap.org/copyright
84348706,1153,2019-12-31 14:16:25,27.709555,85.32788,1.01,18.75398159707382,"Angan, Kathmandu, Kathmandu 44605, Nepal",27.709717,85.327827,Angan,,,44605,,,Kathmandu,Kathmandu,Three,Nepal,np,© OpenStreetMap contributors,Open Database License,https://www.openstreetmap.org/copyright
84349241,1153,2019-12-31 14:16:55,27.710651666666667,85.32810666666667,14.38,8.37695312322057,"Sleepwell, Kathmandu, Kathmandu 44605, Nepal",27.710727,85.328106,Sleepwell,,,44605,,,Kathmandu,Kathmandu,Three,Nepal,np,© OpenStreetMap contributors,Open Database License,https://www.openstreetmap.org/copyright