original_id,original_deviceid,original_servertime,original_latitude,original_longitude,original_speed,distance,formatted,lat,lon,housenumber,name,street,postcode,district,suburb,city,county,state,country,country_code,attribution,attribution_license,attribution_url
54237263,1159,2019-12-11 11:48:05,27.70801,85.33919166666666,18.32,7.1252270247683605,"Wigan & Leigh College, Pashupati Sadak, Chabahil, Kathmandu 44660, Nepal",27.70814345,85.33914129437514,,Wigan & Leigh College,Pashupati Sadak,44660,Kathmandu-07,Chabahil,Kathmandu,Kathmandu,Bagmati Province,Nepal,np,© OpenStreetMap contributors,Open Database License,https://www.openstreetmap.org/copyright
54237798,1159,2019-12-11 11:48:35,27.708001666666668,85.33743166666666,3.4,8.184895217612526,"Ratopul Stop, Kathmandu, Kathmandu 44660, Nepal",27.708052,85.337371,,Ratopul Stop,,44660,,,Kathmandu,Kathmandu,Three,Nepal,np,© OpenStreetMap contributors,Open Database License,https://www.openstreetmap.org/copyright
54238355,1159,2019-12-11 11:49:04,27.70813,85.33618833333334,15.26,5.64566540438247,"Nikunj store, Pashupati Sadak, Maitidevi, Kathmandu 44605, Nepal",27.70818,85.3361983,,Nikunj store,Pashupati Sadak,44605,Kathmandu-30,Maitidevi,Kathmandu,Kathmandu,Bagmati Province,Nepal,np,© OpenStreetMap contributors,Open Database License,https://www.openstreetmap.org/copyright
54238893,1159,2019-12-11 11:49:34,27.708213333333333,85.33390333333334,14.03,22.662434617970362,"Hero Honda, Pashupati Sadak, Maitidevi, Kathmandu 44605, Nepal",27.70834145,85.33365525495283,,Hero Honda,Pashupati Sadak,44605,Kathmandu-30,Maitidevi,Kathmandu,Kathmandu,Bagmati Province,Nepal,np,© OpenStreetMap contributors,Open Database License,https://www.openstreetmap.org/copyright
54239416,1159,2019-12-11 11:50:04,27.707421666666665,85.33345666666666,10.86,13.170748222254483,"AM/PM Cafe and Bar, Maiti Devi marg, Maitidevi, Kathmandu 44605, Nepal",27.7073033,85.3334616,,AM/PM Cafe and Bar,Maiti Devi marg,44605,Kathmandu-30,Maitidevi,Kathmandu,Kathmandu,Bagmati Province,Nepal,np,© OpenStreetMap contributors,Open Database License,https://www.openstreetmap.org/copyright
54239984,1159,2019-12-11 11:50:34,27.707138333333333,85.33316,0.86,36.91737119865594,"Himalayan Bank, Kathmandu, Kathmandu 44605, Nepal",27.707055,85.333523,,Himalayan Bank,,44605,,,Kathmandu,Kathmandu,Three,Nepal,np,© OpenStreetMap contributors,Open Database License,https://www.openstreetmap.org/copyright
54240564,1159,2019-12-11 11:51:06,27.70706,85.33213333333333,5.01,2.4931853505158075,"Maitidevi, Kathmandu 44605, Nepal",27.7072457,85.3320644,,,,44605,Kathmandu-30,Maitidevi,Kathmandu,Kathmandu,Bagmati Province,Nepal,np,© OpenStreetMap contributors,Open Database License,https://www.openstreetmap.org/copyright
54241037,1159,2019-12-11 11:51:33,27.70612333333333,85.33076,10.43,0.23742957199560474,"Mahakavi Marg, Maitidevi, Kathmandu 44605, Nepal",27.7062999,85.3315053,,Mahakavi Marg,Mahakavi Marg,44605,Kathmandu-30,Maitidevi,Kathmandu,Kathmandu,Bagmati Province,Nepal,np,© OpenStreetMap contributors,Open Database License,https://www.openstreetmap.org/copyright
54241562,1159,2019-12-11 11:52:03,27.70551333333333,85.329945,6.26,23.135844013885734,"Mirana Bakers and Cafe, Gyaneshwar Marg, Dillibazar, Kathmandu 44605, Nepal",27.7056125,85.3297384,,Mirana Bakers and Cafe,Gyaneshwar Marg,44605,Kathmandu-30,Dillibazar,Kathmandu,Kathmandu,Bagmati Province,Nepal,np,© OpenStreetMap contributors,Open Database License,https://www.openstreetmap.org/copyright
54242105,1159,2019-12-11 11:52:33,27.705235,85.32941666666666,0.6,8.229920560488559,"Bal Bagaicha, Mahakavi Marg, Maitidevi, Kathmandu 44605, Nepal",27.7053181,85.32956027398437,,Bal Bagaicha,Mahakavi Marg,44605,Kathmandu-30,Maitidevi,Kathmandu,Kathmandu,Bagmati Province,Nepal,np,© OpenStreetMap contributors,Open Database License,https://www.openstreetmap.org/copyright
54242637,1159,2019-12-11 11:53:03,27.706071666666663,85.33001666666667,2.28,12.46064759529887,"Softwarica College of IT & E-Commerce, Gyaneshwar Marg, Dillibazar, Kathmandu 44605, Nepal",27.7061835,85.3300086,,Softwarica College of IT & E-Commerce,Gyaneshwar Marg,44605,Kathmandu-30,Dillibazar,Kathmandu,Kathmandu,Bagmati Province,Nepal,np,© OpenStreetMap contributors,Open Database License,https://www.openstreetmap.org/copyright
54243180,1159,2019-12-11 11:53:32,27.706706666666665,85.330525,5.62,5.579717160459485,"Mid-Valley International College, Gyaneshwar Marg, Dillibazar, Kathmandu 44605, Nepal",27.70678615,85.3307284406658,,Mid-Valley International College,Gyaneshwar Marg,44605,Kathmandu-30,Dillibazar,Kathmandu,Kathmandu,Bagmati Province,Nepal,np,© OpenStreetMap contributors,Open Database License,https://www.openstreetmap.org/copyright
54243746,1159,2019-12-11 11:54:02,27.70786,85.33140333333333,9.77,14.594358341442483,"Super X ray Clinic, Kathmandu, Kathmandu 44605, Nepal",27.707922,85.331534,,Super X ray Clinic,,44605,,,Kathmandu,Kathmandu,Three,Nepal,np,© OpenStreetMap contributors,Open Database License,https://www.openstreetmap.org/copyright
54244268,1159,2019-12-11 11:54:32,27.708736666666667,85.33193833333333,11.5,4.661680031607188,"Maitidevi, Kathmandu 44605, Nepal",27.7086839,85.3318427,,,,44605,Kathmandu-30,Maitidevi,Kathmandu,Kathmandu,Bagmati Province,Nepal,np,© OpenStreetMap contributors,Open Database License,https://www.openstreetmap.org/copyright
54244802,1159,2019-12-11 11:55:02,27.71036,85.33307333333333,7.66,17.78839009017614,"ज्ञानेश्वर मार्ग, Kathmandu, Kathmandu 00975, Nepal",27.710215,85.332997,,,ज्ञानेश्वर मार्ग,00975,,,Kathmandu,Kathmandu,Three,Nepal,np,© OpenStreetMap contributors,Open Database License,https://www.openstreetmap.org/copyright
55341953,1159,2019-12-12 06:17:22,27.708155,85.335275,15.32,5.379441048440659,"Welcare Hospital and Research Centre, Pashupati Sadak, Maitidevi, Kathmandu 44605, Nepal",27.70797695,85.33527921821374,,Welcare Hospital and Research Centre,Pashupati Sadak,44605,Kathmandu-30,Maitidevi,Kathmandu,Kathmandu,Bagmati Province,Nepal,np,© OpenStreetMap contributors,Open Database License,https://www.openstreetmap.org/copyright
55342510,1159,2019-12-12 06:17:54,27.70819833333333,85.33359666666666,4.38,13.58787520979814,"Hero Honda, Pashupati Sadak, Maitidevi, Kathmandu 44605, Nepal",27.70834145,85.33365525495283,,Hero Honda,Pashupati Sadak,44605,Kathmandu-30,Maitidevi,Kathmandu,Kathmandu,Bagmati Province,Nepal,np,© OpenStreetMap contributors,Open Database License,https://www.openstreetmap.org/copyright
55342966,1159,2019-12-12 06:18:21,27.708528333333334,85.33223833333334,8.68,1.9153738657666837,"Maitidevi, Kathmandu 44605, Nepal",27.7086373,85.3319646,,,,44605,Kathmandu-30,Maitidevi,Kathmandu,Kathmandu,Bagmati Province,Nepal,np,© OpenStreetMap contributors,Open Database License,https://www.openstreetmap.org/copyright
55343495,1159,2019-12-12 06:18:52,27.70900333333333,85.329975,20.25,3.2570128850917124,"Gyaneshwor Petrol Pump, Kathmandu, Kathmandu 44605, Nepal",27.70898,85.329955,,Gyaneshwor Petrol Pump,,44605,,,Kathmandu,Kathmandu,Three,Nepal,np,© OpenStreetMap contributors,Open Database License,https://www.openstreetmap.org/copyright
55343988,1159,2019-12-12 06:19:21,27.709956666666667,85.32797166666667,12.66,1.814268107554601,"Tawa, Kathmandu, Kathmandu 44605, Nepal",27.709955,85.32799,,Tawa,,44605,,,Kathmandu,Kathmandu,Three,Nepal,np,© OpenStreetMap contributors,Open Database License,https://www.openstreetmap.org/copyright
56796191,1159,2019-12-13 05:37:16,27.71089,85.33696333333333,13.19,50.21306760357839,"Mahadev Galli 117/39, Kathmandu, Kathmandu 00975, Nepal",27.711097,85.33651,117/39,,Mahadev Galli,00975,,,Kathmandu,Kathmandu,Three,Nepal,np,© OpenStreetMap contributors,Open Database License,https://www.openstreetmap.org/copyright
56796732,1159,2019-12-13 05:37:45,27.70971,85.335665,9.96,3.662455745958974,"Martyrs' Memorial Boarding Secondary School, Shahid marg, Maitidevi, Kathmandu 00975, Nepal",27.70958065,85.33615247681033,,Martyrs' Memorial Boarding Secondary School,Shahid marg,00975,Kathmandu-30,Maitidevi,Kathmandu,Kathmandu,Bagmati Province,Nepal,np,© OpenStreetMap contributors,Open Database License,https://www.openstreetmap.org/copyright
56797279,1159,2019-12-13 05:38:15,27.70847,85.33417,8.01,14.958504653483173,"Little Flower Secondary School, Shahid marg, Maitidevi, Kathmandu 00975, Nepal",27.7086855,85.33406150732324,,Little Flower Secondary School,Shahid marg,00975,Kathmandu-30,Maitidevi,Kathmandu,Kathmandu,Bagmati Province,Nepal,np,© OpenStreetMap contributors,Open Database License,https://www.openstreetmap.org/copyright
56797816,1159,2019-12-13 05:38:45,27.70825,85.335115,2.79,1.3662362924068454,"Anu Beauty Care and Cosmetic, Pashupati Sadak, Maitidevi, Kathmandu 44605, Nepal",27.7082587,85.3351052,,Anu Beauty Care and Cosmetic,Pashupati Sadak,44605,Kathmandu-30,Maitidevi,Kathmandu,Kathmandu,Bagmati Province,Nepal,np,© OpenStreetMap contributors,Open Database License,https://www.openstreetmap.org/copyright
56798352,1159,2019-12-13 05:39:15,27.70813833333333,85.33626166666667,12.9,7.770419209159973,"Nikunj store, Pashupati Sadak, Maitidevi, Kathmandu 44605, Nepal",27.70818,85.3361983,,Nikunj store,Pashupati Sadak,44605,Kathmandu-30,Maitidevi,Kathmandu,Kathmandu,Bagmati Province,Nepal,np,© OpenStreetMap contributors,Open Database License,https://www.openstreetmap.org/copyright
56798900,1159,2019-12-13 05:39:45,27.708075,85.33704166666666,2.04,12.182379784692614,"Ratopul, Kathmandu, Kathmandu 44660, Nepal",27.708071,85.336918,,,Ratopul,44660,,,Kathmandu,Kathmandu,Three,Nepal,np,© OpenStreetMap contributors,Open Database License,https://www.openstreetmap.org/copyright
56799426,1159,2019-12-13 05:40:15,27.70800833333333,85.33818166666667,12.84,8.771342852450388,"Nice Tailor, Pashupati Sadak, Chabahil, Kathmandu 44660, Nepal",27.708124249999997,85.33812175,,Nice Tailor,Pashupati Sadak,44660,Kathmandu-07,Chabahil,Kathmandu,Kathmandu,Bagmati Province,Nepal,np,© OpenStreetMap contributors,Open Database License,https://www.openstreetmap.org/copyright
57099252,1159,2019-12-13 10:13:17,27.70799,85.337685,5.91,13.635940651260496,"The Great Malika, Pashupati Sadak, Chabahil, Kathmandu 44660, Nepal",27.70816285,85.337752,,The Great Malika,Pashupati Sadak,44660,Kathmandu-07,Chabahil,Kathmandu,Kathmandu,Bagmati Province,Nepal,np,© OpenStreetMap contributors,Open Database License,https://www.openstreetmap.org/copyright
57099807,1159,2019-12-13 10:13:46,27.70801,85.337405,4.06,5.745763332479565,"Ratopul Stop, Kathmandu, Kathmandu 44660, Nepal",27.708052,85.337371,,Ratopul Stop,,44660,,,Kathmandu,Kathmandu,Three,Nepal,np,© OpenStreetMap contributors,Open Database License,https://www.openstreetmap.org/copyright
57100353,1159,2019-12-13 10:14:16,27.708135,85.33537333333334,16.7,4.188438220115573,"Welcare Hospital and Research Centre, Pashupati Sadak, Maitidevi, Kathmandu 44605, Nepal",27.70797695,85.33527921821374,,Welcare Hospital and Research Centre,Pashupati Sadak,44605,Kathmandu-30,Maitidevi,Kathmandu,Kathmandu,Bagmati Province,Nepal,np,© OpenStreetMap contributors,Open Database License,https://www.openstreetmap.org/copyright
57100909,1159,2019-12-13 10:14:46,27.70819333333333,85.33348333333333,5.23,19.070077454493294,"Hero Honda, Pashupati Sadak, Maitidevi, Kathmandu 44605, Nepal",27.70834145,85.33365525495283,,Hero Honda,Pashupati Sadak,44605,Kathmandu-30,Maitidevi,Kathmandu,Kathmandu,Bagmati Province,Nepal,np,© OpenStreetMap contributors,Open Database License,https://www.openstreetmap.org/copyright
57101448,1159,2019-12-13 10:15:16,27.708535,85.33215833333334,13.21,3.9782248183202795,"Maitidevi, Kathmandu 44605, Nepal",27.7086373,85.3319646,,,,44605,Kathmandu-30,Maitidevi,Kathmandu,Kathmandu,Bagmati Province,Nepal,np,© OpenStreetMap contributors,Open Database License,https://www.openstreetmap.org/copyright
57101991,1159,2019-12-13 10:15:45,27.708865,85.33085333333334,2.86,15.250591647508655,"RD Kirana Store, Kathmandu, Kathmandu 44605, Nepal",27.70873,85.330826,,RD Kirana Store,,44605,,,Kathmandu,Kathmandu,Three,Nepal,np,© OpenStreetMap contributors,Open Database License,https://www.openstreetmap.org/copyright
57102514,1159,2019-12-13 10:16:15,27.709586666666667,85.33093,7.14,18.169532930696672,"Bits Crafters, Kathmandu, Kathmandu 44605, Nepal",27.709519,85.331098,,,Bits Crafters,44605,,,Kathmandu,Kathmandu,Three,Nepal,np,© OpenStreetMap contributors,Open Database License,https://www.openstreetmap.org/copyright
57103041,1159,2019-12-13 10:16:45,27.71062,85.33120166666667,2.55,4.325298457228087,"Ananda Bhairav Marg, Dillibazar, Kathmandu 44605, Nepal",27.7108327,85.3298008,,Ananda Bhairav Marg,Ananda Bhairav Marg,44605,Kathmandu-30,Dillibazar,Kathmandu,Kathmandu,Bagmati Province,Nepal,np,© OpenStreetMap contributors,Open Database License,https://www.openstreetmap.org/copyright
57103593,1159,2019-12-13 10:17:15,27.71070333333333,85.33088166666667,4.29,0.1249018414086755,"Ananda Bhairav Marg, Dillibazar, Kathmandu 44605, Nepal",27.7108327,85.3298008,,Ananda Bhairav Marg,Ananda Bhairav Marg,44605,Kathmandu-30,Dillibazar,Kathmandu,Kathmandu,Bagmati Province,Nepal,np,© OpenStreetMap contributors,Open Database License,https://www.openstreetmap.org/copyright
57104134,1159,2019-12-13 10:17:45,27.71073833333333,85.33067,0.56,0.8562790172737936,"Ananda Bhairav Marg, Dillibazar, Kathmandu 44605, Nepal",27.7108327,85.3298008,,Ananda Bhairav Marg,Ananda Bhairav Marg,44605,Kathmandu-30,Dillibazar,Kathmandu,Kathmandu,Bagmati Province,Nepal,np,© OpenStreetMap contributors,Open Database License,https://www.openstreetmap.org/copyright
57104670,1159,2019-12-13 10:18:14,27.710721666666668,85.33088166666667,5.27,2.1405451180929305,"Ananda Bhairav Marg, Dillibazar, Kathmandu 44605, Nepal",27.7108327,85.3298008,,Ananda Bhairav Marg,Ananda Bhairav Marg,44605,Kathmandu-30,Dillibazar,Kathmandu,Kathmandu,Bagmati Province,Nepal,np,© OpenStreetMap contributors,Open Database License,https://www.openstreetmap.org/copyright
57105200,1159,2019-12-13 10:18:44,27.710331666666665,85.33121833333334,11.29,3.322012194571902,"Devi marg, Maitidevi, Kathmandu 44605, Nepal",27.7103169,85.3311772,,Devi marg,Devi marg,44605,Kathmandu-30,Maitidevi,Kathmandu,Kathmandu,Bagmati Province,Nepal,np,© OpenStreetMap contributors,Open Database License,https://www.openstreetmap.org/copyright
57105745,1159,2019-12-13 10:19:14,27.709236666666666,85.33091833333333,7.34,24.26869009749852,"GalliGalli, Kathmandu, Kathmandu 44605, Nepal",27.709182,85.331157,,GalliGalli,,44605,,,Kathmandu,Kathmandu,Three,Nepal,np,© OpenStreetMap contributors,Open Database License,https://www.openstreetmap.org/copyright
57106267,1159,2019-12-13 10:19:45,27.70910333333333,85.33083,2.69,7.689489609257165,"Danphe Energy Pvt. Ltd., Devi marg, Dillibazar, Kathmandu 44605, Nepal",27.70900685,85.33082055,,Danphe Energy Pvt. Ltd.,Devi marg,44605,Kathmandu-30,Dillibazar,Kathmandu,Kathmandu,Bagmati Province,Nepal,np,© OpenStreetMap contributors,Open Database License,https://www.openstreetmap.org/copyright
57106812,1159,2019-12-13 10:20:14,27.70899,85.33077666666667,1.13,2.4521872672100353,"Danphe Energy Pvt. Ltd., Devi marg, Dillibazar, Kathmandu 44605, Nepal",27.70900685,85.33082055,,Danphe Energy Pvt. Ltd.,Devi marg,44605,Kathmandu-30,Dillibazar,Kathmandu,Kathmandu,Bagmati Province,Nepal,np,© OpenStreetMap contributors,Open Database License,https://www.openstreetmap.org/copyright
57107363,1159,2019-12-13 10:20:44,27.70884333333333,85.33108666666666,2.53,7.521859026692495,"Nishant Flower Shop, Kathmandu, Kathmandu 44605, Nepal",27.708776,85.331094,,Nishant Flower Shop,,44605,,,Kathmandu,Kathmandu,Three,Nepal,np,© OpenStreetMap contributors,Open Database License,https://www.openstreetmap.org/copyright
57107884,1159,2019-12-13 10:21:13,27.70858,85.33214333333333,13.95,0.19188888349776534,"Maitidevi, Kathmandu 44605, Nepal",27.7086373,85.3319646,,,,44605,Kathmandu-30,Maitidevi,Kathmandu,Kathmandu,Bagmati Province,Nepal,np,© OpenStreetMap contributors,Open Database License,https://www.openstreetmap.org/copyright
57108446,1159,2019-12-13 10:21:43,27.708051666666663,85.33338166666667,8.14,31.871890663376952,"Subidha Travel, Pashupati Marga, Kathmandu, Kathmandu 44605, Nepal",27.708218,85.333118,,Subidha Travel,Pashupati Marga,44605,,,Kathmandu,Kathmandu,Three,Nepal,np,© OpenStreetMap contributors,Open Database License,https://www.openstreetmap.org/copyright
57108990,1159,2019-12-13 10:22:13,27.706581666666665,85.333585,9.67,25.227279519264624,"Maitidevi Temple stop, Kathmandu, Kathmandu 00446, Nepal",27.706365,85.333661,,Maitidevi Temple stop,,00446,,,Kathmandu,Kathmandu,Three,Nepal,np,© OpenStreetMap contributors,Open Database License,https://www.openstreetmap.org/copyright
57109546,1159,2019-12-13 10:22:42,27.705291666666668,85.333345,11.46,31.858421982284472,"Lord Buddha School, Kathmandu, Kathmandu 00446, Nepal",27.705546,85.333494,,,Lord Buddha School,00446,,,Kathmandu,Kathmandu,Three,Nepal,np,© OpenStreetMap contributors,Open Database License,https://www.openstreetmap.org/copyright
57110124,1159,2019-12-13 10:23:13,27.70402333333333,85.33266833333333,4.34,8.613593340626492,"Mahanagariya Prahari Parisar, Kathmandu, Kathmandu 00446, Nepal",27.703953,85.332705,,Mahanagariya Prahari Parisar,,00446,,,Kathmandu,Kathmandu,Three,Nepal,np,© OpenStreetMap contributors,Open Database License,https://www.openstreetmap.org/copyright
57110718,1159,2019-12-13 10:23:44,27.70338333333333,85.334525,13.67,1.7496527548135723,"sun koshi foodland, Dillibazaar Marg, Ghattekulo, Kathmandu 00446, Nepal",27.7034606,85.33448974999999,,sun koshi foodland,Dillibazaar Marg,00446,Kathmandu-30,Ghattekulo,Kathmandu,Kathmandu,Bagmati Province,Nepal,np,© OpenStreetMap contributors,Open Database License,https://www.openstreetmap.org/copyright
57111259,1159,2019-12-13 10:24:12,27.703006666666667,85.33562833333333,1.15,13.34530054930409,"Maitidevi Petrol Station, Rudra Mati Marg, Ghattekulo, Kathmandu 00446, Nepal",27.7028872,85.3356413,,Maitidevi Petrol Station,Rudra Mati Marg,00446,Kathmandu-29,Ghattekulo,Kathmandu,Kathmandu,Bagmati Province,Nepal,np,© OpenStreetMap contributors,Open Database License,https://www.openstreetmap.org/copyright
57111818,1159,2019-12-13 10:24:43,27.702651666666668,85.33682,10.5,26.06160922862331,"Shrestha General Store, Setopul, Kathmandu, Kathmandu 00446, Nepal",27.702592,85.336564,,Shrestha General Store,Setopul,00446,,,Kathmandu,Kathmandu,Three,Nepal,np,© OpenStreetMap contributors,Open Database License,https://www.openstreetmap.org/copyright
57112380,1159,2019-12-13 10:25:14,27.70204333333333,85.338715,13.46,3.4056859974534093,"Sandus saving and credit, Baburam Acharya Marg, Baneshwar, Kathmandu 44703, Nepal",27.7020265,85.3387439,,Sandus saving and credit,Baburam Acharya Marg,44703,Kathmandu-10,Baneshwar,Kathmandu,Kathmandu,Bagmati Province,Nepal,np,© OpenStreetMap contributors,Open Database License,https://www.openstreetmap.org/copyright
57432530,1159,2019-12-13 15:28:40,27.68841,85.335475,2.45,1.2988746295894653,"Buddha Nagar, Kathmandu 44617, Nepal",27.6891539,85.3320663,,,,44617,Kathmandu-10,Buddha Nagar,Kathmandu,Kathmandu,Bagmati Province,Nepal,np,© OpenStreetMap contributors,Open Database License,https://www.openstreetmap.org/copyright
57432580,1159,2019-12-13 15:28:43,27.688793333333333,85.3333,20.91,17.863754668119924,"Madan Bhandari Path, Kathmandu, Kathmandu 44617, Nepal",27.688687,85.333436,,,Madan Bhandari Path,44617,,,Kathmandu,Kathmandu,Three,Nepal,np,© OpenStreetMap contributors,Open Database License,https://www.openstreetmap.org/copyright
57432592,1159,2019-12-13 15:28:44,27.689581666666665,85.3301,22.5,18.73631850918878,"Madan Bhandari Path, Kathmandu, Kathmandu 44617, Nepal",27.689591,85.32991,,,Madan Bhandari Path,44617,,,Kathmandu,Kathmandu,Three,Nepal,np,© OpenStreetMap contributors,Open Database License,https://www.openstreetmap.org/copyright
57432593,1159,2019-12-13 15:28:44,27.69101833333333,85.326945,22.99,2.01243272742827,"Madan Bhandari Path, Kathmandu, Kathmandu 44617, Nepal",27.6916763,85.3255084,,Madan Bhandari Path,Madan Bhandari Path,44617,Kathmandu-11,,Kathmandu,Kathmandu,Bagmati Province,Nepal,np,© OpenStreetMap contributors,Open Database License,https://www.openstreetmap.org/copyright
57432601,1159,2019-12-13 15:28:44,27.692455,85.323925,9.06,2.600640941279435,"Madan Bhandari Path, Kathmandu, Kathmandu 44617, Nepal",27.6924617,85.3238578,,Madan Bhandari Path,Madan Bhandari Path,44617,Kathmandu-11,,Kathmandu,Kathmandu,Bagmati Province,Nepal,np,© OpenStreetMap contributors,Open Database License,https://www.openstreetmap.org/copyright
57432662,1159,2019-12-13 15:28:47,27.69363166666667,85.32141166666666,19.69,1.1595466525974687,"Madan Bhandari Path, Kathmandu, Kathmandu 44617, Nepal",27.6929902,85.3227105,,Madan Bhandari Path,Madan Bhandari Path,44617,Kathmandu-11,,Kathmandu,Kathmandu,Bagmati Province,Nepal,np,© OpenStreetMap contributors,Open Database License,https://www.openstreetmap.org/copyright
57432673,1159,2019-12-13 15:28:48,27.693915,85.31921666666666,19.2,14.343022415246976,"Maitighar Bus Stop, Thapathali Road, Thapathali, Kathmandu 00779, Nepal",27.693971,85.3193479,,Maitighar Bus Stop,Thapathali Road,00779,Kathmandu-11,Thapathali,Kathmandu,Kathmandu,Bagmati Province,Nepal,np,© OpenStreetMap contributors,Open Database License,https://www.openstreetmap.org/copyright
58277025,1159,2019-12-14 05:17:43,27.688151666666663,85.33577666666666,17.8,33.4791753314177,"Provident Merchant Banking Limited प्रोभिडेन्ट मर्चेन्ट बैंकिङ्ग लिमिटेड, Sankhamul Marg 31, Shankhamul, Kathmandu 44617, Nepal",27.6879494,85.3355248,31,Provident Merchant Banking Limited प्रोभिडेन्ट मर्चेन्ट बैंकिङ्ग लिमिटेड,Sankhamul Marg,44617,Kathmandu-10,Shankhamul,Kathmandu,Kathmandu,Bagmati Province,Nepal,np,© OpenStreetMap contributors,Open Database License,https://www.openstreetmap.org/copyright
58277863,1159,2019-12-14 05:18:33,27.688645,85.33361833333333,19.76,18.550340224588048,"Madan Bhandari Path, Kathmandu, Kathmandu 44617, Nepal",27.688687,85.333436,,,Madan Bhandari Path,44617,,,Kathmandu,Kathmandu,Three,Nepal,np,© OpenStreetMap contributors,Open Database License,https://www.openstreetmap.org/copyright
58278060,1159,2019-12-14 05:18:43,27.689365,85.33064833333333,20.29,32.368515880304074,"Spacewood Nepal, Bogati Marg, Buddha Nagar, Kathmandu 44617, Nepal",27.6895685,85.3308834,,Spacewood Nepal,Bogati Marg,44617,Kathmandu-10,Buddha Nagar,Kathmandu,Kathmandu,Bagmati Province,Nepal,np,© OpenStreetMap contributors,Open Database License,https://www.openstreetmap.org/copyright
58278560,1159,2019-12-14 05:19:13,27.69043333333333,85.32820333333333,15.5,14.979806504924582,"Bijulibazar bridge, Kathmandu, Kathmandu 44617, Nepal",27.690389,85.328347,,,Bijulibazar bridge,44617,,,Kathmandu,Kathmandu,Three,Nepal,np,© OpenStreetMap contributors,Open Database License,https://www.openstreetmap.org/copyright
58279060,1159,2019-12-14 05:19:43,27.69172,85.32552666666666,21.9,39.23737975708555,"NMB Bank ATM, Akhtiyaar Marg, Kathmandu, Kathmandu 44617, Nepal",27.6919937,85.3257782,,NMB Bank ATM,Akhtiyaar Marg,44617,Kathmandu-11,,Kathmandu,Kathmandu,Bagmati Province,Nepal,np,© OpenStreetMap contributors,Open Database License,https://www.openstreetmap.org/copyright
58279563,1159,2019-12-14 05:20:12,27.69302666666667,85.32277,20.38,35.040591419247164,"उक्टी मार्गा, Kathmandu, Kathmandu 44617, Nepal",27.693049,85.322415,,,उक्टी मार्गा,44617,,,Kathmandu,Kathmandu,Three,Nepal,np,© OpenStreetMap contributors,Open Database License,https://www.openstreetmap.org/copyright
58280077,1159,2019-12-14 05:20:42,27.69423833333333,85.32022333333333,15.59,20.2791884285418,"Prabi Law Associates Pvt.Ltd, Thapathali Marg, Thapathali, Kathmandu 44617, Nepal",27.6941769,85.3200294,,Prabi Law Associates Pvt.Ltd,Thapathali Marg,44617,Kathmandu-11,Thapathali,Kathmandu,Kathmandu,Bagmati Province,Nepal,np,© OpenStreetMap contributors,Open Database License,https://www.openstreetmap.org/copyright
58347615,1159,2019-12-14 06:25:44,27.68942333333333,85.31944666666666,9.59,5.510361267220116,"Paropakar Maternity Hospital, Prasuti Griha Marg, Thapathali, Kathmandu 00779, Nepal",27.68930955,85.318871643873,,Paropakar Maternity Hospital,Prasuti Griha Marg,00779,Kathmandu-11,Thapathali,Kathmandu,Kathmandu,Bagmati Province,Nepal,np,© OpenStreetMap contributors,Open Database License,https://www.openstreetmap.org/copyright
58348137,1159,2019-12-14 06:26:14,27.688726666666668,85.31978333333333,10.28,19.813329808104665,"Department of Plant Resources, Shiva Marg, Thapathali, Kathmandu 44617, Nepal",27.688398399999997,85.32047390164345,,Department of Plant Resources,Shiva Marg,44617,Kathmandu-11,Thapathali,Kathmandu,Kathmandu,Bagmati Province,Nepal,np,© OpenStreetMap contributors,Open Database License,https://www.openstreetmap.org/copyright
58348664,1159,2019-12-14 06:26:43,27.687926666666662,85.32098666666667,16.65,0,"UN Park, Panchyan Marg, Thapathali, Kathmandu 00779, Nepal",27.68777425,85.32080953667037,,UN Park,Panchyan Marg,00779,Kathmandu-11,Thapathali,Kathmandu,Kathmandu,Bagmati Province,Nepal,np,© OpenStreetMap contributors,Open Database License,https://www.openstreetmap.org/copyright
58430008,1159,2019-12-14 07:45:09,27.707923333333333,85.33941,15.48,13.97244823682597,"Nepal College of Travel and Tourism Management, Rudranagar Santi Marg, Tilganga, Kathmandu 44660, Nepal",27.707715800000003,85.3395323,,Nepal College of Travel and Tourism Management,Rudranagar Santi Marg,44660,Kathmandu-07,Tilganga,Kathmandu,Kathmandu,Bagmati Province,Nepal,np,© OpenStreetMap contributors,Open Database License,https://www.openstreetmap.org/copyright
58430525,1159,2019-12-14 07:45:39,27.708013333333334,85.33715333333333,8.46,4.8593315764838225,"Maitidevi, Kathmandu 00446, Nepal",27.7056104,85.3364598,,,,00446,Kathmandu-30,Maitidevi,Kathmandu,Kathmandu,Bagmati Province,Nepal,np,© OpenStreetMap contributors,Open Database License,https://www.openstreetmap.org/copyright
58431041,1159,2019-12-14 07:46:09,27.70843333333333,85.33679,13.83,23.43739662969307,"Rudra Mati Marg-2, Kathmandu, Kathmandu 44660, Nepal",27.708542,85.336994,,,Rudra Mati Marg-2,44660,,,Kathmandu,Kathmandu,Three,Nepal,np,© OpenStreetMap contributors,Open Database License,https://www.openstreetmap.org/copyright
58431559,1159,2019-12-14 07:46:39,27.710426666666667,85.33718333333333,18.59,3.816190649528571,"Rudra Mati Marg, Maitidevi, Kathmandu 00975, Nepal",27.7096953,85.3370232,,Rudra Mati Marg,Rudra Mati Marg,00975,Kathmandu-30,Maitidevi,Kathmandu,Kathmandu,Bagmati Province,Nepal,np,© OpenStreetMap contributors,Open Database License,https://www.openstreetmap.org/copyright
58484617,1159,2019-12-14 08:38:17,27.710688333333334,85.32202666666667,17.96,17.390323681482606,"Siddhartha Bank Limited, Kathmandu, Kathmandu 46000, Nepal",27.710813,85.32192,,Siddhartha Bank Limited,,46000,,,Kathmandu,Kathmandu,Three,Nepal,np,© OpenStreetMap contributors,Open Database License,https://www.openstreetmap.org/copyright
58485124,1159,2019-12-14 08:38:46,27.710171666666668,85.324085,15.6,4.326185533581778,"Pashupati Sadak - 3, Kathmandu, Kathmandu 46000, Nepal",27.710145,85.324117,,,Pashupati Sadak - 3,46000,,,Kathmandu,Kathmandu,Three,Nepal,np,© OpenStreetMap contributors,Open Database License,https://www.openstreetmap.org/copyright
58485612,1159,2019-12-14 08:39:16,27.709915,85.326305,12.64,63.49578265706092,"Sandar MoMo, Pashupati Sadak P85G+X8C, Kathmandu, Kathmandu 44600, Nepal",27.709913,85.32566,P85G+X8C,Sandar MoMo,Pashupati Sadak,44600,,,Kathmandu,Kathmandu,Three,Nepal,np,© OpenStreetMap contributors,Open Database License,https://www.openstreetmap.org/copyright
58486109,1159,2019-12-14 08:39:46,27.709433333333333,85.328295,14.19,9.313383886072183,"The Burger House & Crunchy Fried Chicken, Kathmandu, Kathmandu 44605, Nepal",27.709379,85.328223,,The Burger House & Crunchy Fried Chicken,,44605,,,Kathmandu,Kathmandu,Three,Nepal,np,© OpenStreetMap contributors,Open Database License,https://www.openstreetmap.org/copyright
58486607,1159,2019-12-14 08:40:16,27.708905,85.33072166666666,16.32,6.975886973733609,"Maple School, Devi marg, Dillibazar, Kathmandu 44605, Nepal",27.7090186,85.3306848,,Maple School,Devi marg,44605,Kathmandu-30,Dillibazar,Kathmandu,Kathmandu,Bagmati Province,Nepal,np,© OpenStreetMap contributors,Open Database License,https://www.openstreetmap.org/copyright
58487106,1159,2019-12-14 08:40:46,27.70857833333333,85.33217166666667,13.84,0.9948136241100579,"Maitidevi, Kathmandu 44605, Nepal",27.7086373,85.3319646,,,,44605,Kathmandu-30,Maitidevi,Kathmandu,Kathmandu,Bagmati Province,Nepal,np,© OpenStreetMap contributors,Open Database License,https://www.openstreetmap.org/copyright
58487639,1159,2019-12-14 08:41:15,27.70818166666667,85.33433833333333,12.13,15.702454304549304,"Shanta Plaza, Kathmandu, Kathmandu 44605, Nepal",27.70809,85.334217,,Shanta Plaza,,44605,,,Kathmandu,Kathmandu,Three,Nepal,np,© OpenStreetMap contributors,Open Database License,https://www.openstreetmap.org/copyright
58488166,1159,2019-12-14 08:41:45,27.708088333333333,85.33666666666667,13.59,11.983101497947722,"Pashupati Sadak, Kathmandu, Kathmandu 44660, Nepal",27.708085,85.336545,,,Pashupati Sadak,44660,,,Kathmandu,Kathmandu,Three,Nepal,np,© OpenStreetMap contributors,Open Database License,https://www.openstreetmap.org/copyright
58488723,1159,2019-12-14 08:42:18,27.707988333333333,85.339055,16.66,12.922572249466349,"Wigan & Leigh College, Pashupati Sadak, Chabahil, Kathmandu 44660, Nepal",27.70814345,85.33914129437514,,Wigan & Leigh College,Pashupati Sadak,44660,Kathmandu-07,Chabahil,Kathmandu,Kathmandu,Bagmati Province,Nepal,np,© OpenStreetMap contributors,Open Database License,https://www.openstreetmap.org/copyright
58575851,1159,2019-12-14 10:07:38,27.688066666666668,85.33634333333333,10.53,81.6303166162562,"Provident Merchant Banking Limited प्रोभिडेन्ट मर्चेन्ट बैंकिङ्ग लिमिटेड, Sankhamul Marg 31, Kathmandu, Kathmandu 44617, Nepal",27.687949,85.335525,31,Provident Merchant Banking Limited प्रोभिडेन्ट मर्चेन्ट बैंकिङ्ग लिमिटेड,Sankhamul Marg,44617,,,Kathmandu,Kathmandu,Three,Nepal,np,© OpenStreetMap contributors,Open Database License,https://www.openstreetmap.org/copyright
58576346,1159,2019-12-14 10:08:08,27.688323333333333,85.33512,7.75,22.212249461436734,"Manjushree Financial Institution Pvt. Ltd., Madan Bhandari Path, Buddha Nagar, Kathmandu 44617, Nepal",27.6881371,85.3350384,,Manjushree Financial Institution Pvt. Ltd.,Madan Bhandari Path,44617,Kathmandu-10,Buddha Nagar,Kathmandu,Kathmandu,Bagmati Province,Nepal,np,© OpenStreetMap contributors,Open Database License,https://www.openstreetmap.org/copyright
58576923,1159,2019-12-14 10:08:42,27.688596666666665,85.333965,10.5,24.719873869940916,"Civil Bank, Madan Bhandari Path, Buddha Nagar, Kathmandu 44617, Nepal",27.68830225,85.33382534487343,,Civil Bank,Madan Bhandari Path,44617,Kathmandu-10,Buddha Nagar,Kathmandu,Kathmandu,Bagmati Province,Nepal,np,© OpenStreetMap contributors,Open Database License,https://www.openstreetmap.org/copyright
58621306,1159,2019-12-14 10:52:09,27.694236666666665,85.31944666666666,15.33,8.776456918250945,"Thapathali Engineering Campus, Thapathali Road, Thapathali, Kathmandu 44617, Nepal",27.694567499999998,85.3189885018991,,Thapathali Engineering Campus,Thapathali Road,44617,Kathmandu-11,Thapathali,Kathmandu,Kathmandu,Bagmati Province,Nepal,np,© OpenStreetMap contributors,Open Database License,https://www.openstreetmap.org/copyright
58621793,1159,2019-12-14 10:52:38,27.694646666666667,85.32011333333334,3.67,1.8463284064707821,"Thapathali, Kathmandu 44617, Nepal",27.6944768,85.3197665,,,,44617,Kathmandu-11,Thapathali,Kathmandu,Kathmandu,Bagmati Province,Nepal,np,© OpenStreetMap contributors,Open Database License,https://www.openstreetmap.org/copyright
58622293,1159,2019-12-14 10:53:08,27.69432,85.320725,12.1,4.4868615267692045,"Madan Bhandari Path, Kathmandu, Kathmandu 44617, Nepal",27.69428,85.320719,,,Madan Bhandari Path,44617,,,Kathmandu,Kathmandu,Three,Nepal,np,© OpenStreetMap contributors,Open Database License,https://www.openstreetmap.org/copyright
58622820,1159,2019-12-14 10:53:38,27.69308,85.32280833333333,19.51,3.6924586345967456,"Kathmandu, Kathmandu 44617, Nepal",27.6922553,85.324616,,,,44617,Kathmandu-11,,Kathmandu,Kathmandu,Bagmati Province,Nepal,np,© OpenStreetMap contributors,Open Database License,https://www.openstreetmap.org/copyright
58623341,1159,2019-12-14 10:54:07,27.69185833333333,85.32534333333334,18.58,34.92327421209606,"Kathmandu district court, Madan Bhandari Path, Kathmandu, Kathmandu 44617, Nepal",27.692107,85.32556,,Kathmandu district court,Madan Bhandari Path,44617,,,Kathmandu,Kathmandu,Three,Nepal,np,© OpenStreetMap contributors,Open Database License,https://www.openstreetmap.org/copyright
58623837,1159,2019-12-14 10:54:37,27.690461666666668,85.32826166666666,19.16,0.5753199171429786,"Kathmandu, Kathmandu 44617, Nepal",27.6905379,85.3281156,,,,44617,Kathmandu-11,,Kathmandu,Kathmandu,Bagmati Province,Nepal,np,© OpenStreetMap contributors,Open Database License,https://www.openstreetmap.org/copyright
58624354,1159,2019-12-14 10:55:07,27.689345,85.33091833333333,20.31,89.08861527673345,"Kantipur Handicrafts, Shram Marg 340, Buddha Nagar, Kathmandu 44617, Nepal",27.6886091,85.3312761,340,Kantipur Handicrafts,Shram Marg,44617,Kathmandu-10,Buddha Nagar,Kathmandu,Kathmandu,Bagmati Province,Nepal,np,© OpenStreetMap contributors,Open Database License,https://www.openstreetmap.org/copyright
58624847,1159,2019-12-14 10:55:37,27.68875333333333,85.33359666666666,8.74,17.454538898717214,"Madan Bhandari Path, Kathmandu, Kathmandu 44617, Nepal",27.688687,85.333436,,,Madan Bhandari Path,44617,,,Kathmandu,Kathmandu,Three,Nepal,np,© OpenStreetMap contributors,Open Database License,https://www.openstreetmap.org/copyright
58625349,1159,2019-12-14 10:56:07,27.688521666666663,85.33481666666667,13.86,1.9866541914626734,"Buddha Nagar, Kathmandu 44617, Nepal",27.6891539,85.3320663,,,,44617,Kathmandu-10,Buddha Nagar,Kathmandu,Kathmandu,Bagmati Province,Nepal,np,© OpenStreetMap contributors,Open Database License,https://www.openstreetmap.org/copyright
58625850,1159,2019-12-14 10:56:36,27.68804833333333,85.33686333333333,11.79,5.292894910722704,"Minbhawan, Kathmandu 44617, Nepal",27.688044,85.3371095,,,,44617,Kathmandu-31,Minbhawan,Kathmandu,Kathmandu,Bagmati Province,Nepal,np,© OpenStreetMap contributors,Open Database License,https://www.openstreetmap.org/copyright
58626385,1159,2019-12-14 10:57:06,27.68772166666667,85.33824,7.76,4.495806221644989,"Madan Bhandari Path, Minbhawan, Kathmandu 44617, Nepal",27.6879663,85.3369901,,Madan Bhandari Path,Madan Bhandari Path,44617,Kathmandu-31,Minbhawan,Kathmandu,Kathmandu,Bagmati Province,Nepal,np,© OpenStreetMap contributors,Open Database License,https://www.openstreetmap.org/copyright
58748335,1159,2019-12-14 12:56:12,27.68795666666667,85.33665833333333,12.9,27.07623969176644,"Citizen Investment Trust, Madan Bhandari Path, Minbhawan, Kathmandu 44617, Nepal",27.68769785,85.33636906323628,,Citizen Investment Trust,Madan Bhandari Path,44617,Kathmandu-31,Minbhawan,Kathmandu,Kathmandu,Bagmati Province,Nepal,np,© OpenStreetMap contributors,Open Database License,https://www.openstreetmap.org/copyright
58748839,1159,2019-12-14 12:56:42,27.68825,85.33529,8.2,40.641491852340586,"Provident Merchant Banking Limited प्रोभिडेन्ट मर्चेन्ट बैंकिङ्ग लिमिटेड, Sankhamul Marg 31, Shankhamul, Kathmandu 44617, Nepal",27.6879494,85.3355248,31,Provident Merchant Banking Limited प्रोभिडेन्ट मर्चेन्ट बैंकिङ्ग लिमिटेड,Sankhamul Marg,44617,Kathmandu-10,Shankhamul,Kathmandu,Kathmandu,Bagmati Province,Nepal,np,© OpenStreetMap contributors,Open Database License,https://www.openstreetmap.org/copyright
58749343,1159,2019-12-14 12:57:12,27.688626666666668,85.333705,16.33,24.33003870729796,"Civil Bank, Madan Bhandari Path, Buddha Nagar, Kathmandu 44617, Nepal",27.68830225,85.33382534487343,,Civil Bank,Madan Bhandari Path,44617,Kathmandu-10,Buddha Nagar,Kathmandu,Kathmandu,Bagmati Province,Nepal,np,© OpenStreetMap contributors,Open Database License,https://www.openstreetmap.org/copyright
58750204,1159,2019-12-14 12:58:02,27.689275,85.33108333333334,17.67,7.410146204715926,"Buddhanagar Stop, Kathmandu, Kathmandu 44617, Nepal",27.689239,85.33102,,Buddhanagar Stop,,44617,,,Kathmandu,Kathmandu,Three,Nepal,np,© OpenStreetMap contributors,Open Database License,https://www.openstreetmap.org/copyright
58750491,1159,2019-12-14 12:58:18,27.690158333333333,85.328805,17.0,17.47066363516327,"Samsung Plaza, Kathmandu, Kathmandu 44617, Nepal",27.690019,85.328723,,Samsung Plaza,,44617,,,Kathmandu,Kathmandu,Three,Nepal,np,© OpenStreetMap contributors,Open Database License,https://www.openstreetmap.org/copyright
58750920,1159,2019-12-14 12:58:44,27.691346666666668,85.32625666666667,19.78,2.3309873064950466,"Madan Bhandari Path, Kathmandu, Kathmandu 44617, Nepal",27.6916763,85.3255084,,Madan Bhandari Path,Madan Bhandari Path,44617,Kathmandu-11,,Kathmandu,Kathmandu,Bagmati Province,Nepal,np,© OpenStreetMap contributors,Open Database License,https://www.openstreetmap.org/copyright
58751378,1159,2019-12-14 12:59:11,27.692451666666667,85.32394,13.22,3.0031327612326404,"Madan Bhandari Path, Kathmandu, Kathmandu 44617, Nepal",27.6924617,85.3238578,,Madan Bhandari Path,Madan Bhandari Path,44617,Kathmandu-11,,Kathmandu,Kathmandu,Bagmati Province,Nepal,np,© OpenStreetMap contributors,Open Database License,https://www.openstreetmap.org/copyright
58751893,1159,2019-12-14 12:59:41,27.693591666666663,85.32147333333333,15.1,0.2697799634606854,"Madan Bhandari Path, Kathmandu, Kathmandu 44617, Nepal",27.6929902,85.3227105,,Madan Bhandari Path,Madan Bhandari Path,44617,Kathmandu-11,,Kathmandu,Kathmandu,Bagmati Province,Nepal,np,© OpenStreetMap contributors,Open Database License,https://www.openstreetmap.org/copyright
58752386,1159,2019-12-14 13:00:10,27.69430333333333,85.32003833333333,13.58,14.07766895501761,"Prabi Law Associates Pvt.Ltd, Kathmandu, Kathmandu 44617, Nepal",27.694177,85.320029,,Prabi Law Associates Pvt.Ltd,,44617,,,Kathmandu,Kathmandu,Three,Nepal,np,© OpenStreetMap contributors,Open Database License,https://www.openstreetmap.org/copyright
60191878,1159,2019-12-15 11:44:23,27.70804333333333,85.33820166666666,9.02,6.415059734679697,"Nice Tailor, Pashupati Sadak, Chabahil, Kathmandu 44660, Nepal",27.708124249999997,85.33812175,,Nice Tailor,Pashupati Sadak,44660,Kathmandu-07,Chabahil,Kathmandu,Kathmandu,Bagmati Province,Nepal,np,© OpenStreetMap contributors,Open Database License,https://www.openstreetmap.org/copyright
60192419,1159,2019-12-15 11:44:52,27.708066666666667,85.33751666666667,3.69,13.728420805371883,"Bridge Side Cafe, Paneku Marg, Chabahil, Kathmandu 44660, Nepal",27.7081611,85.3376065,,Bridge Side Cafe,Paneku Marg,44660,Kathmandu-07,Chabahil,Kathmandu,Kathmandu,Bagmati Province,Nepal,np,© OpenStreetMap contributors,Open Database License,https://www.openstreetmap.org/copyright
60192948,1159,2019-12-15 11:45:22,27.708071666666665,85.33722,3.47,1.612825620892605,"Ratopul Marg, Chabahil, Kathmandu 44660, Nepal",27.7080579,85.3371963,,Ratopul Marg,Ratopul Marg,44660,Kathmandu-07,Chabahil,Kathmandu,Kathmandu,Bagmati Province,Nepal,np,© OpenStreetMap contributors,Open Database License,https://www.openstreetmap.org/copyright
60193499,1159,2019-12-15 11:45:52,27.70827333333333,85.33669833333333,6.54,25.814879827886102,"Pashupati Sadak, Kathmandu, Kathmandu 44660, Nepal",27.708085,85.336545,,,Pashupati Sadak,44660,,,Kathmandu,Kathmandu,Three,Nepal,np,© OpenStreetMap contributors,Open Database License,https://www.openstreetmap.org/copyright
60194136,1159,2019-12-15 11:46:27,27.709586666666667,85.33701166666667,14.1,0.539295817825082,"Rudra Mati Marg, Maitidevi, Kathmandu 00975, Nepal",27.7096953,85.3370232,,Rudra Mati Marg,Rudra Mati Marg,00975,Kathmandu-30,Maitidevi,Kathmandu,Kathmandu,Bagmati Province,Nepal,np,© OpenStreetMap contributors,Open Database License,https://www.openstreetmap.org/copyright
61378572,1159,2019-12-16 06:15:07,27.707933333333333,85.33984833333334,18.04,12.779892877867571,"Cosmos Diagonosis and Research Centre, Pashupati Sadak, Chabahil, Kathmandu 44660, Nepal",27.70814865,85.33979338472814,,Cosmos Diagonosis and Research Centre,Pashupati Sadak,44660,Kathmandu-07,Chabahil,Kathmandu,Kathmandu,Bagmati Province,Nepal,np,© OpenStreetMap contributors,Open Database License,https://www.openstreetmap.org/copyright
61379361,1159,2019-12-16 06:15:50,27.708013333333334,85.33735666666666,8.97,2.9650562976197974,"Maitidevi, Kathmandu 00446, Nepal",27.7056104,85.3364598,,,,00446,Kathmandu-30,Maitidevi,Kathmandu,Kathmandu,Bagmati Province,Nepal,np,© OpenStreetMap contributors,Open Database License,https://www.openstreetmap.org/copyright
61379667,1159,2019-12-16 06:16:06,27.708145,85.335325,16.47,4.792587995517073,"Welcare Hospital and Research Centre, Pashupati Sadak, Maitidevi, Kathmandu 44605, Nepal",27.70797695,85.33527921821374,,Welcare Hospital and Research Centre,Pashupati Sadak,44605,Kathmandu-30,Maitidevi,Kathmandu,Kathmandu,Bagmati Province,Nepal,np,© OpenStreetMap contributors,Open Database License,https://www.openstreetmap.org/copyright
61380206,1159,2019-12-16 06:16:36,27.70816,85.33342833333333,5.55,25.273084239965726,"Hero Honda, Pashupati Sadak, Maitidevi, Kathmandu 44605, Nepal",27.70834145,85.33365525495283,,Hero Honda,Pashupati Sadak,44605,Kathmandu-30,Maitidevi,Kathmandu,Kathmandu,Bagmati Province,Nepal,np,© OpenStreetMap contributors,Open Database License,https://www.openstreetmap.org/copyright
61380763,1159,2019-12-16 06:17:06,27.707118333333334,85.33329833333333,3.58,2.824910176825669,"Mahakavi Marg, Maitidevi, Kathmandu 44605, Nepal",27.7069354,85.3323354,,Mahakavi Marg,Mahakavi Marg,44605,Kathmandu-30,Maitidevi,Kathmandu,Kathmandu,Bagmati Province,Nepal,np,© OpenStreetMap contributors,Open Database License,https://www.openstreetmap.org/copyright
61381305,1159,2019-12-16 06:17:36,27.707091666666667,85.33313833333334,0.11,38.08737586370964,"Himalayan Bank, Kathmandu, Kathmandu 44605, Nepal",27.707055,85.333523,,Himalayan Bank,,44605,,,Kathmandu,Kathmandu,Three,Nepal,np,© OpenStreetMap contributors,Open Database License,https://www.openstreetmap.org/copyright
61381843,1159,2019-12-16 06:18:06,27.70705833333333,85.33310666666667,1.03,40.98763111269523,"Himalayan Bank, Kathmandu, Kathmandu 44605, Nepal",27.707055,85.333523,,Himalayan Bank,,44605,,,Kathmandu,Kathmandu,Three,Nepal,np,© OpenStreetMap contributors,Open Database License,https://www.openstreetmap.org/copyright
61382388,1159,2019-12-16 06:18:35,27.70708833333333,85.33321666666667,2.04,0.7857264260223906,"Mahakavi Marg, Maitidevi, Kathmandu 44605, Nepal",27.7069354,85.3323354,,Mahakavi Marg,Mahakavi Marg,44605,Kathmandu-30,Maitidevi,Kathmandu,Kathmandu,Bagmati Province,Nepal,np,© OpenStreetMap contributors,Open Database License,https://www.openstreetmap.org/copyright
61382926,1159,2019-12-16 06:19:05,27.70663833333333,85.33351833333333,11.6,33.481535030943505,"Maitidevi Temple stop, Kathmandu, Kathmandu 00446, Nepal",27.706365,85.333661,,Maitidevi Temple stop,,00446,,,Kathmandu,Kathmandu,Three,Nepal,np,© OpenStreetMap contributors,Open Database License,https://www.openstreetmap.org/copyright
61383475,1159,2019-12-16 06:19:35,27.70506333333333,85.33331666666666,13.64,30.203095499250008,"Kathmandu Dental Pvt. Limited, Maiti Devi marg, Maitidevi, Kathmandu 00446, Nepal",27.7047972,85.3332553,,Kathmandu Dental Pvt. Limited,Maiti Devi marg,00446,Kathmandu-30,Maitidevi,Kathmandu,Kathmandu,Bagmati Province,Nepal,np,© OpenStreetMap contributors,Open Database License,https://www.openstreetmap.org/copyright
61384129,1159,2019-12-16 06:20:11,27.704005,85.33273,1.14,5.470288791524451,"Nyugu Bhintuna Jewellers, Maiti Devi marg, Kathmandu, Kathmandu 00446, Nepal",27.704012,85.332785,,Nyugu Bhintuna Jewellers,Maiti Devi marg,00446,,,Kathmandu,Kathmandu,Three,Nepal,np,© OpenStreetMap contributors,Open Database License,https://www.openstreetmap.org/copyright
61384554,1159,2019-12-16 06:20:35,27.70348333333333,85.33405333333333,13.68,16.973938807037495,"Nabil Bank, Dillibazaar Marg, Ghattekulo, Kathmandu 00446, Nepal",27.7036199,85.3339763,,Nabil Bank,Dillibazaar Marg,00446,Kathmandu-30,Ghattekulo,Kathmandu,Kathmandu,Bagmati Province,Nepal,np,© OpenStreetMap contributors,Open Database License,https://www.openstreetmap.org/copyright
61385110,1159,2019-12-16 06:21:04,27.703105,85.33535,0.25,12.595116769217412,"Rastriya Banijaya Bank Ltd, Dillibazaar Marg, Ghattekulo, Kathmandu 00446, Nepal",27.7031583,85.33552705,,Rastriya Banijaya Bank Ltd,Dillibazaar Marg,00446,Kathmandu-29,Ghattekulo,Kathmandu,Kathmandu,Bagmati Province,Nepal,np,© OpenStreetMap contributors,Open Database License,https://www.openstreetmap.org/copyright
61385644,1159,2019-12-16 06:21:34,27.70307333333333,85.33542333333334,0.45,7.241534711658889,"Everest Bank Ltdएभरेष्ट बैंक लि. ६६७, Dillibazaar Marg, Ghattekulo, Kathmandu 00446, Nepal",27.7030337,85.3354817,,Everest Bank Ltdएभरेष्ट बैंक लि. ६६७,Dillibazaar Marg,00446,Kathmandu-29,Ghattekulo,Kathmandu,Kathmandu,Bagmati Province,Nepal,np,© OpenStreetMap contributors,Open Database License,https://www.openstreetmap.org/copyright
61386216,1159,2019-12-16 06:22:04,27.703045,85.33527,0.14,4.61824367832375,"URSTYLE Entertaintment, Dillibazaar Marg, Ghattekulo, Kathmandu 00446, Nepal",27.7030162,85.3352362,,URSTYLE Entertaintment,Dillibazaar Marg,00446,Kathmandu-29,Ghattekulo,Kathmandu,Kathmandu,Bagmati Province,Nepal,np,© OpenStreetMap contributors,Open Database License,https://www.openstreetmap.org/copyright
61386781,1159,2019-12-16 06:22:34,27.70306833333333,85.33529833333333,0.05,8.427447300752485,"URSTYLE Entertaintment, Dillibazaar Marg, Ghattekulo, Kathmandu 00446, Nepal",27.7030162,85.3352362,,URSTYLE Entertaintment,Dillibazaar Marg,00446,Kathmandu-29,Ghattekulo,Kathmandu,Kathmandu,Bagmati Province,Nepal,np,© OpenStreetMap contributors,Open Database License,https://www.openstreetmap.org/copyright
61387321,1159,2019-12-16 06:23:04,27.70308,85.33531166666667,0.04,10.27264203430864,"URSTYLE Entertaintment, Dillibazaar Marg, Ghattekulo, Kathmandu 00446, Nepal",27.7030162,85.3352362,,URSTYLE Entertaintment,Dillibazaar Marg,00446,Kathmandu-29,Ghattekulo,Kathmandu,Kathmandu,Bagmati Province,Nepal,np,© OpenStreetMap contributors,Open Database License,https://www.openstreetmap.org/copyright
61387982,1159,2019-12-16 06:23:39,27.70308,85.335315,0.0,10.512425408563136,"URSTYLE Entertaintment, Dillibazaar Marg, Ghattekulo, Kathmandu 00446, Nepal",27.7030162,85.3352362,,URSTYLE Entertaintment,Dillibazaar Marg,00446,Kathmandu-29,Ghattekulo,Kathmandu,Kathmandu,Bagmati Province,Nepal,np,© OpenStreetMap contributors,Open Database License,https://www.openstreetmap.org/copyright
61388477,1159,2019-12-16 06:24:07,27.70307333333333,85.33529666666666,0.03,8.706118150620913,"URSTYLE Entertaintment, Dillibazaar Marg, Ghattekulo, Kathmandu 00446, Nepal",27.7030162,85.3352362,,URSTYLE Entertaintment,Dillibazaar Marg,00446,Kathmandu-29,Ghattekulo,Kathmandu,Kathmandu,Bagmati Province,Nepal,np,© OpenStreetMap contributors,Open Database License,https://www.openstreetmap.org/copyright
61389193,1159,2019-12-16 06:24:47,27.70309,85.33529,0.09,9.767035486458546,"URSTYLE Entertaintment, Dillibazaar Marg, Ghattekulo, Kathmandu 00446, Nepal",27.7030162,85.3352362,,URSTYLE Entertaintment,Dillibazaar Marg,00446,Kathmandu-29,Ghattekulo,Kathmandu,Kathmandu,Bagmati Province,Nepal,np,© OpenStreetMap contributors,Open Database License,https://www.openstreetmap.org/copyright
61389481,1159,2019-12-16 06:25:03,27.70310333333333,85.33531166666667,0.28,12.209489795729125,"URSTYLE Entertaintment, Dillibazaar Marg, Ghattekulo, Kathmandu 00446, Nepal",27.7030162,85.3352362,,URSTYLE Entertaintment,Dillibazaar Marg,00446,Kathmandu-29,Ghattekulo,Kathmandu,Kathmandu,Bagmati Province,Nepal,np,© OpenStreetMap contributors,Open Database License,https://www.openstreetmap.org/copyright
61390023,1159,2019-12-16 06:25:33,27.70309,85.33532833333334,0.1,12.23167542308995,"URSTYLE Entertaintment, Dillibazaar Marg, Ghattekulo, Kathmandu 00446, Nepal",27.7030162,85.3352362,,URSTYLE Entertaintment,Dillibazaar Marg,00446,Kathmandu-29,Ghattekulo,Kathmandu,Kathmandu,Bagmati Province,Nepal,np,© OpenStreetMap contributors,Open Database License,https://www.openstreetmap.org/copyright
61390657,1159,2019-12-16 06:26:06,27.703096666666667,85.33534,0.11,13.272989728276235,"Baibhav party venue, Dillibazaar Marg, Ghattekulo, Kathmandu 00446, Nepal",27.7029145,85.33539800235428,,Baibhav party venue,Dillibazaar Marg,00446,Kathmandu-29,Ghattekulo,Kathmandu,Kathmandu,Bagmati Province,Nepal,np,© OpenStreetMap contributors,Open Database License,https://www.openstreetmap.org/copyright
61391141,1159,2019-12-16 06:26:32,27.70308333333333,85.33532333333333,0.16,11.371433999082146,"URSTYLE Entertaintment, Dillibazaar Marg, Ghattekulo, Kathmandu 00446, Nepal",27.7030162,85.3352362,,URSTYLE Entertaintment,Dillibazaar Marg,00446,Kathmandu-29,Ghattekulo,Kathmandu,Kathmandu,Bagmati Province,Nepal,np,© OpenStreetMap contributors,Open Database License,https://www.openstreetmap.org/copyright
61391681,1159,2019-12-16 06:27:02,27.702851666666668,85.33614666666666,8.4,9.585834126851488,"Setopul, Kathmandu, Kathmandu 00446, Nepal",27.702862,85.33605,,,Setopul,00446,,,Kathmandu,Kathmandu,Three,Nepal,np,© OpenStreetMap contributors,Open Database License,https://www.openstreetmap.org/copyright
61392223,1159,2019-12-16 06:27:32,27.70236,85.33774666666666,15.8,123.4452829656277,"Lal Bahadur Bum Marg 34, Tilganga, Kathmandu 44703, Nepal",27.703272499999997,85.33846084387694,34,,Lal Bahadur Bum Marg,44703,Kathmandu-09,Tilganga,Kathmandu,Kathmandu,Bagmati Province,Nepal,np,© OpenStreetMap contributors,Open Database License,https://www.openstreetmap.org/copyright
61392750,1159,2019-12-16 06:28:02,27.701725,85.33952666666667,1.0,30.105042375945047,"Touchstone Infosys, Baburam Acharya Marg 175723, Baneshwar, Kathmandu 44600, Nepal",27.7017596,85.33916782177315,175723,Touchstone Infosys,Baburam Acharya Marg,44600,Kathmandu-10,Baneshwar,Kathmandu,Kathmandu,Bagmati Province,Nepal,np,© OpenStreetMap contributors,Open Database License,https://www.openstreetmap.org/copyright
61393422,1159,2019-12-16 06:28:38,27.701716666666663,85.33959666666667,0.12,37.037838486570905,"Touchstone Infosys, Baburam Acharya Marg 175723, Baneshwar, Kathmandu 44600, Nepal",27.7017596,85.33916782177315,175723,Touchstone Infosys,Baburam Acharya Marg,44600,Kathmandu-10,Baneshwar,Kathmandu,Kathmandu,Bagmati Province,Nepal,np,© OpenStreetMap contributors,Open Database License,https://www.openstreetmap.org/copyright
61394206,1159,2019-12-16 06:29:21,27.70166833333333,85.33971666666666,2.6,49.77681628124405,"Touchstone Infosys, Baburam Acharya Marg 175723, Baneshwar, Kathmandu 44600, Nepal",27.7017596,85.33916782177315,175723,Touchstone Infosys,Baburam Acharya Marg,44600,Kathmandu-10,Baneshwar,Kathmandu,Kathmandu,Bagmati Province,Nepal,np,© OpenStreetMap contributors,Open Database License,https://www.openstreetmap.org/copyright
61501090,1159,2019-12-16 08:05:50,27.687966666666668,85.33677833333333,0.45,19.758651377822098,"Madan Bhandari Path, Kathmandu, Kathmandu 44617, Nepal",27.687968,85.336979,,,Madan Bhandari Path,44617,,,Kathmandu,Kathmandu,Three,Nepal,np,© OpenStreetMap contributors,Open Database License,https://www.openstreetmap.org/copyright
61501657,1159,2019-12-16 08:06:20,27.688033333333333,85.33664166666667,1.76,1.2248959635874839,"Madan Bhandari Path, Minbhawan, Kathmandu 44617, Nepal",27.6879663,85.3369901,,Madan Bhandari Path,Madan Bhandari Path,44617,Kathmandu-31,Minbhawan,Kathmandu,Kathmandu,Bagmati Province,Nepal,np,© OpenStreetMap contributors,Open Database License,https://www.openstreetmap.org/copyright
61502189,1159,2019-12-16 08:06:49,27.688196666666663,85.33612833333333,12.57,3.929854110514738,"Madan Bhandari Path, Minbhawan, Kathmandu 44617, Nepal",27.6879663,85.3369901,,Madan Bhandari Path,Madan Bhandari Path,44617,Kathmandu-31,Minbhawan,Kathmandu,Kathmandu,Bagmati Province,Nepal,np,© OpenStreetMap contributors,Open Database License,https://www.openstreetmap.org/copyright
61502721,1159,2019-12-16 08:07:19,27.688828333333333,85.33569333333334,10.11,17.217927937040326,"Bhawani Durga Pharmacy, Naya Baneshwar Sadak, Buddha Nagar, Kathmandu 44617, Nepal",27.6888072,85.3355201,,Bhawani Durga Pharmacy,Naya Baneshwar Sadak,44617,Kathmandu-10,Buddha Nagar,Kathmandu,Kathmandu,Bagmati Province,Nepal,np,© OpenStreetMap contributors,Open Database License,https://www.openstreetmap.org/copyright
61503259,1159,2019-12-16 08:07:49,27.690445,85.33595166666667,5.14,11.886869819485085,"Naya Baneshwar, Kathmandu, Kathmandu 44617, Nepal",27.69034,85.335929,,Naya Baneshwar,,44617,,,Kathmandu,Kathmandu,Three,Nepal,np,© OpenStreetMap contributors,Open Database License,https://www.openstreetmap.org/copyright
61503803,1159,2019-12-16 08:08:19,27.69194,85.3362,11.32,88.57272971487845,"Yes Informatics, Devkota Sadak 10, Baneshwar, Kathmandu 44600, Nepal",27.69273655,85.33620229628806,10,Yes Informatics,Devkota Sadak,44600,Kathmandu-10,Baneshwar,Kathmandu,Kathmandu,Bagmati Province,Nepal,np,© OpenStreetMap contributors,Open Database License,https://www.openstreetmap.org/copyright
61504366,1159,2019-12-16 08:08:48,27.692395,85.335965,0.73,44.58973834842135,"Yes Informatics, Devkota Sadak 10, Baneshwar, Kathmandu 44600, Nepal",27.69273655,85.33620229628806,10,Yes Informatics,Devkota Sadak,44600,Kathmandu-10,Baneshwar,Kathmandu,Kathmandu,Bagmati Province,Nepal,np,© OpenStreetMap contributors,Open Database License,https://www.openstreetmap.org/copyright
61504894,1159,2019-12-16 08:09:18,27.692535,85.33592166666666,0.16,0,"Ministry of Labour, Employment and Social Security, Kathmandu Metropolitan City, Kathmandu 00446, Nepal",27.69250065,85.33590796456465,,"Ministry of Labour, Employment and Social Security",,00446,Kathmandu-10,,Kathmandu Metropolitan City,Kathmandu,Bagmati Province,Nepal,np,© OpenStreetMap contributors,Open Database License,https://www.openstreetmap.org/copyright
61505454,1159,2019-12-16 08:09:48,27.692463333333333,85.33606333333333,5.84,2.5784562909461486,"Okharbot Marg, Buddha Nagar, Kathmandu 44617, Nepal",27.6919086,85.3350365,,Okharbot Marg,Okharbot Marg,44617,Kathmandu-10,Buddha Nagar,Kathmandu,Kathmandu,Bagmati Province,Nepal,np,© OpenStreetMap contributors,Open Database License,https://www.openstreetmap.org/copyright
61505998,1159,2019-12-16 08:10:18,27.69278333333333,85.33674833333333,12.88,7.370894850425836,"Om Digital Photo Studio and Photocopy Center, Kathmandu, Kathmandu 44600, Nepal",27.69277,85.336675,,Om Digital Photo Studio and Photocopy Center,,44600,,,Kathmandu,Kathmandu,Three,Nepal,np,© OpenStreetMap contributors,Open Database License,https://www.openstreetmap.org/copyright
61506545,1159,2019-12-16 08:10:47,27.692835,85.33836333333333,9.78,2.998293963513638,"D&D girls hostel, Shree Panchakumari Marg, Naya Baneshwar, Kathmandu 44703, Nepal",27.69292155,85.33839817210924,,D&D girls hostel,Shree Panchakumari Marg,44703,Kathmandu-31,Naya Baneshwar,Kathmandu,Kathmandu,Bagmati Province,Nepal,np,© OpenStreetMap contributors,Open Database License,https://www.openstreetmap.org/copyright
61507088,1159,2019-12-16 08:11:17,27.693186666666666,85.33988666666667,8.74,0.5512929841908681,"CIST (Central Institute of Science and Technology), Shree Panchakumari Marg, Naya Baneshwar, Kathmandu 44703, Nepal",27.693362999999998,85.34005518340122,,CIST (Central Institute of Science and Technology),Shree Panchakumari Marg,44703,Kathmandu-31,Naya Baneshwar,Kathmandu,Kathmandu,Bagmati Province,Nepal,np,© OpenStreetMap contributors,Open Database License,https://www.openstreetmap.org/copyright
61666875,1159,2019-12-16 10:34:15,27.688095,85.33624666666667,1.05,72.88787010924513,"Provident Merchant Banking Limited प्रोभिडेन्ट मर्चेन्ट बैंकिङ्ग लिमिटेड, Sankhamul Marg 31, Kathmandu, Kathmandu 44617, Nepal",27.687949,85.335525,31,Provident Merchant Banking Limited प्रोभिडेन्ट मर्चेन्ट बैंकिङ्ग लिमिटेड,Sankhamul Marg,44617,,,Kathmandu,Kathmandu,Three,Nepal,np,© OpenStreetMap contributors,Open Database License,https://www.openstreetmap.org/copyright
61667440,1159,2019-12-16 10:34:45,27.6881,85.33621666666667,0.02,70.14230227661983,"Provident Merchant Banking Limited प्रोभिडेन्ट मर्चेन्ट बैंकिङ्ग लिमिटेड, Sankhamul Marg 31, Kathmandu, Kathmandu 44617, Nepal",27.687949,85.335525,31,Provident Merchant Banking Limited प्रोभिडेन्ट मर्चेन्ट बैंकिङ्ग लिमिटेड,Sankhamul Marg,44617,,,Kathmandu,Kathmandu,Three,Nepal,np,© OpenStreetMap contributors,Open Database License,https://www.openstreetmap.org/copyright
61668024,1159,2019-12-16 10:35:15,27.688085,85.33621,0.04,69.12118264527906,"Provident Merchant Banking Limited प्रोभिडेन्ट मर्चेन्ट बैंकिङ्ग लिमिटेड, Sankhamul Marg 31, Kathmandu, Kathmandu 44617, Nepal",27.687949,85.335525,31,Provident Merchant Banking Limited प्रोभिडेन्ट मर्चेन्ट बैंकिङ्ग लिमिटेड,Sankhamul Marg,44617,,,Kathmandu,Kathmandu,Three,Nepal,np,© OpenStreetMap contributors,Open Database License,https://www.openstreetmap.org/copyright
61668605,1159,2019-12-16 10:35:45,27.68811,85.33619833333333,0.02,3.7128175255388287,"Madan Bhandari Path, Minbhawan, Kathmandu 44617, Nepal",27.6879663,85.3369901,,Madan Bhandari Path,Madan Bhandari Path,44617,Kathmandu-31,Minbhawan,Kathmandu,Kathmandu,Bagmati Province,Nepal,np,© OpenStreetMap contributors,Open Database License,https://www.openstreetmap.org/copyright
61669187,1159,2019-12-16 10:36:15,27.688176666666667,85.33596,4.92,2.3074346172992244,"Madan Bhandari Path, Minbhawan, Kathmandu 44617, Nepal",27.6879663,85.3369901,,Madan Bhandari Path,Madan Bhandari Path,44617,Kathmandu-31,Minbhawan,Kathmandu,Kathmandu,Bagmati Province,Nepal,np,© OpenStreetMap contributors,Open Database License,https://www.openstreetmap.org/copyright
61669757,1159,2019-12-16 10:36:44,27.688403333333333,85.33485833333333,10.17,15.941317094275563,"Naya Baneshwar Bus Station, Kathmandu, Kathmandu 44617, Nepal",27.68847,85.334715,,Naya Baneshwar Bus Station,,44617,,,Kathmandu,Kathmandu,Three,Nepal,np,© OpenStreetMap contributors,Open Database License,https://www.openstreetmap.org/copyright
61670414,1159,2019-12-16 10:37:19,27.68884,85.33298666666667,9.93,63.2872938096945,"Let Me in, Madan Bhandari Path 10, Kathmandu, Kathmandu 44617, Nepal",27.689165,85.332459,10,Let Me in,Madan Bhandari Path,44617,,,Kathmandu,Kathmandu,Three,Nepal,np,© OpenStreetMap contributors,Open Database License,https://www.openstreetmap.org/copyright
61670874,1159,2019-12-16 10:37:44,27.68957333333333,85.33014833333333,18.18,23.54857461634441,"Madan Bhandari Path, Kathmandu, Kathmandu 44617, Nepal",27.689591,85.32991,,,Madan Bhandari Path,44617,,,Kathmandu,Kathmandu,Three,Nepal,np,© OpenStreetMap contributors,Open Database License,https://www.openstreetmap.org/copyright
61671428,1159,2019-12-16 10:38:14,27.690216666666668,85.32870833333334,5.46,12.463267399993908,"Buddhanagar Stop, Kathmandu, Kathmandu 44617, Nepal",27.69027,85.328597,,Buddhanagar Stop,,44617,,,Kathmandu,Kathmandu,Three,Nepal,np,© OpenStreetMap contributors,Open Database License,https://www.openstreetmap.org/copyright
61671961,1159,2019-12-16 10:38:44,27.690941666666667,85.32719333333333,17.68,31.236991551529464,"Kwality Fast Food Cafe, Daphe Marg, Kathmandu, Kathmandu 44617, Nepal",27.6911886,85.3273446,,Kwality Fast Food Cafe,Daphe Marg,44617,Kathmandu-11,,Kathmandu,Kathmandu,Bagmati Province,Nepal,np,© OpenStreetMap contributors,Open Database License,https://www.openstreetmap.org/copyright
61672491,1159,2019-12-16 10:39:13,27.692116666666667,85.3247,19.02,31.720681923521038,"Madan Bhandari Path, Kathmandu, Kathmandu 44617, Nepal",27.692253,85.324417,,,Madan Bhandari Path,44617,,,Kathmandu,Kathmandu,Three,Nepal,np,© OpenStreetMap contributors,Open Database License,https://www.openstreetmap.org/copyright
61673041,1159,2019-12-16 10:39:43,27.69315333333333,85.32250166666667,19.92,14.401507176736066,"उक्टी मार्गा, Kathmandu, Kathmandu 44617, Nepal",27.693049,85.322415,,,उक्टी मार्गा,44617,,,Kathmandu,Kathmandu,Three,Nepal,np,© OpenStreetMap contributors,Open Database License,https://www.openstreetmap.org/copyright
61673610,1159,2019-12-16 10:40:13,27.69377666666667,85.32118833333334,0.19,14.038120596352215,"Maitighar Bus Stop, Madan Bhandari Path, Kathmandu, Kathmandu 44617, Nepal",27.6938924,85.3212453,,Maitighar Bus Stop,Madan Bhandari Path,44617,Kathmandu-11,,Kathmandu,Kathmandu,Bagmati Province,Nepal,np,© OpenStreetMap contributors,Open Database License,https://www.openstreetmap.org/copyright
61674154,1159,2019-12-16 10:40:43,27.69408333333333,85.32051666666666,4.87,4.57095891465581,"Madan Bhandari Path, Kathmandu, Kathmandu 44617, Nepal",27.694053,85.320548,,,Madan Bhandari Path,44617,,,Kathmandu,Kathmandu,Three,Nepal,np,© OpenStreetMap contributors,Open Database License,https://www.openstreetmap.org/copyright
61674717,1159,2019-12-16 10:41:12,27.6941,85.32042,0.08,13.64312890348234,"Madan Bhandari Path, Kathmandu, Kathmandu 44617, Nepal",27.694053,85.320548,,,Madan Bhandari Path,44617,,,Kathmandu,Kathmandu,Three,Nepal,np,© OpenStreetMap contributors,Open Database License,https://www.openstreetmap.org/copyright
61675276,1159,2019-12-16 10:41:42,27.694115,85.32039833333333,0.27,16.268657550800945,"Madan Bhandari Path, Kathmandu, Kathmandu 44617, Nepal",27.694053,85.320548,,,Madan Bhandari Path,44617,,,Kathmandu,Kathmandu,Three,Nepal,np,© OpenStreetMap contributors,Open Database License,https://www.openstreetmap.org/copyright
61675876,1159,2019-12-16 10:42:12,27.694301666666668,85.32005666666667,0.16,14.127416891006847,"Prabi Law Associates Pvt.Ltd, Kathmandu, Kathmandu 44617, Nepal",27.694177,85.320029,,Prabi Law Associates Pvt.Ltd,,44617,,,Kathmandu,Kathmandu,Three,Nepal,np,© OpenStreetMap contributors,Open Database License,https://www.openstreetmap.org/copyright
61676466,1159,2019-12-16 10:42:43,27.694386666666663,85.31987166666667,0.5,11.595640865632356,"Janaastha Lawyers Services Pvt.Ltd, Thapathali Marg, Thapathali, Kathmandu 44617, Nepal",27.6942864,85.3198393,,Janaastha Lawyers Services Pvt.Ltd,Thapathali Marg,44617,Kathmandu-11,Thapathali,Kathmandu,Kathmandu,Bagmati Province,Nepal,np,© OpenStreetMap contributors,Open Database License,https://www.openstreetmap.org/copyright
61677004,1159,2019-12-16 10:43:12,27.694365,85.319715,0.68,7.667904020198364,"Bhupu Khaja Ghar, Kathmandu, Kathmandu 44617, Nepal",27.694301,85.319744,,Bhupu Khaja Ghar,,44617,,,Kathmandu,Kathmandu,Three,Nepal,np,© OpenStreetMap contributors,Open Database License,https://www.openstreetmap.org/copyright
61677553,1159,2019-12-16 10:43:41,27.694198333333333,85.31945666666667,1.86,7.660609181424799,"Nepal Food Corporation, Thapathali Road, Thapathali, Kathmandu 44617, Nepal",27.6932088,85.319650891967,,Nepal Food Corporation,Thapathali Road,44617,Kathmandu-11,Thapathali,Kathmandu,Kathmandu,Bagmati Province,Nepal,np,© OpenStreetMap contributors,Open Database License,https://www.openstreetmap.org/copyright
61678098,1159,2019-12-16 10:44:11,27.693961666666667,85.31925333333334,2.55,9.368398621078356,"Maitighar Bus Stop, Thapathali Road, Thapathali, Kathmandu 00779, Nepal",27.693971,85.3193479,,Maitighar Bus Stop,Thapathali Road,00779,Kathmandu-11,Thapathali,Kathmandu,Kathmandu,Bagmati Province,Nepal,np,© OpenStreetMap contributors,Open Database License,https://www.openstreetmap.org/copyright
61678663,1159,2019-12-16 10:44:41,27.693836666666662,85.31916833333334,2.6,17.851241077443756,"Sunita Chamena House, Thapathali Road, Thapathali, Kathmandu 00779, Nepal",27.693681,85.319124,,Sunita Chamena House,Thapathali Road,00779,Kathmandu-11,Thapathali,Kathmandu,Kathmandu,Bagmati Province,Nepal,np,© OpenStreetMap contributors,Open Database License,https://www.openstreetmap.org/copyright
61679223,1159,2019-12-16 10:45:11,27.69346,85.31888833333333,1.58,14.917877655059867,"Central Bureau of Statistics, Thapathali Road, Thapathali, Kathmandu 00779, Nepal",27.6934101,85.31823183225069,,Central Bureau of Statistics,Thapathali Road,00779,Kathmandu-11,Thapathali,Kathmandu,Kathmandu,Bagmati Province,Nepal,np,© OpenStreetMap contributors,Open Database License,https://www.openstreetmap.org/copyright
61957752,1159,2019-12-16 14:58:51,27.687795,85.33772833333333,20.06,0.2558882225583047,"Madan Bhandari Path, Minbhawan, Kathmandu 44617, Nepal",27.6879663,85.3369901,,Madan Bhandari Path,Madan Bhandari Path,44617,Kathmandu-31,Minbhawan,Kathmandu,Kathmandu,Bagmati Province,Nepal,np,© OpenStreetMap contributors,Open Database License,https://www.openstreetmap.org/copyright
61958264,1159,2019-12-16 14:59:21,27.68823666666667,85.33554333333333,8.76,1.8456035243208637,"पुरानो बानेश्वर सडक, Kathmandu, Kathmandu 44617, Nepal",27.688253,85.33554,,,पुरानो बानेश्वर सडक,44617,,,Kathmandu,Kathmandu,Three,Nepal,np,© OpenStreetMap contributors,Open Database License,https://www.openstreetmap.org/copyright
61958814,1159,2019-12-16 14:59:52,27.68863333333333,85.33379,13.62,24.86261298582537,"Civil Bank, Madan Bhandari Path, Buddha Nagar, Kathmandu 44617, Nepal",27.68830225,85.33382534487343,,Civil Bank,Madan Bhandari Path,44617,Kathmandu-10,Buddha Nagar,Kathmandu,Kathmandu,Bagmati Province,Nepal,np,© OpenStreetMap contributors,Open Database License,https://www.openstreetmap.org/copyright
61959373,1159,2019-12-16 15:00:25,27.68933,85.33092833333333,20.54,87.16763698713152,"Kantipur Handicrafts, Shram Marg 340, Buddha Nagar, Kathmandu 44617, Nepal",27.6886091,85.3312761,340,Kantipur Handicrafts,Shram Marg,44617,Kathmandu-10,Buddha Nagar,Kathmandu,Kathmandu,Bagmati Province,Nepal,np,© OpenStreetMap contributors,Open Database License,https://www.openstreetmap.org/copyright
61959815,1159,2019-12-16 15:00:51,27.690446666666663,85.32819,17.8,16.73540538505359,"Bijulibazar bridge, Kathmandu, Kathmandu 44617, Nepal",27.690389,85.328347,,,Bijulibazar bridge,44617,,,Kathmandu,Kathmandu,Three,Nepal,np,© OpenStreetMap contributors,Open Database License,https://www.openstreetmap.org/copyright
61960344,1159,2019-12-16 15:01:21,27.69181333333333,85.32528666666667,20.46,3.3026381361875603,"Madan Bhandari Path, Kathmandu, Kathmandu 44617, Nepal",27.6916763,85.3255084,,Madan Bhandari Path,Madan Bhandari Path,44617,Kathmandu-11,,Kathmandu,Kathmandu,Bagmati Province,Nepal,np,© OpenStreetMap contributors,Open Database License,https://www.openstreetmap.org/copyright
61960860,1159,2019-12-16 15:01:51,27.693156666666667,85.32245666666667,22.34,12.655377094977448,"उक्टी मार्गा, Kathmandu, Kathmandu 44617, Nepal",27.693049,85.322415,,,उक्टी मार्गा,44617,,,Kathmandu,Kathmandu,Three,Nepal,np,© OpenStreetMap contributors,Open Database License,https://www.openstreetmap.org/copyright
61961389,1159,2019-12-16 15:02:20,27.694391666666668,85.31982333333333,10.88,11.810226519283777,"Janaastha Lawyers Services Pvt.Ltd, Thapathali Marg, Thapathali, Kathmandu 44617, Nepal",27.6942864,85.3198393,,Janaastha Lawyers Services Pvt.Ltd,Thapathali Marg,44617,Kathmandu-11,Thapathali,Kathmandu,Kathmandu,Bagmati Province,Nepal,np,© OpenStreetMap contributors,Open Database License,https://www.openstreetmap.org/copyright
63117872,1159,2019-12-17 09:13:56,27.707935,85.338945,22.26,22.633539083057254,"Wigan & Leigh College, Pashupati Sadak, Chabahil, Kathmandu 44660, Nepal",27.70814345,85.33914129437514,,Wigan & Leigh College,Pashupati Sadak,44660,Kathmandu-07,Chabahil,Kathmandu,Kathmandu,Bagmati Province,Nepal,np,© OpenStreetMap contributors,Open Database License,https://www.openstreetmap.org/copyright
63118446,1159,2019-12-17 09:14:25,27.708076666666667,85.33663833333334,7.84,9.234725360916908,"Pashupati Sadak, Kathmandu, Kathmandu 44605, Nepal",27.708085,85.336545,,,Pashupati Sadak,44605,,,Kathmandu,Kathmandu,Three,Nepal,np,© OpenStreetMap contributors,Open Database License,https://www.openstreetmap.org/copyright
63119036,1159,2019-12-17 09:14:55,27.708605,85.33682833333333,9.92,17.74971068937534,"Rudra Mati Marg-2, Kathmandu, Kathmandu 44660, Nepal",27.708542,85.336994,,,Rudra Mati Marg-2,44660,,,Kathmandu,Kathmandu,Three,Nepal,np,© OpenStreetMap contributors,Open Database License,https://www.openstreetmap.org/copyright
63119593,1159,2019-12-17 09:15:25,27.710931666666667,85.33721833333334,19.21,0.2858657899414855,"Rudra Mati Marg, Maitidevi, Kathmandu 00975, Nepal",27.7096953,85.3370232,,Rudra Mati Marg,Rudra Mati Marg,00975,Kathmandu-30,Maitidevi,Kathmandu,Kathmandu,Bagmati Province,Nepal,np,© OpenStreetMap contributors,Open Database License,https://www.openstreetmap.org/copyright
64469709,1159,2019-12-18 06:47:36,27.687931666666667,85.335475,0.87,1.3173139520219077,"New Baneshwar Department Store, Sankhamul Marg, Shankhamul, Kathmandu 44617, Nepal",27.687884150000002,85.33556535139367,,New Baneshwar Department Store,Sankhamul Marg,44617,Kathmandu-31,Shankhamul,Kathmandu,Kathmandu,Bagmati Province,Nepal,np,© OpenStreetMap contributors,Open Database License,https://www.openstreetmap.org/copyright
64470363,1159,2019-12-18 06:48:13,27.688918333333334,85.33571166666667,12.36,15.62669330571654,"Raj Joshi Polyclinic, Naya Baneshwar Sadak, Buddha Nagar, Kathmandu 44617, Nepal",27.6890088,85.33550885,,Raj Joshi Polyclinic,Naya Baneshwar Sadak,44617,Kathmandu-10,Buddha Nagar,Kathmandu,Kathmandu,Bagmati Province,Nepal,np,© OpenStreetMap contributors,Open Database License,https://www.openstreetmap.org/copyright
64470759,1159,2019-12-18 06:48:36,27.69041,85.335945,1.87,7.941477115003982,"Naya Baneshwar, Kathmandu, Kathmandu 44617, Nepal",27.69034,85.335929,,Naya Baneshwar,,44617,,,Kathmandu,Kathmandu,Three,Nepal,np,© OpenStreetMap contributors,Open Database License,https://www.openstreetmap.org/copyright
64471313,1159,2019-12-18 06:49:05,27.690861666666667,85.33607666666667,1.78,11.17980904482417,"Budathoki Driving Training Center, Devkota Sadak, Buddha Nagar, Kathmandu 00446, Nepal",27.6909161,85.3359812,,Budathoki Driving Training Center,Devkota Sadak,00446,Kathmandu-10,Buddha Nagar,Kathmandu,Kathmandu,Bagmati Province,Nepal,np,© OpenStreetMap contributors,Open Database License,https://www.openstreetmap.org/copyright
64471843,1159,2019-12-18 06:49:35,27.69084,85.33652833333333,9.67,14.02239034146976,"Kantipur International Open Education Pvt Ltd, Bibhuti Janak Marg, Naya Baneshwar, Kathmandu 44617, Nepal",27.690937050000002,85.33673126267362,,Kantipur International Open Education Pvt Ltd,Bibhuti Janak Marg,44617,Kathmandu-31,Naya Baneshwar,Kathmandu,Kathmandu,Bagmati Province,Nepal,np,© OpenStreetMap contributors,Open Database License,https://www.openstreetmap.org/copyright
64472368,1159,2019-12-18 06:50:05,27.691186666666667,85.33725833333334,6.24,33.19216284699484,"Samaj Dental, Bibhuti Janak Marg, Kathmandu, Kathmandu 44617, Nepal",27.691091,85.336939,,Samaj Dental,Bibhuti Janak Marg,44617,,,Kathmandu,Kathmandu,Three,Nepal,np,© OpenStreetMap contributors,Open Database License,https://www.openstreetmap.org/copyright
64472901,1159,2019-12-18 06:50:35,27.691503333333333,85.33774833333334,0.84,14.220104685459322,"Har Din Bachat Finance, Kathmandu, Kathmandu 44703, Nepal",27.691542,85.337886,,Har Din Bachat Finance,,44703,,,Kathmandu,Kathmandu,Three,Nepal,np,© OpenStreetMap contributors,Open Database License,https://www.openstreetmap.org/copyright
64473410,1159,2019-12-18 06:51:05,27.69154333333333,85.33778833333334,0.59,9.616726606785502,"Har Din Bachat Finance, Jana Sahayogi Marga, Naya Baneshwar, Kathmandu 44703, Nepal",27.6915424,85.337886,,Har Din Bachat Finance,Jana Sahayogi Marga,44703,Kathmandu-31,Naya Baneshwar,Kathmandu,Kathmandu,Bagmati Province,Nepal,np,© OpenStreetMap contributors,Open Database License,https://www.openstreetmap.org/copyright
64473938,1159,2019-12-18 06:51:34,27.691581666666668,85.33776333333333,0.18,12.842648840493789,"Har Din Bachat Finance, Jana Sahayogi Marga, Naya Baneshwar, Kathmandu 44703, Nepal",27.6915424,85.337886,,Har Din Bachat Finance,Jana Sahayogi Marga,44703,Kathmandu-31,Naya Baneshwar,Kathmandu,Kathmandu,Bagmati Province,Nepal,np,© OpenStreetMap contributors,Open Database License,https://www.openstreetmap.org/copyright
64474489,1159,2019-12-18 06:52:04,27.691575,85.33775666666666,0.95,13.239938286034397,"Har Din Bachat Finance, Jana Sahayogi Marga, Naya Baneshwar, Kathmandu 44703, Nepal",27.6915424,85.337886,,Har Din Bachat Finance,Jana Sahayogi Marga,44703,Kathmandu-31,Naya Baneshwar,Kathmandu,Kathmandu,Bagmati Province,Nepal,np,© OpenStreetMap contributors,Open Database License,https://www.openstreetmap.org/copyright
64475034,1159,2019-12-18 06:52:34,27.691621666666663,85.337825,0.54,6.885176710076648,"Jana Sahayogi Marga, Kathmandu, Kathmandu 44703, Nepal",27.691681,85.337845,,,Jana Sahayogi Marga,44703,,,Kathmandu,Kathmandu,Three,Nepal,np,© OpenStreetMap contributors,Open Database License,https://www.openstreetmap.org/copyright
64475575,1159,2019-12-18 06:53:04,27.691696666666665,85.337895,0.67,5.222083239817913,"Jana Sahayogi Marga, Kathmandu, Kathmandu 44703, Nepal",27.691681,85.337845,,,Jana Sahayogi Marga,44703,,,Kathmandu,Kathmandu,Three,Nepal,np,© OpenStreetMap contributors,Open Database License,https://www.openstreetmap.org/copyright
64476113,1159,2019-12-18 06:53:33,27.691685,85.33788,0.39,3.4746472550656367,"Jana Sahayogi Marga, Kathmandu, Kathmandu 44703, Nepal",27.691681,85.337845,,,Jana Sahayogi Marga,44703,,,Kathmandu,Kathmandu,Three,Nepal,np,© OpenStreetMap contributors,Open Database License,https://www.openstreetmap.org/copyright
64476684,1159,2019-12-18 06:54:03,27.691711666666667,85.33789833333333,0.22,6.261187474116599,"Jana Sahayogi Marga, Kathmandu, Kathmandu 44703, Nepal",27.691681,85.337845,,,Jana Sahayogi Marga,44703,,,Kathmandu,Kathmandu,Three,Nepal,np,© OpenStreetMap contributors,Open Database License,https://www.openstreetmap.org/copyright
64477205,1159,2019-12-18 06:54:33,27.69170666666667,85.33784166666666,0.24,2.8728155433803786,"Jana Sahayogi Marga, Kathmandu, Kathmandu 44703, Nepal",27.691681,85.337845,,,Jana Sahayogi Marga,44703,,,Kathmandu,Kathmandu,Three,Nepal,np,© OpenStreetMap contributors,Open Database License,https://www.openstreetmap.org/copyright
64477724,1159,2019-12-18 06:55:03,27.691936666666667,85.337905,6.26,27.30027508277962,"Deurali Marg, Kathmandu, Kathmandu 00446, Nepal",27.692158,85.337785,,,Deurali Marg,00446,,,Kathmandu,Kathmandu,Three,Nepal,np,© OpenStreetMap contributors,Open Database License,https://www.openstreetmap.org/copyright
64478256,1159,2019-12-18 06:55:33,27.692731666666667,85.33825666666667,5.32,1.6061574167835617,"Jana Sahayogi Marga, Naya Baneshwar, Kathmandu 44703, Nepal",27.6917205,85.3378572,,Jana Sahayogi Marga,Jana Sahayogi Marga,44703,Kathmandu-31,Naya Baneshwar,Kathmandu,Kathmandu,Bagmati Province,Nepal,np,© OpenStreetMap contributors,Open Database License,https://www.openstreetmap.org/copyright
64478765,1159,2019-12-18 06:56:02,27.693135,85.33940666666666,10.47,21.650326628805345,"ADAPT - Nepal, Shree Panchakumari Marg, Naya Baneshwar, Kathmandu 44703, Nepal",27.69328845,85.33917359701645,,ADAPT - Nepal,Shree Panchakumari Marg,44703,Kathmandu-31,Naya Baneshwar,Kathmandu,Kathmandu,Bagmati Province,Nepal,np,© OpenStreetMap contributors,Open Database License,https://www.openstreetmap.org/copyright
64623466,1159,2019-12-18 09:11:34,27.70792833333333,85.339325,14.78,16.56353585040204,"HipHop Communication and Stationery, Kathmandu, Kathmandu 44660, Nepal",27.70807,85.339377,,HipHop Communication and Stationery,,44660,,,Kathmandu,Kathmandu,Three,Nepal,np,© OpenStreetMap contributors,Open Database License,https://www.openstreetmap.org/copyright
64623981,1159,2019-12-18 09:12:04,27.708033333333333,85.33733166666667,6.66,0.22024390007629785,"Maitidevi, Kathmandu 00446, Nepal",27.7056104,85.3364598,,,,00446,Kathmandu-30,Maitidevi,Kathmandu,Kathmandu,Bagmati Province,Nepal,np,© OpenStreetMap contributors,Open Database License,https://www.openstreetmap.org/copyright
64624525,1159,2019-12-18 09:12:33,27.70801,85.33668333333334,4.72,1.7180833954059884,"Maitidevi, Kathmandu 44660, Nepal",27.7078461,85.3366654,,,,44660,Kathmandu-30,Maitidevi,Kathmandu,Kathmandu,Bagmati Province,Nepal,np,© OpenStreetMap contributors,Open Database License,https://www.openstreetmap.org/copyright
64625056,1159,2019-12-18 09:13:03,27.70928,85.33699833333333,16.25,1.0135112112664133,"Rudra Mati Marg, Maitidevi, Kathmandu 00975, Nepal",27.7096953,85.3370232,,Rudra Mati Marg,Rudra Mati Marg,00975,Kathmandu-30,Maitidevi,Kathmandu,Kathmandu,Bagmati Province,Nepal,np,© OpenStreetMap contributors,Open Database License,https://www.openstreetmap.org/copyright
64655361,1159,2019-12-18 09:40:51,27.710763333333333,85.33808833333333,4.61,8.640057337648996,"Ghale Residence, Paneku Marg, Chabahil, Kathmandu 44660, Nepal",27.71087245,85.33816038330684,,Ghale Residence,Paneku Marg,44660,Kathmandu-07,Chabahil,Kathmandu,Kathmandu,Bagmati Province,Nepal,np,© OpenStreetMap contributors,Open Database License,https://www.openstreetmap.org/copyright
64655901,1159,2019-12-18 09:41:21,27.710691666666666,85.33812333333333,0.21,13.922550279123003,"Ghale Residence, Paneku Marg, Chabahil, Kathmandu 44660, Nepal",27.71087245,85.33816038330684,,Ghale Residence,Paneku Marg,44660,Kathmandu-07,Chabahil,Kathmandu,Kathmandu,Bagmati Province,Nepal,np,© OpenStreetMap contributors,Open Database License,https://www.openstreetmap.org/copyright
64656433,1159,2019-12-18 09:41:51,27.71066,85.338145,0.04,16.89900453404248,"Ghale Residence, Paneku Marg, Chabahil, Kathmandu 44660, Nepal",27.71087245,85.33816038330684,,Ghale Residence,Paneku Marg,44660,Kathmandu-07,Chabahil,Kathmandu,Kathmandu,Bagmati Province,Nepal,np,© OpenStreetMap contributors,Open Database License,https://www.openstreetmap.org/copyright
64656969,1159,2019-12-18 09:42:21,27.710686666666668,85.33812833333333,0.05,14.312772603863023,"Ghale Residence, Paneku Marg, Chabahil, Kathmandu 44660, Nepal",27.71087245,85.33816038330684,,Ghale Residence,Paneku Marg,44660,Kathmandu-07,Chabahil,Kathmandu,Kathmandu,Bagmati Province,Nepal,np,© OpenStreetMap contributors,Open Database License,https://www.openstreetmap.org/copyright
64657495,1159,2019-12-18 09:42:50,27.710706666666667,85.33811333333334,0.03,12.725463245311989,"Ghale Residence, Paneku Marg, Chabahil, Kathmandu 44660, Nepal",27.71087245,85.33816038330684,,Ghale Residence,Paneku Marg,44660,Kathmandu-07,Chabahil,Kathmandu,Kathmandu,Bagmati Province,Nepal,np,© OpenStreetMap contributors,Open Database License,https://www.openstreetmap.org/copyright
64658031,1159,2019-12-18 09:43:20,27.710705,85.33811,0.04,13.032543091398495,"Ghale Residence, Paneku Marg, Chabahil, Kathmandu 44660, Nepal",27.71087245,85.33816038330684,,Ghale Residence,Paneku Marg,44660,Kathmandu-07,Chabahil,Kathmandu,Kathmandu,Bagmati Province,Nepal,np,© OpenStreetMap contributors,Open Database License,https://www.openstreetmap.org/copyright
64658566,1159,2019-12-18 09:43:50,27.710706666666667,85.33812833333333,0.02,12.184315900993452,"Ghale Residence, Paneku Marg, Chabahil, Kathmandu 44660, Nepal",27.71087245,85.33816038330684,,Ghale Residence,Paneku Marg,44660,Kathmandu-07,Chabahil,Kathmandu,Kathmandu,Bagmati Province,Nepal,np,© OpenStreetMap contributors,Open Database License,https://www.openstreetmap.org/copyright
64659097,1159,2019-12-18 09:44:20,27.710698333333333,85.33813,0.02,13.020215734663994,"Ghale Residence, Paneku Marg, Chabahil, Kathmandu 44660, Nepal",27.71087245,85.33816038330684,,Ghale Residence,Paneku Marg,44660,Kathmandu-07,Chabahil,Kathmandu,Kathmandu,Bagmati Province,Nepal,np,© OpenStreetMap contributors,Open Database License,https://www.openstreetmap.org/copyright
64659670,1159,2019-12-18 09:44:49,27.710696666666667,85.338125,0.04,13.343115595665006,"Ghale Residence, Paneku Marg, Chabahil, Kathmandu 44660, Nepal",27.71087245,85.33816038330684,,Ghale Residence,Paneku Marg,44660,Kathmandu-07,Chabahil,Kathmandu,Kathmandu,Bagmati Province,Nepal,np,© OpenStreetMap contributors,Open Database License,https://www.openstreetmap.org/copyright
64660206,1159,2019-12-18 09:45:19,27.710706666666667,85.33811666666666,0.09,12.592260595842271,"Ghale Residence, Paneku Marg, Chabahil, Kathmandu 44660, Nepal",27.71087245,85.33816038330684,,Ghale Residence,Paneku Marg,44660,Kathmandu-07,Chabahil,Kathmandu,Kathmandu,Bagmati Province,Nepal,np,© OpenStreetMap contributors,Open Database License,https://www.openstreetmap.org/copyright
64660738,1159,2019-12-18 09:45:49,27.710716666666663,85.33811333333334,0.07,11.723811859762893,"Ghale Residence, Paneku Marg, Chabahil, Kathmandu 44660, Nepal",27.71087245,85.33816038330684,,Ghale Residence,Paneku Marg,44660,Kathmandu-07,Chabahil,Kathmandu,Kathmandu,Bagmati Province,Nepal,np,© OpenStreetMap contributors,Open Database License,https://www.openstreetmap.org/copyright
64661266,1159,2019-12-18 09:46:19,27.71071333333333,85.33811166666666,0.1,12.128609496255658,"Ghale Residence, Paneku Marg, Chabahil, Kathmandu 44660, Nepal",27.71087245,85.33816038330684,,Ghale Residence,Paneku Marg,44660,Kathmandu-07,Chabahil,Kathmandu,Kathmandu,Bagmati Province,Nepal,np,© OpenStreetMap contributors,Open Database License,https://www.openstreetmap.org/copyright
64661783,1159,2019-12-18 09:46:49,27.710698333333333,85.33811833333333,0.11,13.388675371328073,"Ghale Residence, Paneku Marg, Chabahil, Kathmandu 44660, Nepal",27.71087245,85.33816038330684,,Ghale Residence,Paneku Marg,44660,Kathmandu-07,Chabahil,Kathmandu,Kathmandu,Bagmati Province,Nepal,np,© OpenStreetMap contributors,Open Database License,https://www.openstreetmap.org/copyright
64662323,1159,2019-12-18 09:47:18,27.71069,85.33812,0.05,14.202793285246647,"Ghale Residence, Paneku Marg, Chabahil, Kathmandu 44660, Nepal",27.71087245,85.33816038330684,,Ghale Residence,Paneku Marg,44660,Kathmandu-07,Chabahil,Kathmandu,Kathmandu,Bagmati Province,Nepal,np,© OpenStreetMap contributors,Open Database License,https://www.openstreetmap.org/copyright
64662854,1159,2019-12-18 09:47:48,27.710688333333334,85.338115,0.08,14.544572346522177,"Ghale Residence, Paneku Marg, Chabahil, Kathmandu 44660, Nepal",27.71087245,85.33816038330684,,Ghale Residence,Paneku Marg,44660,Kathmandu-07,Chabahil,Kathmandu,Kathmandu,Bagmati Province,Nepal,np,© OpenStreetMap contributors,Open Database License,https://www.openstreetmap.org/copyright
64663415,1159,2019-12-18 09:48:18,27.710698333333333,85.33812833333333,0.1,13.067310057663011,"Ghale Residence, Paneku Marg, Chabahil, Kathmandu 44660, Nepal",27.71087245,85.33816038330684,,Ghale Residence,Paneku Marg,44660,Kathmandu-07,Chabahil,Kathmandu,Kathmandu,Bagmati Province,Nepal,np,© OpenStreetMap contributors,Open Database License,https://www.openstreetmap.org/copyright
64663974,1159,2019-12-18 09:48:48,27.710696666666667,85.33813166666667,0.13,13.153583582508286,"Ghale Residence, Paneku Marg, Chabahil, Kathmandu 44660, Nepal",27.71087245,85.33816038330684,,Ghale Residence,Paneku Marg,44660,Kathmandu-07,Chabahil,Kathmandu,Kathmandu,Bagmati Province,Nepal,np,© OpenStreetMap contributors,Open Database License,https://www.openstreetmap.org/copyright
64664515,1159,2019-12-18 09:49:18,27.710698333333333,85.33812666666667,0.07,13.11628774130861,"Ghale Residence, Paneku Marg, Chabahil, Kathmandu 44660, Nepal",27.71087245,85.33816038330684,,Ghale Residence,Paneku Marg,44660,Kathmandu-07,Chabahil,Kathmandu,Kathmandu,Bagmati Province,Nepal,np,© OpenStreetMap contributors,Open Database License,https://www.openstreetmap.org/copyright
64665045,1159,2019-12-18 09:49:47,27.710725,85.33811833333333,0.11,10.674778466006613,"Ghale Residence, Paneku Marg, Chabahil, Kathmandu 44660, Nepal",27.71087245,85.33816038330684,,Ghale Residence,Paneku Marg,44660,Kathmandu-07,Chabahil,Kathmandu,Kathmandu,Bagmati Province,Nepal,np,© OpenStreetMap contributors,Open Database License,https://www.openstreetmap.org/copyright
64665571,1159,2019-12-18 09:50:17,27.710735,85.33811833333333,0.07,9.69509355016807,"Ghale Residence, Paneku Marg, Chabahil, Kathmandu 44660, Nepal",27.71087245,85.33816038330684,,Ghale Residence,Paneku Marg,44660,Kathmandu-07,Chabahil,Kathmandu,Kathmandu,Bagmati Province,Nepal,np,© OpenStreetMap contributors,Open Database License,https://www.openstreetmap.org/copyright
64666120,1159,2019-12-18 09:50:47,27.71072833333333,85.33810833333334,0.05,10.838094877198852,"Ghale Residence, Paneku Marg, Chabahil, Kathmandu 44660, Nepal",27.71087245,85.33816038330684,,Ghale Residence,Paneku Marg,44660,Kathmandu-07,Chabahil,Kathmandu,Kathmandu,Bagmati Province,Nepal,np,© OpenStreetMap contributors,Open Database License,https://www.openstreetmap.org/copyright
64666657,1159,2019-12-18 09:51:17,27.71071833333333,85.33810666666666,0.04,11.874232620629776,"Ghale Residence, Paneku Marg, Chabahil, Kathmandu 44660, Nepal",27.71087245,85.33816038330684,,Ghale Residence,Paneku Marg,44660,Kathmandu-07,Chabahil,Kathmandu,Kathmandu,Bagmati Province,Nepal,np,© OpenStreetMap contributors,Open Database License,https://www.openstreetmap.org/copyright
64667179,1159,2019-12-18 09:51:46,27.710705,85.33810333333334,0.0,13.329242572440878,"Ghale Residence, Paneku Marg, Chabahil, Kathmandu 44660, Nepal",27.71087245,85.33816038330684,,Ghale Residence,Paneku Marg,44660,Kathmandu-07,Chabahil,Kathmandu,Kathmandu,Bagmati Province,Nepal,np,© OpenStreetMap contributors,Open Database License,https://www.openstreetmap.org/copyright
64667726,1159,2019-12-18 09:52:16,27.710695,85.33810833333334,0.13,14.110154849232188,"Ghale Residence, Paneku Marg, Chabahil, Kathmandu 44660, Nepal",27.71087245,85.33816038330684,,Ghale Residence,Paneku Marg,44660,Kathmandu-07,Chabahil,Kathmandu,Kathmandu,Bagmati Province,Nepal,np,© OpenStreetMap contributors,Open Database License,https://www.openstreetmap.org/copyright
64668253,1159,2019-12-18 09:52:46,27.710486666666668,85.33846833333334,7.5,4.332875767083843,"Baidhya nath bhandari ayurved dham, Kathmandu, Kathmandu 44660, Nepal",27.710476,85.338426,,Baidhya nath bhandari ayurved dham,,44660,,,Kathmandu,Kathmandu,Three,Nepal,np,© OpenStreetMap contributors,Open Database License,https://www.openstreetmap.org/copyright
64668790,1159,2019-12-18 09:53:16,27.71004333333333,85.33937333333333,5.56,4.707372768152352,"Paneku Marg, Chabahil, Kathmandu 44660, Nepal",27.710001,85.339373,,,Paneku Marg,44660,,Chabahil,Kathmandu,Kathmandu,Three,Nepal,np,© OpenStreetMap contributors,Open Database License,https://www.openstreetmap.org/copyright
64942583,1159,2019-12-18 14:08:56,27.693186666666666,85.33871166666667,3.87,11.165404787240753,"Rupandehi Girls Hostel, Shree Panchakumari Marg, Naya Baneshwar, Kathmandu 44703, Nepal",27.693035950000002,85.33881875806149,,Rupandehi Girls Hostel,Shree Panchakumari Marg,44703,Kathmandu-31,Naya Baneshwar,Kathmandu,Kathmandu,Bagmati Province,Nepal,np,© OpenStreetMap contributors,Open Database License,https://www.openstreetmap.org/copyright
64943110,1159,2019-12-18 14:09:26,27.692553333333333,85.33823,6.78,4.292046645210653,"Jana Sahayogi Marga, Naya Baneshwar, Kathmandu 44703, Nepal",27.6917205,85.3378572,,Jana Sahayogi Marga,Jana Sahayogi Marga,44703,Kathmandu-31,Naya Baneshwar,Kathmandu,Kathmandu,Bagmati Province,Nepal,np,© OpenStreetMap contributors,Open Database License,https://www.openstreetmap.org/copyright
64943647,1159,2019-12-18 14:09:56,27.691801666666667,85.33784,3.87,13.426567871509612,"Jana Sahayogi Marga, Kathmandu, Kathmandu 44703, Nepal",27.691681,85.337845,,,Jana Sahayogi Marga,44703,,,Kathmandu,Kathmandu,Three,Nepal,np,© OpenStreetMap contributors,Open Database License,https://www.openstreetmap.org/copyright
64944151,1159,2019-12-18 14:10:25,27.691465,85.33784666666666,2.59,9.39713765511779,"Har Din Bachat Finance, Kathmandu, Kathmandu 44703, Nepal",27.691542,85.337886,,Har Din Bachat Finance,,44703,,,Kathmandu,Kathmandu,Three,Nepal,np,© OpenStreetMap contributors,Open Database License,https://www.openstreetmap.org/copyright
64944680,1159,2019-12-18 14:10:57,27.690986666666667,85.33724333333333,5.67,22.474491483907745,"Samaj Dental Care, Bibhuti Janak Marg, Naya Baneshwar, Kathmandu 44617, Nepal",27.6908926,85.3370413,,Samaj Dental Care,Bibhuti Janak Marg,44617,Kathmandu-31,Naya Baneshwar,Kathmandu,Kathmandu,Bagmati Province,Nepal,np,© OpenStreetMap contributors,Open Database License,https://www.openstreetmap.org/copyright
64945158,1159,2019-12-18 14:11:25,27.690953333333333,85.33622,4.08,4.659817228253532,"Kastamandap Poly Clinic, Devkota Sadak, Buddha Nagar, Kathmandu 00446, Nepal",27.69106345,85.33619809314564,,Kastamandap Poly Clinic,Devkota Sadak,00446,Kathmandu-10,Buddha Nagar,Kathmandu,Kathmandu,Bagmati Province,Nepal,np,© OpenStreetMap contributors,Open Database License,https://www.openstreetmap.org/copyright
64945659,1159,2019-12-18 14:11:55,27.68877833333333,85.33568666666666,15.62,16.711564653931344,"Bhawani Durga Pharmacy, Naya Baneshwar Sadak, Buddha Nagar, Kathmandu 44617, Nepal",27.6888072,85.3355201,,Bhawani Durga Pharmacy,Naya Baneshwar Sadak,44617,Kathmandu-10,Buddha Nagar,Kathmandu,Kathmandu,Bagmati Province,Nepal,np,© OpenStreetMap contributors,Open Database License,https://www.openstreetmap.org/copyright
64946172,1159,2019-12-18 14:12:25,27.68831833333333,85.335585,2.78,2.379687235422742,"Naya Baneshwar Sadak, Buddha Nagar, Kathmandu 44617, Nepal",27.6883759,85.3355777,,Naya Baneshwar Sadak,Naya Baneshwar Sadak,44617,Kathmandu-10,Buddha Nagar,Kathmandu,Kathmandu,Bagmati Province,Nepal,np,© OpenStreetMap contributors,Open Database License,https://www.openstreetmap.org/copyright
66304306,1159,2019-12-19 11:43:35,27.708023333333333,85.33864333333334,12.31,8.97915641013005,"Burger Bites, Pashupati Sadak, Chabahil, Kathmandu 44660, Nepal",27.70814135,85.3387271,,Burger Bites,Pashupati Sadak,44660,Kathmandu-07,Chabahil,Kathmandu,Kathmandu,Bagmati Province,Nepal,np,© OpenStreetMap contributors,Open Database License,https://www.openstreetmap.org/copyright
66304823,1159,2019-12-19 11:44:04,27.708006666666662,85.33740333333333,2.14,5.961692127620421,"Ratopul Stop, Kathmandu, Kathmandu 44660, Nepal",27.708052,85.337371,,Ratopul Stop,,44660,,,Kathmandu,Kathmandu,Three,Nepal,np,© OpenStreetMap contributors,Open Database License,https://www.openstreetmap.org/copyright
66305341,1159,2019-12-19 11:44:34,27.70808333333333,85.33676666666666,0.05,9.379849817505772,"Ratopul, Chabahil, Kathmandu 44660, Nepal",27.708086,85.3368619,,Ratopul,Ratopul,44660,Kathmandu-30,Chabahil,Kathmandu,Kathmandu,Bagmati Province,Nepal,np,© OpenStreetMap contributors,Open Database License,https://www.openstreetmap.org/copyright
66305857,1159,2019-12-19 11:45:04,27.708151666666662,85.33568,12.86,19.786572054143022,"Pashupati Sadak, Kathmandu, Kathmandu 44605, Nepal",27.708134,85.33548,,,Pashupati Sadak,44605,,,Kathmandu,Kathmandu,Three,Nepal,np,© OpenStreetMap contributors,Open Database License,https://www.openstreetmap.org/copyright
66306410,1159,2019-12-19 11:45:34,27.708255,85.33402166666667,0.13,26.53414459982781,"Shanta Plaza, Pashupati Sadak, Maitidevi, Kathmandu 44605, Nepal",27.7080902,85.3342166,,Shanta Plaza,Pashupati Sadak,44605,Kathmandu-30,Maitidevi,Kathmandu,Kathmandu,Bagmati Province,Nepal,np,© OpenStreetMap contributors,Open Database License,https://www.openstreetmap.org/copyright
66306933,1159,2019-12-19 11:46:04,27.70823833333333,85.33385666666666,0.17,17.32026833586834,"Hero Honda, Pashupati Sadak, Maitidevi, Kathmandu 44605, Nepal",27.70834145,85.33365525495283,,Hero Honda,Pashupati Sadak,44605,Kathmandu-30,Maitidevi,Kathmandu,Kathmandu,Bagmati Province,Nepal,np,© OpenStreetMap contributors,Open Database License,https://www.openstreetmap.org/copyright
66307440,1159,2019-12-19 11:46:33,27.708261666666665,85.33380333333334,0.08,11.464584525692802,"Hero Honda, Pashupati Sadak, Maitidevi, Kathmandu 44605, Nepal",27.70834145,85.33365525495283,,Hero Honda,Pashupati Sadak,44605,Kathmandu-30,Maitidevi,Kathmandu,Kathmandu,Bagmati Province,Nepal,np,© OpenStreetMap contributors,Open Database License,https://www.openstreetmap.org/copyright
66307972,1159,2019-12-19 11:47:03,27.708268333333333,85.33381833333334,0.43,12.480993220845304,"Hero Honda, Pashupati Sadak, Maitidevi, Kathmandu 44605, Nepal",27.70834145,85.33365525495283,,Hero Honda,Pashupati Sadak,44605,Kathmandu-30,Maitidevi,Kathmandu,Kathmandu,Bagmati Province,Nepal,np,© OpenStreetMap contributors,Open Database License,https://www.openstreetmap.org/copyright
66308512,1159,2019-12-19 11:47:33,27.70826333333333,85.33381833333334,0.11,12.71929327774035,"Hero Honda, Pashupati Sadak, Maitidevi, Kathmandu 44605, Nepal",27.70834145,85.33365525495283,,Hero Honda,Pashupati Sadak,44605,Kathmandu-30,Maitidevi,Kathmandu,Kathmandu,Bagmati Province,Nepal,np,© OpenStreetMap contributors,Open Database License,https://www.openstreetmap.org/copyright
66309051,1159,2019-12-19 11:48:03,27.70827833333333,85.33378666666667,0.46,7.932543345169259,"CLPIU, Ministry of Education, Pashupati Marga, Maitidevi, Kathmandu 44605, Nepal",27.70823,85.3337274,,"CLPIU, Ministry of Education",Pashupati Marga,44605,Kathmandu-30,Maitidevi,Kathmandu,Kathmandu,Bagmati Province,Nepal,np,© OpenStreetMap contributors,Open Database License,https://www.openstreetmap.org/copyright
66309618,1159,2019-12-19 11:48:33,27.708266666666667,85.33338833333333,1.23,4.024202662049244,"Bishnu paudel marg, Maitidevi, Kathmandu 00975, Nepal",27.7090831,85.3338723,,Bishnu paudel marg,Bishnu paudel marg,00975,Kathmandu-30,Maitidevi,Kathmandu,Kathmandu,Bagmati Province,Nepal,np,© OpenStreetMap contributors,Open Database License,https://www.openstreetmap.org/copyright
66310131,1159,2019-12-19 11:49:02,27.70843,85.33256833333333,12.7,0.7839488843884047,"Maitidevi, Kathmandu 44605, Nepal",27.7086373,85.3319646,,,,44605,Kathmandu-30,Maitidevi,Kathmandu,Kathmandu,Bagmati Province,Nepal,np,© OpenStreetMap contributors,Open Database License,https://www.openstreetmap.org/copyright
66310651,1159,2019-12-19 11:49:32,27.708785,85.33112666666666,15.16,3.367939316801672,"Nishant Flower Shop, Kathmandu, Kathmandu 44605, Nepal",27.708776,85.331094,,Nishant Flower Shop,,44605,,,Kathmandu,Kathmandu,Three,Nepal,np,© OpenStreetMap contributors,Open Database License,https://www.openstreetmap.org/copyright
66311184,1159,2019-12-19 11:50:03,27.709226666666662,85.32918833333333,14.66,12.948578660349847,"Braindigit IT Solution, Pashupati Sadak, Maitidevi, Kathmandu 44605, Nepal",27.70941225,85.32935865659823,,Braindigit IT Solution,Pashupati Sadak,44605,Kathmandu-30,Maitidevi,Kathmandu,Kathmandu,Bagmati Province,Nepal,np,© OpenStreetMap contributors,Open Database License,https://www.openstreetmap.org/copyright
66311705,1159,2019-12-19 11:50:32,27.709336666666665,85.32874833333334,0.44,4.7381354883101245,"Yuna and Abhi Fashion Collection, Pashupati Marga, Maitidevi, Kathmandu 44600, Nepal",27.709318,85.3287916,,Yuna and Abhi Fashion Collection,Pashupati Marga,44600,Kathmandu-30,Maitidevi,Kathmandu,Kathmandu,Bagmati Province,Nepal,np,© OpenStreetMap contributors,Open Database License,https://www.openstreetmap.org/copyright
66312302,1159,2019-12-19 11:51:06,27.70934833333333,85.32873333333333,0.09,6.654144464872389,"Yuna and Abhi Fashion Collection, Pashupati Marga, Maitidevi, Kathmandu 44600, Nepal",27.709318,85.3287916,,Yuna and Abhi Fashion Collection,Pashupati Marga,44600,Kathmandu-30,Maitidevi,Kathmandu,Kathmandu,Bagmati Province,Nepal,np,© OpenStreetMap contributors,Open Database License,https://www.openstreetmap.org/copyright
66312740,1159,2019-12-19 11:51:31,27.709355,85.328735,0.05,6.926222751951391,"Yuna and Abhi Fashion Collection, Pashupati Marga, Maitidevi, Kathmandu 44600, Nepal",27.709318,85.3287916,,Yuna and Abhi Fashion Collection,Pashupati Marga,44600,Kathmandu-30,Maitidevi,Kathmandu,Kathmandu,Bagmati Province,Nepal,np,© OpenStreetMap contributors,Open Database License,https://www.openstreetmap.org/copyright
66313256,1159,2019-12-19 11:52:01,27.709335,85.32872333333333,0.04,6.981170575661211,"Yuna and Abhi Fashion Collection, Pashupati Marga, Maitidevi, Kathmandu 44600, Nepal",27.709318,85.3287916,,Yuna and Abhi Fashion Collection,Pashupati Marga,44600,Kathmandu-30,Maitidevi,Kathmandu,Kathmandu,Bagmati Province,Nepal,np,© OpenStreetMap contributors,Open Database License,https://www.openstreetmap.org/copyright
66313798,1159,2019-12-19 11:52:31,27.709355,85.32873333333333,0.21,7.058884758079959,"Yuna and Abhi Fashion Collection, Pashupati Marga, Maitidevi, Kathmandu 44600, Nepal",27.709318,85.3287916,,Yuna and Abhi Fashion Collection,Pashupati Marga,44600,Kathmandu-30,Maitidevi,Kathmandu,Kathmandu,Bagmati Province,Nepal,np,© OpenStreetMap contributors,Open Database License,https://www.openstreetmap.org/copyright
66314331,1159,2019-12-19 11:53:00,27.709351666666667,85.32872333333333,0.06,7.692706863275236,"Yuna and Abhi Fashion Collection, Pashupati Marga, Maitidevi, Kathmandu 44600, Nepal",27.709318,85.3287916,,Yuna and Abhi Fashion Collection,Pashupati Marga,44600,Kathmandu-30,Maitidevi,Kathmandu,Kathmandu,Bagmati Province,Nepal,np,© OpenStreetMap contributors,Open Database License,https://www.openstreetmap.org/copyright
66314867,1159,2019-12-19 11:53:30,27.709361666666663,85.32872833333333,0.03,7.897216816918073,"Yuna and Abhi Fashion Collection, Pashupati Marga, Maitidevi, Kathmandu 44600, Nepal",27.709318,85.3287916,,Yuna and Abhi Fashion Collection,Pashupati Marga,44600,Kathmandu-30,Maitidevi,Kathmandu,Kathmandu,Bagmati Province,Nepal,np,© OpenStreetMap contributors,Open Database License,https://www.openstreetmap.org/copyright
66315398,1159,2019-12-19 11:54:00,27.709345,85.32871166666666,0.08,8.4221630311614,"Yuna and Abhi Fashion Collection, Pashupati Marga, Maitidevi, Kathmandu 44600, Nepal",27.709318,85.3287916,,Yuna and Abhi Fashion Collection,Pashupati Marga,44600,Kathmandu-30,Maitidevi,Kathmandu,Kathmandu,Bagmati Province,Nepal,np,© OpenStreetMap contributors,Open Database License,https://www.openstreetmap.org/copyright
66315949,1159,2019-12-19 11:54:30,27.70935,85.328725,0.1,7.459638328405501,"Yuna and Abhi Fashion Collection, Pashupati Marga, Maitidevi, Kathmandu 44600, Nepal",27.709318,85.3287916,,Yuna and Abhi Fashion Collection,Pashupati Marga,44600,Kathmandu-30,Maitidevi,Kathmandu,Kathmandu,Bagmati Province,Nepal,np,© OpenStreetMap contributors,Open Database License,https://www.openstreetmap.org/copyright
66316467,1159,2019-12-19 11:55:00,27.70938,85.32862333333334,0.22,17.94204300024079,"Yuna and Abhi Fashion Collection, Pashupati Marga, Maitidevi, Kathmandu 44600, Nepal",27.709318,85.3287916,,Yuna and Abhi Fashion Collection,Pashupati Marga,44600,Kathmandu-30,Maitidevi,Kathmandu,Kathmandu,Bagmati Province,Nepal,np,© OpenStreetMap contributors,Open Database License,https://www.openstreetmap.org/copyright
66317001,1159,2019-12-19 11:55:29,27.70975333333333,85.32783,9.28,4.020684992979138,"Angan, Thirbam Sadak 3, Narayan Chaur, Kathmandu 44605, Nepal",27.7097173,85.3278266,,Angan,Thirbam Sadak 3,44605,Kathmandu-01,Narayan Chaur,Kathmandu,Kathmandu,Bagmati Province,Nepal,np,© OpenStreetMap contributors,Open Database License,https://www.openstreetmap.org/copyright
66317550,1159,2019-12-19 11:55:59,27.710206666666668,85.32801833333333,2.33,4.2977109151239405,"Himal Hospital, Thirbam Sadak 3, Narayan Chaur, Kathmandu 44605, Nepal",27.7103119,85.32823583509317,,Himal Hospital,Thirbam Sadak 3,44605,Kathmandu-30,Narayan Chaur,Kathmandu,Kathmandu,Bagmati Province,Nepal,np,© OpenStreetMap contributors,Open Database License,https://www.openstreetmap.org/copyright
66318078,1159,2019-12-19 11:56:29,27.710551666666667,85.32810833333333,10.18,45.399076091040364,"N.K. Joshi & Co., Chartered Accountants, Thirbam Sadak 3 44600, Kathmandu, Kathmandu 977, Nepal",27.710144,85.328083,44600,"N.K. Joshi & Co., Chartered Accountants",Thirbam Sadak 3,977,,,Kathmandu,Kathmandu,Three,Nepal,np,© OpenStreetMap contributors,Open Database License,https://www.openstreetmap.org/copyright
66318614,1159,2019-12-19 11:56:59,27.710888333333333,85.32825833333334,0.0,3.8244117560524153,"Everest momo, Kathmandu, Kathmandu 44605, Nepal",27.710885,85.328297,,Everest momo,,44605,,,Kathmandu,Kathmandu,Three,Nepal,np,© OpenStreetMap contributors,Open Database License,https://www.openstreetmap.org/copyright
