original_id,original_deviceid,original_servertime,original_latitude,original_longitude,original_speed,distance,formatted,lat,lon,name,housenumber,street,postcode,district,suburb,city,county,state,country,country_code,attribution,attribution_license,attribution_url
81040979,1161,2019-12-29 09:14:26,27.708151666666662,85.33651833333333,4.59,7.864108086475155,"Pashupati Sadak, Kathmandu, Kathmandu 00975, Nepal",27.708085,85.336545,,,Pashupati Sadak,00975,,,Kathmandu,Kathmandu,Three,Nepal,np,© OpenStreetMap contributors,Open Database License,https://www.openstreetmap.org/copyright
81041579,1161,2019-12-29 09:15:01,27.70980833333333,85.33707666666666,16.26,2.2730434446553502,"Rudra Mati Marg, Maitidevi, Kathmandu 00975, Nepal",27.7096953,85.3370232,Rudra Mati Marg,,Rudra Mati Marg,00975,Kathmandu-30,Maitidevi,Kathmandu,Kathmandu,Bagmati Province,Nepal,np,© OpenStreetMap contributors,Open Database License,https://www.openstreetmap.org/copyright
81207533,1161,2019-12-29 11:47:20,27.68802,85.33606166666667,8.59,0.4607960615403416,"Minbhawan, Kathmandu 44617, Nepal",27.6880487,85.3359171,,,,44617,Kathmandu-31,Minbhawan,Kathmandu,Kathmandu,Bagmati Province,Nepal,np,© OpenStreetMap contributors,Open Database License,https://www.openstreetmap.org/copyright
81208045,1161,2019-12-29 11:47:50,27.688115,85.33565166666666,0.1,0.3081536005592392,"Minbhawan, Kathmandu 44617, Nepal",27.6880487,85.3359171,,,,44617,Kathmandu-31,Minbhawan,Kathmandu,Kathmandu,Bagmati Province,Nepal,np,© OpenStreetMap contributors,Open Database License,https://www.openstreetmap.org/copyright
81208583,1161,2019-12-29 11:48:20,27.68805833333333,85.33552166666666,2.05,12.116779050141933,"Provident Merchant Banking Limited प्रोभिडेन्ट मर्चेन्ट बैंकिङ्ग लिमिटेड, Sankhamul Marg 31, Shankhamul, Kathmandu 44617, Nepal",27.6879494,85.3355248,Provident Merchant Banking Limited प्रोभिडेन्ट मर्चेन्ट बैंकिङ्ग लिमिटेड,31,Sankhamul Marg,44617,Kathmandu-10,Shankhamul,Kathmandu,Kathmandu,Bagmati Province,Nepal,np,© OpenStreetMap contributors,Open Database License,https://www.openstreetmap.org/copyright
81418991,1161,2019-12-29 15:10:39,27.700331666666667,85.33909166666666,14.79,16.20776685998965,"Global College, Devkota Sadak, Baneshwar, Kathmandu 44703, Nepal",27.7001962,85.3390309,Global College,,Devkota Sadak,44703,Kathmandu-10,Baneshwar,Kathmandu,Kathmandu,Bagmati Province,Nepal,np,© OpenStreetMap contributors,Open Database License,https://www.openstreetmap.org/copyright
81419492,1161,2019-12-29 15:11:09,27.699105,85.33839,13.77,11.138384783899719,"Ambience International School, Basuki Marg, Naya Baneshwar, Kathmandu 44703, Nepal",27.699011,85.33866372173983,Ambience International School,,Basuki Marg,44703,Kathmandu-31,Naya Baneshwar,Kathmandu,Kathmandu,Bagmati Province,Nepal,np,© OpenStreetMap contributors,Open Database License,https://www.openstreetmap.org/copyright
81419980,1161,2019-12-29 15:11:39,27.697358333333334,85.33791,13.36,10.283992294084157,"Hearten Cafe, Kathmandu, Kathmandu 44703, Nepal",27.697266,85.337916,Hearten Cafe,,,44703,,,Kathmandu,Kathmandu,Three,Nepal,np,© OpenStreetMap contributors,Open Database License,https://www.openstreetmap.org/copyright
81420481,1161,2019-12-29 15:12:09,27.696943333333333,85.33777666666667,0.02,11.728272331439483,"Grand Bank Nepal Limited, Puja Pratisthan Marga, Baneshwar, Kathmandu 00446, Nepal",27.6969544,85.3376582,Grand Bank Nepal Limited,,Puja Pratisthan Marga,00446,Kathmandu-10,Baneshwar,Kathmandu,Kathmandu,Bagmati Province,Nepal,np,© OpenStreetMap contributors,Open Database License,https://www.openstreetmap.org/copyright
81420983,1161,2019-12-29 15:12:38,27.69699333333333,85.33773333333333,0.02,6.504125395152447,"Time Out Bakery, Sweets and Cafe, Kathmandu, Kathmandu 44703, Nepal",27.697002,85.337668,"Time Out Bakery, Sweets and Cafe",,,44703,,,Kathmandu,Kathmandu,Three,Nepal,np,© OpenStreetMap contributors,Open Database License,https://www.openstreetmap.org/copyright
81421476,1161,2019-12-29 15:13:08,27.696976666666668,85.33771666666667,0.03,5.558147699685934,"Time Out Bakery, Sweets and Cafe, Kathmandu, Kathmandu 44703, Nepal",27.697002,85.337668,"Time Out Bakery, Sweets and Cafe",,,44703,,,Kathmandu,Kathmandu,Three,Nepal,np,© OpenStreetMap contributors,Open Database License,https://www.openstreetmap.org/copyright
81421964,1161,2019-12-29 15:13:38,27.696965,85.33771166666666,0.07,5.394359883250789,"Grand Bank Nepal Limited, Puja Pratisthan Marga, Baneshwar, Kathmandu 00446, Nepal",27.6969544,85.3376582,Grand Bank Nepal Limited,,Puja Pratisthan Marga,00446,Kathmandu-10,Baneshwar,Kathmandu,Kathmandu,Bagmati Province,Nepal,np,© OpenStreetMap contributors,Open Database License,https://www.openstreetmap.org/copyright
81422456,1161,2019-12-29 15:14:08,27.69697,85.33771333333334,0.03,5.698536615392528,"Grand Bank Nepal Limited, Puja Pratisthan Marga, Baneshwar, Kathmandu 00446, Nepal",27.6969544,85.3376582,Grand Bank Nepal Limited,,Puja Pratisthan Marga,00446,Kathmandu-10,Baneshwar,Kathmandu,Kathmandu,Bagmati Province,Nepal,np,© OpenStreetMap contributors,Open Database License,https://www.openstreetmap.org/copyright
81422951,1161,2019-12-29 15:14:37,27.696995,85.33769666666667,0.13,2.9277160155884743,"Time Out Bakery, Sweets and Cafe, Kathmandu, Kathmandu 44703, Nepal",27.697002,85.337668,"Time Out Bakery, Sweets and Cafe",,,44703,,,Kathmandu,Kathmandu,Three,Nepal,np,© OpenStreetMap contributors,Open Database License,https://www.openstreetmap.org/copyright
81423435,1161,2019-12-29 15:15:07,27.69701166666667,85.33765333333334,0.12,1.7978658112365822,"Time Out Bakery, Sweets and Cafe, Puja Pratisthan Marga, Baneshwar, Kathmandu 00446, Nepal",27.6970018,85.3376678,"Time Out Bakery, Sweets and Cafe",,Puja Pratisthan Marga,00446,Kathmandu-10,Baneshwar,Kathmandu,Kathmandu,Bagmati Province,Nepal,np,© OpenStreetMap contributors,Open Database License,https://www.openstreetmap.org/copyright
81423931,1161,2019-12-29 15:15:37,27.696998333333333,85.33764333333333,0.27,2.4394922024351575,"Time Out Bakery, Sweets and Cafe, Puja Pratisthan Marga, Baneshwar, Kathmandu 00446, Nepal",27.6970018,85.3376678,"Time Out Bakery, Sweets and Cafe",,Puja Pratisthan Marga,00446,Kathmandu-10,Baneshwar,Kathmandu,Kathmandu,Bagmati Province,Nepal,np,© OpenStreetMap contributors,Open Database License,https://www.openstreetmap.org/copyright
81424430,1161,2019-12-29 15:16:07,27.69696666666667,85.337655,0.14,1.399905513167878,"Grand Bank Nepal Limited, Puja Pratisthan Marga, Baneshwar, Kathmandu 00446, Nepal",27.6969544,85.3376582,Grand Bank Nepal Limited,,Puja Pratisthan Marga,00446,Kathmandu-10,Baneshwar,Kathmandu,Kathmandu,Bagmati Province,Nepal,np,© OpenStreetMap contributors,Open Database License,https://www.openstreetmap.org/copyright
81424946,1161,2019-12-29 15:16:39,27.696955,85.33771166666666,0.05,5.264438654946414,"Grand Bank Nepal Limited, Puja Pratisthan Marga, Baneshwar, Kathmandu 00446, Nepal",27.6969544,85.3376582,Grand Bank Nepal Limited,,Puja Pratisthan Marga,00446,Kathmandu-10,Baneshwar,Kathmandu,Kathmandu,Bagmati Province,Nepal,np,© OpenStreetMap contributors,Open Database License,https://www.openstreetmap.org/copyright
81425414,1161,2019-12-29 15:17:06,27.69695,85.337715,0.09,5.613558229032921,"Grand Bank Nepal Limited, Puja Pratisthan Marga, Baneshwar, Kathmandu 00446, Nepal",27.6969544,85.3376582,Grand Bank Nepal Limited,,Puja Pratisthan Marga,00446,Kathmandu-10,Baneshwar,Kathmandu,Kathmandu,Bagmati Province,Nepal,np,© OpenStreetMap contributors,Open Database License,https://www.openstreetmap.org/copyright
81425900,1161,2019-12-29 15:17:36,27.696946666666665,85.33771333333334,0.02,5.495796710267652,"Grand Bank Nepal Limited, Puja Pratisthan Marga, Baneshwar, Kathmandu 00446, Nepal",27.6969544,85.3376582,Grand Bank Nepal Limited,,Puja Pratisthan Marga,00446,Kathmandu-10,Baneshwar,Kathmandu,Kathmandu,Bagmati Province,Nepal,np,© OpenStreetMap contributors,Open Database License,https://www.openstreetmap.org/copyright
81426388,1161,2019-12-29 15:18:06,27.69691333333333,85.33772833333333,0.0,7.622808112403602,"My Shop Laundry, Kathmandu, Kathmandu 44703, Nepal",27.69691,85.337651,My Shop Laundry,,,44703,,,Kathmandu,Kathmandu,Three,Nepal,np,© OpenStreetMap contributors,Open Database License,https://www.openstreetmap.org/copyright
81426867,1161,2019-12-29 15:18:36,27.69689333333333,85.337745,0.12,9.438428583410582,"My Shop Laundry, Kathmandu, Kathmandu 44703, Nepal",27.69691,85.337651,My Shop Laundry,,,44703,,,Kathmandu,Kathmandu,Three,Nepal,np,© OpenStreetMap contributors,Open Database License,https://www.openstreetmap.org/copyright
81427383,1161,2019-12-29 15:19:05,27.696898333333333,85.337765,0.07,11.298502368519182,"My Shop Laundry, Kathmandu, Kathmandu 44703, Nepal",27.69691,85.337651,My Shop Laundry,,,44703,,,Kathmandu,Kathmandu,Three,Nepal,np,© OpenStreetMap contributors,Open Database License,https://www.openstreetmap.org/copyright
81427903,1161,2019-12-29 15:19:35,27.696921666666668,85.33773666666667,0.04,8.53342711842603,"My Shop Laundry, Kathmandu, Kathmandu 44703, Nepal",27.69691,85.337651,My Shop Laundry,,,44703,,,Kathmandu,Kathmandu,Three,Nepal,np,© OpenStreetMap contributors,Open Database License,https://www.openstreetmap.org/copyright
81428396,1161,2019-12-29 15:20:05,27.696953333333333,85.337735,0.01,7.5622099268168075,"Grand Bank Nepal Limited, Puja Pratisthan Marga, Baneshwar, Kathmandu 00446, Nepal",27.6969544,85.3376582,Grand Bank Nepal Limited,,Puja Pratisthan Marga,00446,Kathmandu-10,Baneshwar,Kathmandu,Kathmandu,Bagmati Province,Nepal,np,© OpenStreetMap contributors,Open Database License,https://www.openstreetmap.org/copyright
81428888,1161,2019-12-29 15:20:35,27.696956666666665,85.33772833333333,0.03,6.9095170032279425,"Grand Bank Nepal Limited, Puja Pratisthan Marga, Baneshwar, Kathmandu 00446, Nepal",27.6969544,85.3376582,Grand Bank Nepal Limited,,Puja Pratisthan Marga,00446,Kathmandu-10,Baneshwar,Kathmandu,Kathmandu,Bagmati Province,Nepal,np,© OpenStreetMap contributors,Open Database License,https://www.openstreetmap.org/copyright
81429386,1161,2019-12-29 15:21:05,27.696935,85.337755,0.1,9.771452255140678,"Grand Bank Nepal Limited, Puja Pratisthan Marga, Baneshwar, Kathmandu 00446, Nepal",27.6969544,85.3376582,Grand Bank Nepal Limited,,Puja Pratisthan Marga,00446,Kathmandu-10,Baneshwar,Kathmandu,Kathmandu,Bagmati Province,Nepal,np,© OpenStreetMap contributors,Open Database License,https://www.openstreetmap.org/copyright
81429878,1161,2019-12-29 15:21:34,27.696916666666667,85.337775,0.03,12.23080628050524,"My Shop Laundry, Kathmandu, Kathmandu 44703, Nepal",27.69691,85.337651,My Shop Laundry,,,44703,,,Kathmandu,Kathmandu,Three,Nepal,np,© OpenStreetMap contributors,Open Database License,https://www.openstreetmap.org/copyright
81430362,1161,2019-12-29 15:22:04,27.696936666666662,85.33775,0.06,9.250694687203474,"Grand Bank Nepal Limited, Puja Pratisthan Marga, Baneshwar, Kathmandu 00446, Nepal",27.6969544,85.3376582,Grand Bank Nepal Limited,,Puja Pratisthan Marga,00446,Kathmandu-10,Baneshwar,Kathmandu,Kathmandu,Bagmati Province,Nepal,np,© OpenStreetMap contributors,Open Database License,https://www.openstreetmap.org/copyright
81430874,1161,2019-12-29 15:22:34,27.69694833333333,85.33774666666666,0.03,8.735996047685799,"Grand Bank Nepal Limited, Puja Pratisthan Marga, Baneshwar, Kathmandu 00446, Nepal",27.6969544,85.3376582,Grand Bank Nepal Limited,,Puja Pratisthan Marga,00446,Kathmandu-10,Baneshwar,Kathmandu,Kathmandu,Bagmati Province,Nepal,np,© OpenStreetMap contributors,Open Database License,https://www.openstreetmap.org/copyright
81431386,1161,2019-12-29 15:23:04,27.69626166666667,85.33763333333333,10.39,1.2438780411277102,"Sunway International Business School, Devkota Sadak, Baneshwar, Kathmandu 44703, Nepal",27.6962397,85.3377140452759,Sunway International Business School,,Devkota Sadak,44703,Kathmandu-10,Baneshwar,Kathmandu,Kathmandu,Bagmati Province,Nepal,np,© OpenStreetMap contributors,Open Database License,https://www.openstreetmap.org/copyright
81431915,1161,2019-12-29 15:23:34,27.69475333333333,85.33732666666667,15.22,1.2795869504976431,"Dhungedhara, Devkota Sadak, Baneshwar, Kathmandu 44703, Nepal",27.6947997,85.33739752842871,Dhungedhara,,Devkota Sadak,44703,Kathmandu-10,Baneshwar,Kathmandu,Kathmandu,Bagmati Province,Nepal,np,© OpenStreetMap contributors,Open Database License,https://www.openstreetmap.org/copyright
81432433,1161,2019-12-29 15:24:03,27.69284833333333,85.33648666666667,14.71,24.391839834517473,"Yes Informatics, Devkota Sadak 10, Baneshwar, Kathmandu 44600, Nepal",27.69273655,85.33620229628806,Yes Informatics,10,Devkota Sadak,44600,Kathmandu-10,Baneshwar,Kathmandu,Kathmandu,Bagmati Province,Nepal,np,© OpenStreetMap contributors,Open Database License,https://www.openstreetmap.org/copyright
81432922,1161,2019-12-29 15:24:33,27.690871666666663,85.33612,15.12,14.531899929815756,"Budathoki Driving Training Center, Devkota Sadak, Buddha Nagar, Kathmandu 00446, Nepal",27.6909161,85.3359812,Budathoki Driving Training Center,,Devkota Sadak,00446,Kathmandu-10,Buddha Nagar,Kathmandu,Kathmandu,Bagmati Province,Nepal,np,© OpenStreetMap contributors,Open Database License,https://www.openstreetmap.org/copyright
81433438,1161,2019-12-29 15:25:03,27.68877833333333,85.33573833333334,13.77,21.726007271901295,"Bhawani Durga Pharmacy, Naya Baneshwar Sadak, Buddha Nagar, Kathmandu 44617, Nepal",27.6888072,85.3355201,Bhawani Durga Pharmacy,,Naya Baneshwar Sadak,44617,Kathmandu-10,Buddha Nagar,Kathmandu,Kathmandu,Bagmati Province,Nepal,np,© OpenStreetMap contributors,Open Database License,https://www.openstreetmap.org/copyright
81433944,1161,2019-12-29 15:25:33,27.68843833333333,85.33474333333334,15.93,4.492372036398222,"Naya Baneshwar Bus Station, Kathmandu, Kathmandu 44617, Nepal",27.68847,85.334715,Naya Baneshwar Bus Station,,,44617,,,Kathmandu,Kathmandu,Three,Nepal,np,© OpenStreetMap contributors,Open Database License,https://www.openstreetmap.org/copyright
81434438,1161,2019-12-29 15:26:03,27.68914333333333,85.33163333333333,23.98,2.0690568581990467,"Madan Bhandari Path, Buddha Nagar, Kathmandu 44617, Nepal",27.6895205,85.3302754,Madan Bhandari Path,,Madan Bhandari Path,44617,Kathmandu-10,Buddha Nagar,Kathmandu,Kathmandu,Bagmati Province,Nepal,np,© OpenStreetMap contributors,Open Database License,https://www.openstreetmap.org/copyright
81434933,1161,2019-12-29 15:26:32,27.690326666666667,85.32846166666667,20.82,13.247912146314924,"Bijulibazar bridge, Kathmandu, Kathmandu 44617, Nepal",27.690389,85.328347,,,Bijulibazar bridge,44617,,,Kathmandu,Kathmandu,Three,Nepal,np,© OpenStreetMap contributors,Open Database License,https://www.openstreetmap.org/copyright
81435434,1161,2019-12-29 15:27:02,27.69179833333333,85.325375,22.31,38.85608521037495,"Kathmandu district court, Madan Bhandari Path, Kathmandu, Kathmandu 44617, Nepal",27.692107,85.32556,Kathmandu district court,,Madan Bhandari Path,44617,,,Kathmandu,Kathmandu,Three,Nepal,np,© OpenStreetMap contributors,Open Database License,https://www.openstreetmap.org/copyright
81435941,1161,2019-12-29 15:27:32,27.693166666666663,85.32249333333333,21.9,15.187914405635002,"उक्टी मार्गा, Kathmandu, Kathmandu 44617, Nepal",27.693049,85.322415,,,उक्टी मार्गा,44617,,,Kathmandu,Kathmandu,Three,Nepal,np,© OpenStreetMap contributors,Open Database License,https://www.openstreetmap.org/copyright
81436458,1161,2019-12-29 15:28:02,27.694301666666668,85.319635,15.8,3.3662100303381504,"J.R Education Group Pvt.Ltd, Thapathali Road, Thapathali, Kathmandu 44617, Nepal",27.6942714,85.3196357,J.R Education Group Pvt.Ltd,,Thapathali Road,44617,Kathmandu-11,Thapathali,Kathmandu,Kathmandu,Bagmati Province,Nepal,np,© OpenStreetMap contributors,Open Database License,https://www.openstreetmap.org/copyright
82309755,1161,2019-12-30 05:40:39,27.70798,85.33925,17.57,11.74529480073299,"Trip Land Travel and Tours, Kathmandu, Kathmandu 44660, Nepal",27.708082,85.339281,Trip Land Travel and Tours,,,44660,,,Kathmandu,Kathmandu,Three,Nepal,np,© OpenStreetMap contributors,Open Database License,https://www.openstreetmap.org/copyright
82310281,1161,2019-12-30 05:41:09,27.708046666666668,85.33739666666666,7.77,2.595395515392381,"Ratopul Stop, Kathmandu, Kathmandu 44660, Nepal",27.708052,85.337371,Ratopul Stop,,,44660,,,Kathmandu,Kathmandu,Three,Nepal,np,© OpenStreetMap contributors,Open Database License,https://www.openstreetmap.org/copyright
82310795,1161,2019-12-30 05:41:39,27.708261666666665,85.3367,13.11,24.874419666148672,"Pashupati Sadak, Kathmandu, Kathmandu 44660, Nepal",27.708085,85.336545,,,Pashupati Sadak,44660,,,Kathmandu,Kathmandu,Three,Nepal,np,© OpenStreetMap contributors,Open Database License,https://www.openstreetmap.org/copyright
82311320,1161,2019-12-30 05:42:09,27.71051333333333,85.33718166666667,19.4,1.870622728962379,"Rudra Mati Marg, Maitidevi, Kathmandu 00975, Nepal",27.7096953,85.3370232,Rudra Mati Marg,,Rudra Mati Marg,00975,Kathmandu-30,Maitidevi,Kathmandu,Kathmandu,Bagmati Province,Nepal,np,© OpenStreetMap contributors,Open Database License,https://www.openstreetmap.org/copyright
84051835,1161,2019-12-31 09:36:39,27.707941666666667,85.33990666666666,16.94,14.754325677078933,"Purbeli Hotel, Pashupati Sadak, Chabahil, Kathmandu 44660, Nepal",27.708073,85.3398853,Purbeli Hotel,,Pashupati Sadak,44660,Kathmandu-07,Chabahil,Kathmandu,Kathmandu,Bagmati Province,Nepal,np,© OpenStreetMap contributors,Open Database License,https://www.openstreetmap.org/copyright
84052377,1161,2019-12-31 09:37:09,27.70800833333333,85.33754166666667,9.5,17.488690915379735,"Ratopul Stop, Kathmandu, Kathmandu 44660, Nepal",27.708052,85.337371,Ratopul Stop,,,44660,,,Kathmandu,Kathmandu,Three,Nepal,np,© OpenStreetMap contributors,Open Database License,https://www.openstreetmap.org/copyright
84052953,1161,2019-12-31 09:37:39,27.708055,85.33686333333333,1.15,3.4495456604414603,"Ratopul, Kathmandu, Kathmandu 44660, Nepal",27.708086,85.336862,Ratopul,,,44660,,,Kathmandu,Kathmandu,Three,Nepal,np,© OpenStreetMap contributors,Open Database License,https://www.openstreetmap.org/copyright
84053472,1161,2019-12-31 09:38:09,27.70806333333333,85.33663833333334,2.77,9.49873155519754,"Pashupati Sadak, Kathmandu, Kathmandu 44605, Nepal",27.708085,85.336545,,,Pashupati Sadak,44605,,,Kathmandu,Kathmandu,Three,Nepal,np,© OpenStreetMap contributors,Open Database License,https://www.openstreetmap.org/copyright
84054000,1161,2019-12-31 09:38:38,27.70815333333333,85.33490166666667,15.67,7.137653466328395,"Nepali Khana, Kathmandu, Kathmandu 44605, Nepal",27.708094,85.334874,Nepali Khana,,,44605,,,Kathmandu,Kathmandu,Three,Nepal,np,© OpenStreetMap contributors,Open Database License,https://www.openstreetmap.org/copyright
84054633,1161,2019-12-31 09:39:15,27.70833,85.33289833333333,14.0,14.90103029442491,"Shrestha Motorcycle House, Pashupati Sadak, Maitidevi, Kathmandu 44605, Nepal",27.7081758,85.33300173384461,Shrestha Motorcycle House,,Pashupati Sadak,44605,Kathmandu-30,Maitidevi,Kathmandu,Kathmandu,Bagmati Province,Nepal,np,© OpenStreetMap contributors,Open Database License,https://www.openstreetmap.org/copyright
84055053,1161,2019-12-31 09:39:38,27.709425,85.33243166666666,18.03,20.39739656473006,"International Centre for Academics, Gyaneshwar Marg, Maitidevi, Kathmandu 00975, Nepal",27.7092423,85.3324131,International Centre for Academics,,Gyaneshwar Marg,00975,Kathmandu-30,Maitidevi,Kathmandu,Kathmandu,Bagmati Province,Nepal,np,© OpenStreetMap contributors,Open Database License,https://www.openstreetmap.org/copyright
84055574,1161,2019-12-31 09:40:08,27.710555,85.33321333333333,13.0,26.079292823032233,"Prakash New Generation Motorcycle Workshop, Gyaneshwar Marg, Maitidevi, Kathmandu 00975, Nepal",27.7107895,85.333218,Prakash New Generation Motorcycle Workshop,,Gyaneshwar Marg,00975,Kathmandu-30,Maitidevi,Kathmandu,Kathmandu,Bagmati Province,Nepal,np,© OpenStreetMap contributors,Open Database License,https://www.openstreetmap.org/copyright
84328493,1161,2019-12-31 13:57:02,27.70797,85.33975333333333,20.67,8.100037220800795,"Cosmos Diagonosis and Research Centre, Pashupati Sadak, Chabahil, Kathmandu 44660, Nepal",27.70814865,85.33979338472814,Cosmos Diagonosis and Research Centre,,Pashupati Sadak,44660,Kathmandu-07,Chabahil,Kathmandu,Kathmandu,Bagmati Province,Nepal,np,© OpenStreetMap contributors,Open Database License,https://www.openstreetmap.org/copyright
84329013,1161,2019-12-31 13:57:32,27.70803833333333,85.33735666666666,10.21,0.5998104363323715,"Maitidevi, Kathmandu 00446, Nepal",27.7056104,85.3364598,,,,00446,Kathmandu-30,Maitidevi,Kathmandu,Kathmandu,Bagmati Province,Nepal,np,© OpenStreetMap contributors,Open Database License,https://www.openstreetmap.org/copyright
84329523,1161,2019-12-31 13:58:02,27.70817,85.33535,15.92,7.816425578434464,"Welcare Hospital and Research Centre, Pashupati Sadak, Maitidevi, Kathmandu 44605, Nepal",27.70797695,85.33527921821374,Welcare Hospital and Research Centre,,Pashupati Sadak,44605,Kathmandu-30,Maitidevi,Kathmandu,Kathmandu,Bagmati Province,Nepal,np,© OpenStreetMap contributors,Open Database License,https://www.openstreetmap.org/copyright
84330029,1161,2019-12-31 13:58:31,27.708246666666668,85.33326333333333,11.21,14.657984595799784,"Subidha Travel, Pashupati Marga, Kathmandu, Kathmandu 44605, Nepal",27.708218,85.333118,Subidha Travel,,Pashupati Marga,44605,,,Kathmandu,Kathmandu,Three,Nepal,np,© OpenStreetMap contributors,Open Database License,https://www.openstreetmap.org/copyright
84330542,1161,2019-12-31 13:59:01,27.708863333333333,85.33112,13.71,10.042680571122718,"Nishant Flower Shop, Kathmandu, Kathmandu 44605, Nepal",27.708776,85.331094,Nishant Flower Shop,,,44605,,,Kathmandu,Kathmandu,Three,Nepal,np,© OpenStreetMap contributors,Open Database License,https://www.openstreetmap.org/copyright
84331042,1161,2019-12-31 13:59:31,27.710211666666662,85.33114,16.6,0.21998426025708684,"Devi marg, Maitidevi, Kathmandu 44605, Nepal",27.7103169,85.3311772,Devi marg,,Devi marg,44605,Kathmandu-30,Maitidevi,Kathmandu,Kathmandu,Bagmati Province,Nepal,np,© OpenStreetMap contributors,Open Database License,https://www.openstreetmap.org/copyright
84331585,1161,2019-12-31 14:00:01,27.710695,85.33093666666667,0.09,0.018543510608942073,"Ananda Bhairav Marg, Dillibazar, Kathmandu 44605, Nepal",27.7108327,85.3298008,Ananda Bhairav Marg,,Ananda Bhairav Marg,44605,Kathmandu-30,Dillibazar,Kathmandu,Kathmandu,Bagmati Province,Nepal,np,© OpenStreetMap contributors,Open Database License,https://www.openstreetmap.org/copyright
84332130,1161,2019-12-31 14:00:31,27.71069333333333,85.330985,11.57,0.5469835413697242,"Ananda Bhairav Marg, Dillibazar, Kathmandu 44605, Nepal",27.7108327,85.3298008,Ananda Bhairav Marg,,Ananda Bhairav Marg,44605,Kathmandu-30,Dillibazar,Kathmandu,Kathmandu,Bagmati Province,Nepal,np,© OpenStreetMap contributors,Open Database License,https://www.openstreetmap.org/copyright