original_id,original_deviceid,original_servertime,original_latitude,original_longitude,original_speed,distance,formatted,lat,lon,name,housenumber,street,postcode,district,suburb,city,county,state,country,country_code,attribution,attribution_license,attribution_url
41268947,250,2019-12-02 09:31:32,27.709246666666665,85.33221666666667,18.23,19.334621557520514,"International Centre for Academics, Kathmandu, Kathmandu 00975, Nepal",27.709242,85.332413,International Centre for Academics,,,00975,,,Kathmandu,Kathmandu,Three,Nepal,np,© OpenStreetMap contributors,Open Database License,https://www.openstreetmap.org/copyright
41269473,250,2019-12-02 09:32:01,27.708415,85.333025,12.0,21.097136720623848,"Shrestha Motorcycle House, Pashupati Sadak, Maitidevi, Kathmandu 44605, Nepal",27.7081758,85.33300173384461,Shrestha Motorcycle House,,Pashupati Sadak,44605,Kathmandu-30,Maitidevi,Kathmandu,Kathmandu,Bagmati Province,Nepal,np,© OpenStreetMap contributors,Open Database License,https://www.openstreetmap.org/copyright
41270022,250,2019-12-02 09:32:31,27.707511666666665,85.33337666666667,4.19,24.631869972604104,"AM/PM Cafe and Bar, Maiti Devi marg, Maitidevi, Kathmandu 44605, Nepal",27.7073033,85.3334616,AM/PM Cafe and Bar,,Maiti Devi marg,44605,Kathmandu-30,Maitidevi,Kathmandu,Kathmandu,Bagmati Province,Nepal,np,© OpenStreetMap contributors,Open Database License,https://www.openstreetmap.org/copyright
41270530,250,2019-12-02 09:33:01,27.70690833333333,85.33346333333333,11.59,17.33416926825102,"Himalayan Bank, Kathmandu, Kathmandu 44605, Nepal",27.707055,85.333523,Himalayan Bank,,,44605,,,Kathmandu,Kathmandu,Three,Nepal,np,© OpenStreetMap contributors,Open Database License,https://www.openstreetmap.org/copyright
41271058,250,2019-12-02 09:33:31,27.70607333333333,85.33380666666666,0.26,5.598465615544871,"Maitidevi Mandir, Kathmandu, Kathmandu 00446, Nepal",27.706095,85.333858,Maitidevi Mandir,,,00446,,,Kathmandu,Kathmandu,Three,Nepal,np,© OpenStreetMap contributors,Open Database License,https://www.openstreetmap.org/copyright
41271594,250,2019-12-02 09:34:01,27.705386666666666,85.33352333333333,13.69,4.167410242757396,"Lord Buddha School, Pancha Kumari Marg, Maitidevi, Kathmandu 00446, Nepal",27.7055504,85.33348949089202,Lord Buddha School,,Pancha Kumari Marg,00446,Kathmandu-30,Maitidevi,Kathmandu,Kathmandu,Bagmati Province,Nepal,np,© OpenStreetMap contributors,Open Database License,https://www.openstreetmap.org/copyright
41272151,250,2019-12-02 09:34:30,27.704543333333334,85.33302666666667,0.13,14.84189618673043,"Western Union Money Transfer, Maiti Devi marg, Maitidevi, Kathmandu 00446, Nepal",27.7046376,85.3331334,Western Union Money Transfer,,Maiti Devi marg,00446,Kathmandu-30,Maitidevi,Kathmandu,Kathmandu,Bagmati Province,Nepal,np,© OpenStreetMap contributors,Open Database License,https://www.openstreetmap.org/copyright
41272734,250,2019-12-02 09:35:00,27.70408,85.33270166666667,3.1,11.134391643490606,"Nyugu Bhintuna Jewellers, Maiti Devi marg, Maitidevi, Kathmandu 00446, Nepal",27.7040123,85.332785,Nyugu Bhintuna Jewellers,,Maiti Devi marg,00446,Kathmandu-30,Maitidevi,Kathmandu,Kathmandu,Bagmati Province,Nepal,np,© OpenStreetMap contributors,Open Database License,https://www.openstreetmap.org/copyright
41273308,250,2019-12-02 09:35:30,27.704028333333333,85.33237333333334,7.34,7.19628494448202,"Dillibazar Sadak, Kathmandu, Kathmandu 44605, Nepal",27.704019,85.332301,,,Dillibazar Sadak,44605,,,Kathmandu,Kathmandu,Three,Nepal,np,© OpenStreetMap contributors,Open Database License,https://www.openstreetmap.org/copyright
41273833,250,2019-12-02 09:36:00,27.704408333333333,85.331145,0.17,5.259684588189747,"Versatile, Kathmandu, Kathmandu 44605, Nepal",27.704425,85.331195,Versatile,,,44605,,,Kathmandu,Kathmandu,Three,Nepal,np,© OpenStreetMap contributors,Open Database License,https://www.openstreetmap.org/copyright
41274355,250,2019-12-02 09:36:29,27.704445,85.33089166666667,1.18,18.831153230448137,"Bank of Asia, Kathmandu, Kathmandu 44605, Nepal",27.704567,85.330759,Bank of Asia,,,44605,,,Kathmandu,Kathmandu,Three,Nepal,np,© OpenStreetMap contributors,Open Database License,https://www.openstreetmap.org/copyright
41274892,250,2019-12-02 09:36:59,27.704941666666667,85.32956,4.69,17.002460086098893,"Ncell Shop, Dillibazar Sadak, Dillibazar, Kathmandu 44605, Nepal",27.7047921,85.3295959,Ncell Shop,,Dillibazar Sadak,44605,Kathmandu-30,Dillibazar,Kathmandu,Kathmandu,Bagmati Province,Nepal,np,© OpenStreetMap contributors,Open Database License,https://www.openstreetmap.org/copyright
41275448,250,2019-12-02 09:37:30,27.70499166666667,85.32927833333333,2.34,3.1469366067862925,"Kathmandu Metropolitan Ward 29, Gyaneshwar Marg, Dillibazar, Kathmandu 44605, Nepal",27.7050604,85.32927955286168,Kathmandu Metropolitan Ward 29,,Gyaneshwar Marg,44605,Kathmandu-30,Dillibazar,Kathmandu,Kathmandu,Bagmati Province,Nepal,np,© OpenStreetMap contributors,Open Database License,https://www.openstreetmap.org/copyright
41275944,250,2019-12-02 09:37:59,27.705326666666668,85.328015,3.38,3.6638157555428013,"Shree Ganesh, Dillibazar Sadak, Dillibazar, Kathmandu 44605, Nepal",27.7053331,85.3280515,Shree Ganesh,,Dillibazar Sadak,44605,Kathmandu-30,Dillibazar,Kathmandu,Kathmandu,Bagmati Province,Nepal,np,© OpenStreetMap contributors,Open Database License,https://www.openstreetmap.org/copyright
41276477,250,2019-12-02 09:38:29,27.705371666666668,85.32679666666667,10.46,2.3010484686767025,"Dillibazaar stop, Kathmandu, Kathmandu 44605, Nepal",27.705362,85.326776,Dillibazaar stop,,,44605,,,Kathmandu,Kathmandu,Three,Nepal,np,© OpenStreetMap contributors,Open Database License,https://www.openstreetmap.org/copyright
41276998,250,2019-12-02 09:38:59,27.705641666666665,85.32457,8.22,5.40007421859551,"Dillibazar, Kathmandu 44605, Nepal",27.705969,85.3247373,,,,44605,Kathmandu-30,Dillibazar,Kathmandu,Kathmandu,Bagmati Province,Nepal,np,© OpenStreetMap contributors,Open Database License,https://www.openstreetmap.org/copyright
41277527,250,2019-12-02 09:39:28,27.70560833333333,85.32341666666667,1.51,44.75142811196574,"Fine education Foundation Pvt. Ltd, Putali Sadak 3rd Floor, Dillibazar, Kathmandu 46600, Nepal",27.7058806,85.3230819,Fine education Foundation Pvt. Ltd,3rd Floor,Putali Sadak,46600,Kathmandu-30,Dillibazar,Kathmandu,Kathmandu,Bagmati Province,Nepal,np,© OpenStreetMap contributors,Open Database License,https://www.openstreetmap.org/copyright
41278057,250,2019-12-02 09:39:58,27.705645,85.323285,0.25,4.854151820097981,"Aims Global Educational Consultancy, Dillibazar Sadak, Ghattekulo, Kathmandu 44605, Nepal",27.7056699,85.3233255,Aims Global Educational Consultancy,,Dillibazar Sadak,44605,Kathmandu-29,Ghattekulo,Kathmandu,Kathmandu,Bagmati Province,Nepal,np,© OpenStreetMap contributors,Open Database License,https://www.openstreetmap.org/copyright
41278583,250,2019-12-02 09:40:28,27.70563,85.323265,0.12,7.426851605980274,"Aims Global Educational Consultancy, Dillibazar Sadak, Ghattekulo, Kathmandu 44605, Nepal",27.7056699,85.3233255,Aims Global Educational Consultancy,,Dillibazar Sadak,44605,Kathmandu-29,Ghattekulo,Kathmandu,Kathmandu,Bagmati Province,Nepal,np,© OpenStreetMap contributors,Open Database License,https://www.openstreetmap.org/copyright
41279092,250,2019-12-02 09:40:58,27.705648333333333,85.32300333333333,4.26,11.263132780399724,"Alta-Vista, A school of Spanish Language, Putalisadak Chowk 1306, Kathmandu, Kathmandu GPO 8975 EPC 5067, Nepal",27.705746,85.322973,"Alta-Vista, A school of Spanish Language",1306,Putalisadak Chowk,GPO 8975 EPC 5067,,,Kathmandu,Kathmandu,Three,Nepal,np,© OpenStreetMap contributors,Open Database License,https://www.openstreetmap.org/copyright
41279613,250,2019-12-02 09:41:27,27.70505333333333,85.32286333333333,2.06,2.9098152167591436,"Computer Shop, Putali Sadak, Bansh Ghari, Kathmandu 46600, Nepal",27.7050563,85.3228927,Computer Shop,,Putali Sadak,46600,Kathmandu-28,Bansh Ghari,Kathmandu,Kathmandu,Bagmati Province,Nepal,np,© OpenStreetMap contributors,Open Database License,https://www.openstreetmap.org/copyright
41280134,250,2019-12-02 09:41:57,27.703141666666667,85.32255666666667,11.51,4.214978955710419,"Ram Hair Cutting, New Plaza Marg, Bansh Ghari, Kathmandu 44605, Nepal",27.7031336,85.3225985,Ram Hair Cutting,,New Plaza Marg,44605,Kathmandu-29,Bansh Ghari,Kathmandu,Kathmandu,Bagmati Province,Nepal,np,© OpenStreetMap contributors,Open Database License,https://www.openstreetmap.org/copyright
41280661,250,2019-12-02 09:42:27,27.70267833333333,85.32252333333334,7.26,3.0746808688972327,"Logix Digital System Pvt.Ltd, Kathmandu, Kathmandu 44605, Nepal",27.702661,85.322499,Logix Digital System Pvt.Ltd,,,44605,,,Kathmandu,Kathmandu,Three,Nepal,np,© OpenStreetMap contributors,Open Database License,https://www.openstreetmap.org/copyright
41281180,250,2019-12-02 09:42:57,27.70205333333333,85.32231833333333,1.47,3.5170422296285047,"United Saving And Credit Cooperative Ltd, Kathmandu, Kathmandu 46600, Nepal",27.702058,85.322283,United Saving And Credit Cooperative Ltd,,,46600,,,Kathmandu,Kathmandu,Three,Nepal,np,© OpenStreetMap contributors,Open Database License,https://www.openstreetmap.org/copyright
41281694,250,2019-12-02 09:43:27,27.701946666666668,85.322285,0.16,1.5769378968345404,"Subh Ultrasound Clinic, Kathmandu, Kathmandu 46600, Nepal",27.701946,85.322269,Subh Ultrasound Clinic,,,46600,,,Kathmandu,Kathmandu,Three,Nepal,np,© OpenStreetMap contributors,Open Database License,https://www.openstreetmap.org/copyright
41282214,250,2019-12-02 09:43:56,27.701946666666668,85.32224166666667,0.09,2.6418989302270646,"Subh Ultrasound Clinic, Putali Sadak, Baghbazar, Kathmandu 44605, Nepal",27.7019464,85.3222685,Subh Ultrasound Clinic,,Putali Sadak,44605,Kathmandu-28,Baghbazar,Kathmandu,Kathmandu,Bagmati Province,Nepal,np,© OpenStreetMap contributors,Open Database License,https://www.openstreetmap.org/copyright
41282730,250,2019-12-02 09:44:26,27.70111333333333,85.32216333333334,13.94,9.606109873205796,"BMC electric Bike, Kathmandu, Kathmandu 44605, Nepal",27.701175,85.322095,BMC electric Bike,,,44605,,,Kathmandu,Kathmandu,Three,Nepal,np,© OpenStreetMap contributors,Open Database License,https://www.openstreetmap.org/copyright
41283242,250,2019-12-02 09:44:56,27.700176666666668,85.32202,0.14,12.543772894584327,"PE Foundation, Kathmandu, Kathmandu 44605, Nepal",27.700212,85.321899,PE Foundation,,,44605,,,Kathmandu,Kathmandu,Three,Nepal,np,© OpenStreetMap contributors,Open Database License,https://www.openstreetmap.org/copyright
41283764,250,2019-12-02 09:45:26,27.700185,85.32204666666667,0.08,14.844731723447332,"PE Foundation, Kathmandu, Kathmandu 44605, Nepal",27.700212,85.321899,PE Foundation,,,44605,,,Kathmandu,Kathmandu,Three,Nepal,np,© OpenStreetMap contributors,Open Database License,https://www.openstreetmap.org/copyright
41284263,250,2019-12-02 09:45:55,27.700171666666662,85.32206,0.36,1.0151693266380883,"Singh Durbar, Saras Marg, Ghattekulo, Kathmandu 00446, Nepal",27.696478149999997,85.32461913495442,Singh Durbar,,Saras Marg,00446,Kathmandu-29,Ghattekulo,Kathmandu,Kathmandu,Bagmati Province,Nepal,np,© OpenStreetMap contributors,Open Database License,https://www.openstreetmap.org/copyright
41284788,250,2019-12-02 09:46:25,27.700178333333334,85.322055,0.05,1.643239732878348,"Singh Durbar, Saras Marg, Ghattekulo, Kathmandu 00446, Nepal",27.696478149999997,85.32461913495442,Singh Durbar,,Saras Marg,00446,Kathmandu-29,Ghattekulo,Kathmandu,Kathmandu,Bagmati Province,Nepal,np,© OpenStreetMap contributors,Open Database License,https://www.openstreetmap.org/copyright
41285300,250,2019-12-02 09:46:55,27.699676666666665,85.321925,4.89,17.14701188852143,"Quality Books And Stationery, Kathmandu, Kathmandu 44605, Nepal",27.69963,85.321759,Quality Books And Stationery,,,44605,,,Kathmandu,Kathmandu,Three,Nepal,np,© OpenStreetMap contributors,Open Database License,https://www.openstreetmap.org/copyright
41285829,250,2019-12-02 09:47:26,27.69926,85.32183666666667,6.14,30.166067288764765,"Supreme court nirmadh sthal, Ram Shah Path, Baghbazar, Kathmandu 44605, Nepal",27.699494,85.3219917,Supreme court nirmadh sthal,,Ram Shah Path,44605,Kathmandu-29,Baghbazar,Kathmandu,Kathmandu,Bagmati Province,Nepal,np,© OpenStreetMap contributors,Open Database License,https://www.openstreetmap.org/copyright
41286328,250,2019-12-02 09:47:55,27.698541666666667,85.32168,0.71,0.7191350554926366,"Ram Shah Path, Baghbazar, Kathmandu 44605, Nepal",27.7003789,85.3220743,Ram Shah Path,,Ram Shah Path,44605,Kathmandu-28,Baghbazar,Kathmandu,Kathmandu,Bagmati Province,Nepal,np,© OpenStreetMap contributors,Open Database License,https://www.openstreetmap.org/copyright
41286857,250,2019-12-02 09:48:25,27.697855,85.32152333333333,6.67,2.2947187921879135,"Singh Durbar, Saras Marg, Ghattekulo, Kathmandu 00446, Nepal",27.696478149999997,85.32461913495442,Singh Durbar,,Saras Marg,00446,Kathmandu-29,Ghattekulo,Kathmandu,Kathmandu,Bagmati Province,Nepal,np,© OpenStreetMap contributors,Open Database License,https://www.openstreetmap.org/copyright
41287382,250,2019-12-02 09:48:54,27.69721833333333,85.32138166666667,6.77,2.084519118783927,"Singh Durbar, Saras Marg, Ghattekulo, Kathmandu 00446, Nepal",27.696478149999997,85.32461913495442,Singh Durbar,,Saras Marg,00446,Kathmandu-29,Ghattekulo,Kathmandu,Kathmandu,Bagmati Province,Nepal,np,© OpenStreetMap contributors,Open Database License,https://www.openstreetmap.org/copyright
41287910,250,2019-12-02 09:49:24,27.696638333333333,85.32126833333334,8.81,0,"Supreme Court, Ram Shah Path, Kathmandu, Kathmandu 00446, Nepal",27.69680365,85.32167994840998,Supreme Court,,Ram Shah Path,00446,Kathmandu-11,,Kathmandu,Kathmandu,Bagmati Province,Nepal,np,© OpenStreetMap contributors,Open Database License,https://www.openstreetmap.org/copyright
41288427,250,2019-12-02 09:49:54,27.696221666666663,85.32113833333334,0.09,1.88855261669737,"Ram Shah Path, Bansh Ghari, Kathmandu 00446, Nepal",27.695921,85.321048,Ram Shah Path,,Ram Shah Path,00446,Kathmandu-29,Bansh Ghari,Kathmandu,Kathmandu,Bagmati Province,Nepal,np,© OpenStreetMap contributors,Open Database License,https://www.openstreetmap.org/copyright
41288957,250,2019-12-02 09:50:24,27.695721666666667,85.32103,4.78,2.3009984973751494,"Ram Shah Path, Bansh Ghari, Kathmandu 00446, Nepal",27.695921,85.321048,Ram Shah Path,,Ram Shah Path,00446,Kathmandu-29,Bansh Ghari,Kathmandu,Kathmandu,Bagmati Province,Nepal,np,© OpenStreetMap contributors,Open Database License,https://www.openstreetmap.org/copyright
41289467,250,2019-12-02 09:50:53,27.69486833333333,85.32086333333334,3.93,4.560403790975843,"Thapathali, Kathmandu 44617, Nepal",27.6949897,85.3208456,,,,44617,Kathmandu-11,Thapathali,Kathmandu,Kathmandu,Bagmati Province,Nepal,np,© OpenStreetMap contributors,Open Database License,https://www.openstreetmap.org/copyright
41289997,250,2019-12-02 09:51:23,27.694196666666667,85.3209,0.57,8.06352025713078,"PI Academy, Kathmandu, Kathmandu 44617, Nepal",27.694266,85.320876,PI Academy,,,44617,,,Kathmandu,Kathmandu,Three,Nepal,np,© OpenStreetMap contributors,Open Database License,https://www.openstreetmap.org/copyright
41290524,250,2019-12-02 09:51:53,27.693953333333333,85.32126833333334,0.21,7.144935021779046,"Maitighar Bus Stop, Madan Bhandari Path, Kathmandu, Kathmandu 44617, Nepal",27.6938924,85.3212453,Maitighar Bus Stop,,Madan Bhandari Path,44617,Kathmandu-11,,Kathmandu,Kathmandu,Bagmati Province,Nepal,np,© OpenStreetMap contributors,Open Database License,https://www.openstreetmap.org/copyright
41291070,250,2019-12-02 09:52:23,27.693986666666667,85.32133833333333,0.03,10.345519919463838,"Gaurav Marg, Thapathali, Kathmandu 44617, Nepal",27.69406,85.321403,,,Gaurav Marg,44617,,Thapathali,Kathmandu,Kathmandu,Three,Nepal,np,© OpenStreetMap contributors,Open Database License,https://www.openstreetmap.org/copyright
41291652,250,2019-12-02 09:52:58,27.693945,85.321355,0.77,11.13491694886978,"Kathmandu, Kathmandu 44617, Nepal",27.6922553,85.324616,,,,44617,Kathmandu-11,,Kathmandu,Kathmandu,Bagmati Province,Nepal,np,© OpenStreetMap contributors,Open Database License,https://www.openstreetmap.org/copyright
41292091,250,2019-12-02 09:53:22,27.693115,85.32272,19.11,4.349376017577089,"Kathmandu, Kathmandu 44617, Nepal",27.6922553,85.324616,,,,44617,Kathmandu-11,,Kathmandu,Kathmandu,Bagmati Province,Nepal,np,© OpenStreetMap contributors,Open Database License,https://www.openstreetmap.org/copyright
41292630,250,2019-12-02 09:53:53,27.691963333333334,85.32529666666667,12.73,2.5186542837241443,"Kathmandu, Kathmandu 44617, Nepal",27.6922553,85.324616,,,,44617,Kathmandu-11,,Kathmandu,Kathmandu,Bagmati Province,Nepal,np,© OpenStreetMap contributors,Open Database License,https://www.openstreetmap.org/copyright
41293122,250,2019-12-02 09:54:22,27.69154333333333,85.32625333333333,9.65,4.844194002479138,"Kathmandu, Kathmandu 44617, Nepal",27.6922553,85.324616,,,,44617,Kathmandu-11,,Kathmandu,Kathmandu,Bagmati Province,Nepal,np,© OpenStreetMap contributors,Open Database License,https://www.openstreetmap.org/copyright
41293675,250,2019-12-02 09:54:52,27.690656666666666,85.32805333333333,3.87,4.025081780513084,"Kathmandu, Kathmandu 44617, Nepal",27.690663,85.327993,,,,44617,Kathmandu-11,,Kathmandu,Kathmandu,Bagmati Province,Nepal,np,© OpenStreetMap contributors,Open Database License,https://www.openstreetmap.org/copyright
41294182,250,2019-12-02 09:55:21,27.690216666666668,85.32895166666667,2.93,7.156134449303372,"Dhobikhola Marga, Kathmandu, Kathmandu 44617, Nepal",27.690229,85.329023,,,Dhobikhola Marga,44617,,,Kathmandu,Kathmandu,Three,Nepal,np,© OpenStreetMap contributors,Open Database License,https://www.openstreetmap.org/copyright
41294715,250,2019-12-02 09:55:52,27.68974833333333,85.33006333333333,17.54,5.059109971506437,"Buddha Nagar, Kathmandu 44617, Nepal",27.6891539,85.3320663,,,,44617,Kathmandu-10,Buddha Nagar,Kathmandu,Kathmandu,Bagmati Province,Nepal,np,© OpenStreetMap contributors,Open Database License,https://www.openstreetmap.org/copyright
41295207,250,2019-12-02 09:56:21,27.689005,85.33283166666666,16.58,1.9694031365426559,"Buddha Nagar, Kathmandu 44617, Nepal",27.6891539,85.3320663,,,,44617,Kathmandu-10,Buddha Nagar,Kathmandu,Kathmandu,Bagmati Province,Nepal,np,© OpenStreetMap contributors,Open Database License,https://www.openstreetmap.org/copyright
41295799,250,2019-12-02 09:56:56,27.688776666666666,85.33382166666667,14.66,1.5865607103113024,"Buddha Nagar, Kathmandu 44617, Nepal",27.6891539,85.3320663,,,,44617,Kathmandu-10,Buddha Nagar,Kathmandu,Kathmandu,Bagmati Province,Nepal,np,© OpenStreetMap contributors,Open Database License,https://www.openstreetmap.org/copyright
41296308,250,2019-12-02 09:57:23,27.68847833333333,85.33503666666667,0.17,1.4549580165524598,"Buddha Nagar, Kathmandu 44617, Nepal",27.6891539,85.3320663,,,,44617,Kathmandu-10,Buddha Nagar,Kathmandu,Kathmandu,Bagmati Province,Nepal,np,© OpenStreetMap contributors,Open Database License,https://www.openstreetmap.org/copyright
41296810,250,2019-12-02 09:57:50,27.688495,85.33507833333333,0.16,1.3304262372967535,"Buddha Nagar, Kathmandu 44617, Nepal",27.6891539,85.3320663,,,,44617,Kathmandu-10,Buddha Nagar,Kathmandu,Kathmandu,Bagmati Province,Nepal,np,© OpenStreetMap contributors,Open Database License,https://www.openstreetmap.org/copyright
41297352,250,2019-12-02 09:58:20,27.68852,85.33506166666666,0.15,3.634134417082699,"Buddha Nagar, Kathmandu 44617, Nepal",27.6891539,85.3320663,,,,44617,Kathmandu-10,Buddha Nagar,Kathmandu,Kathmandu,Bagmati Province,Nepal,np,© OpenStreetMap contributors,Open Database License,https://www.openstreetmap.org/copyright
41297876,250,2019-12-02 09:58:50,27.68855333333333,85.33506333333334,0.07,3.8561841691911813,"G4S, Madan Bhandari Path, Buddha Nagar, Kathmandu 44617, Nepal",27.68861815,85.33515885120235,G4S,,Madan Bhandari Path,44617,Kathmandu-10,Buddha Nagar,Kathmandu,Kathmandu,Bagmati Province,Nepal,np,© OpenStreetMap contributors,Open Database License,https://www.openstreetmap.org/copyright
41298405,250,2019-12-02 09:59:20,27.688546666666667,85.33554,5.79,12.666226637694828,"Fitwell Tailoring, Naya Baneshwar Sadak, Buddha Nagar, Kathmandu 44617, Nepal",27.6886037,85.33536667784551,Fitwell Tailoring,,Naya Baneshwar Sadak,44617,Kathmandu-10,Buddha Nagar,Kathmandu,Kathmandu,Bagmati Province,Nepal,np,© OpenStreetMap contributors,Open Database License,https://www.openstreetmap.org/copyright
41299042,250,2019-12-02 09:59:57,27.690355,85.33587166666666,6.12,1.1012262580412924,"Bhaktithapa Road, Buddha Nagar, Kathmandu 44617, Nepal",27.6903482,85.3358328,Bhaktithapa Road,,Bhaktithapa Road,44617,Kathmandu-10,Buddha Nagar,Kathmandu,Kathmandu,Bagmati Province,Nepal,np,© OpenStreetMap contributors,Open Database License,https://www.openstreetmap.org/copyright
41299469,250,2019-12-02 10:00:19,27.691196666666663,85.33604,7.34,5.69949901960594,"Naya Marg, Buddha Nagar, Kathmandu 44617, Nepal",27.6913529,85.3356859,Naya Marg,,Naya Marg,44617,Kathmandu-10,Buddha Nagar,Kathmandu,Kathmandu,Bagmati Province,Nepal,np,© OpenStreetMap contributors,Open Database License,https://www.openstreetmap.org/copyright
41299988,250,2019-12-02 10:00:49,27.692115,85.33621666666667,3.21,69.12778328344469,"Yes Informatics, Devkota Sadak 10, Baneshwar, Kathmandu 44600, Nepal",27.69273655,85.33620229628806,Yes Informatics,10,Devkota Sadak,44600,Kathmandu-10,Baneshwar,Kathmandu,Kathmandu,Bagmati Province,Nepal,np,© OpenStreetMap contributors,Open Database License,https://www.openstreetmap.org/copyright
41300510,250,2019-12-02 10:01:19,27.692265,85.33634,0.46,0,"Eyeplex Mall, Devkota Sadak, Buddha Nagar, Kathmandu 00446, Nepal",27.6922532,85.33642284999999,Eyeplex Mall,,Devkota Sadak,00446,Kathmandu-10,Buddha Nagar,Kathmandu,Kathmandu,Bagmati Province,Nepal,np,© OpenStreetMap contributors,Open Database License,https://www.openstreetmap.org/copyright
41301025,250,2019-12-02 10:01:48,27.692643333333333,85.33648,1.9,28.13478673815694,"Yes Informatics, Devkota Sadak 10, Kathmandu, Kathmandu 44600, Nepal",27.692738,85.336215,Yes Informatics,10,Devkota Sadak,44600,,,Kathmandu,Kathmandu,Three,Nepal,np,© OpenStreetMap contributors,Open Database License,https://www.openstreetmap.org/copyright
41301572,250,2019-12-02 10:02:18,27.69301833333333,85.33660166666667,1.71,49.20393029591272,"Yes Informatics, Devkota Sadak 10, Kathmandu, Kathmandu 44600, Nepal",27.692738,85.336215,Yes Informatics,10,Devkota Sadak,44600,,,Kathmandu,Kathmandu,Three,Nepal,np,© OpenStreetMap contributors,Open Database License,https://www.openstreetmap.org/copyright
41302084,250,2019-12-02 10:02:48,27.693193333333333,85.336695,2.91,69.26010540768917,"Yes Informatics, Devkota Sadak 10, Kathmandu, Kathmandu 44600, Nepal",27.692738,85.336215,Yes Informatics,10,Devkota Sadak,44600,,,Kathmandu,Kathmandu,Three,Nepal,np,© OpenStreetMap contributors,Open Database License,https://www.openstreetmap.org/copyright
41302603,250,2019-12-02 10:03:18,27.69327333333333,85.33669666666667,3.28,76.10790625083501,"Yes Informatics, Devkota Sadak 10, Kathmandu, Kathmandu 44600, Nepal",27.692738,85.336215,Yes Informatics,10,Devkota Sadak,44600,,,Kathmandu,Kathmandu,Three,Nepal,np,© OpenStreetMap contributors,Open Database License,https://www.openstreetmap.org/copyright
41303114,250,2019-12-02 10:03:48,27.693663333333333,85.33695833333333,5.72,2.6278694089409185,"nepal sahakari bitiya sastha l.td, Devkota Sadak, Baneshwar, Kathmandu 00446, Nepal",27.6937122,85.33690168995486,nepal sahakari bitiya sastha l.td,,Devkota Sadak,00446,Kathmandu-10,Baneshwar,Kathmandu,Kathmandu,Bagmati Province,Nepal,np,© OpenStreetMap contributors,Open Database License,https://www.openstreetmap.org/copyright
41303677,250,2019-12-02 10:04:17,27.693995,85.33707333333334,0.28,7.810183491858533,"Old Whitehouse International College, Devkota Sadak, Baneshwar, Kathmandu 00446, Nepal",27.69402185,85.33730716567752,Old Whitehouse International College,,Devkota Sadak,00446,Kathmandu-10,Baneshwar,Kathmandu,Kathmandu,Bagmati Province,Nepal,np,© OpenStreetMap contributors,Open Database License,https://www.openstreetmap.org/copyright
41304236,250,2019-12-02 10:04:47,27.6945,85.33722333333333,3.31,8.909049701264626,"Global IME Bank, Kathmandu, Kathmandu 44703, Nepal",27.694439,85.337282,Global IME Bank,,,44703,,,Kathmandu,Kathmandu,Three,Nepal,np,© OpenStreetMap contributors,Open Database License,https://www.openstreetmap.org/copyright
41304801,250,2019-12-02 10:05:17,27.69462833333333,85.33719166666667,0.61,11.419504306049566,"Dumpling Restaurant, Devkota Sadak, Baneshwar, Kathmandu 44703, Nepal",27.6947239,85.3371492,Dumpling Restaurant,,Devkota Sadak,44703,Kathmandu-10,Baneshwar,Kathmandu,Kathmandu,Bagmati Province,Nepal,np,© OpenStreetMap contributors,Open Database License,https://www.openstreetmap.org/copyright
41305340,250,2019-12-02 10:05:47,27.69493333333333,85.33726166666666,8.79,12.671022951022,"Dhungedhara, Devkota Sadak, Baneshwar, Kathmandu 44703, Nepal",27.6947997,85.33739752842871,Dhungedhara,,Devkota Sadak,44703,Kathmandu-10,Baneshwar,Kathmandu,Kathmandu,Bagmati Province,Nepal,np,© OpenStreetMap contributors,Open Database License,https://www.openstreetmap.org/copyright
41305903,250,2019-12-02 10:06:17,27.69650833333333,85.33765833333334,17.76,8.081630480086915,"DDC sales counter mid baneshwar, Devkota Sadak, Baneshwar, Kathmandu 44703, Nepal",27.6964502,85.3377076,DDC sales counter mid baneshwar,,Devkota Sadak,44703,Kathmandu-10,Baneshwar,Kathmandu,Kathmandu,Bagmati Province,Nepal,np,© OpenStreetMap contributors,Open Database License,https://www.openstreetmap.org/copyright
41306477,250,2019-12-02 10:06:48,27.698765,85.33821,14.42,4.157627864241031,"Apex College, Devkota Sadak, Baneshwar, Kathmandu 44703, Nepal",27.6989896,85.33804992574136,Apex College,,Devkota Sadak,44703,Kathmandu-10,Baneshwar,Kathmandu,Kathmandu,Bagmati Province,Nepal,np,© OpenStreetMap contributors,Open Database License,https://www.openstreetmap.org/copyright
41306995,250,2019-12-02 10:07:17,27.69923333333333,85.33830333333333,0.19,1.6624112131827025,"Apex College, Devkota Sadak, Baneshwar, Kathmandu 44703, Nepal",27.6989896,85.33804992574136,Apex College,,Devkota Sadak,44703,Kathmandu-10,Baneshwar,Kathmandu,Kathmandu,Bagmati Province,Nepal,np,© OpenStreetMap contributors,Open Database License,https://www.openstreetmap.org/copyright
41307500,250,2019-12-02 10:07:46,27.69969,85.33844666666667,7.9,5.9156368358859215,"Prabhu Bank Limited, Devkota Sadak, Baneshwar, Kathmandu 44703, Nepal",27.6996411,85.338423,Prabhu Bank Limited,,Devkota Sadak,44703,Kathmandu-10,Baneshwar,Kathmandu,Kathmandu,Bagmati Province,Nepal,np,© OpenStreetMap contributors,Open Database License,https://www.openstreetmap.org/copyright
41308020,250,2019-12-02 10:08:16,27.700461666666666,85.33935333333334,0.02,15.033233982145566,"SAIM College, Kathmandu, Kathmandu 44703, Nepal",27.700471,85.339201,SAIM College,,,44703,,,Kathmandu,Kathmandu,Three,Nepal,np,© OpenStreetMap contributors,Open Database License,https://www.openstreetmap.org/copyright
41308632,250,2019-12-02 10:08:50,27.700495,85.33938166666667,0.02,17.985896804926217,"SAIM College, Kathmandu, Kathmandu 44703, Nepal",27.700471,85.339201,SAIM College,,,44703,,,Kathmandu,Kathmandu,Three,Nepal,np,© OpenStreetMap contributors,Open Database License,https://www.openstreetmap.org/copyright
41309099,250,2019-12-02 10:09:16,27.700501666666668,85.33940666666666,0.14,18.8694251769833,"Asian Paints, Devkota Sadak, Baneshwar, Kathmandu 44703, Nepal",27.7004642,85.3395936,Asian Paints,,Devkota Sadak,44703,Kathmandu-10,Baneshwar,Kathmandu,Kathmandu,Bagmati Province,Nepal,np,© OpenStreetMap contributors,Open Database License,https://www.openstreetmap.org/copyright
41309636,250,2019-12-02 10:09:45,27.700513333333333,85.33942,0.18,17.524426219057478,"Mankamana Store, Devkota Sadak, Baneshwar, Kathmandu 44703, Nepal",27.700514,85.339598,Mankamana Store,,Devkota Sadak,44703,Kathmandu-10,Baneshwar,Kathmandu,Kathmandu,Bagmati Province,Nepal,np,© OpenStreetMap contributors,Open Database License,https://www.openstreetmap.org/copyright
41310149,250,2019-12-02 10:10:15,27.700515,85.33942833333333,0.09,16.704214804636845,"Mankamana Store, Devkota Sadak, Baneshwar, Kathmandu 44703, Nepal",27.700514,85.339598,Mankamana Store,,Devkota Sadak,44703,Kathmandu-10,Baneshwar,Kathmandu,Kathmandu,Bagmati Province,Nepal,np,© OpenStreetMap contributors,Open Database License,https://www.openstreetmap.org/copyright
41310697,250,2019-12-02 10:10:45,27.70052833333333,85.339425,0.25,17.106421894137338,"Mankamana Store, Devkota Sadak, Baneshwar, Kathmandu 44703, Nepal",27.700514,85.339598,Mankamana Store,,Devkota Sadak,44703,Kathmandu-10,Baneshwar,Kathmandu,Kathmandu,Bagmati Province,Nepal,np,© OpenStreetMap contributors,Open Database License,https://www.openstreetmap.org/copyright
41311224,250,2019-12-02 10:11:15,27.700541666666663,85.33941833333333,0.16,17.953885881465553,"Mankamana Store, Devkota Sadak, Baneshwar, Kathmandu 44703, Nepal",27.700514,85.339598,Mankamana Store,,Devkota Sadak,44703,Kathmandu-10,Baneshwar,Kathmandu,Kathmandu,Bagmati Province,Nepal,np,© OpenStreetMap contributors,Open Database License,https://www.openstreetmap.org/copyright
41311771,250,2019-12-02 10:11:45,27.70055333333333,85.33944,0.4,16.158426376948718,"Mankamana Store, Devkota Sadak, Baneshwar, Kathmandu 44703, Nepal",27.700514,85.339598,Mankamana Store,,Devkota Sadak,44703,Kathmandu-10,Baneshwar,Kathmandu,Kathmandu,Bagmati Province,Nepal,np,© OpenStreetMap contributors,Open Database License,https://www.openstreetmap.org/copyright
41312283,250,2019-12-02 10:12:14,27.700535,85.339425,0.06,17.19133917585531,"Mankamana Store, Devkota Sadak, Baneshwar, Kathmandu 44703, Nepal",27.700514,85.339598,Mankamana Store,,Devkota Sadak,44703,Kathmandu-10,Baneshwar,Kathmandu,Kathmandu,Bagmati Province,Nepal,np,© OpenStreetMap contributors,Open Database License,https://www.openstreetmap.org/copyright
41312802,250,2019-12-02 10:12:44,27.70056333333333,85.33942,0.27,18.36278705831282,"Mankamana Store, Devkota Sadak, Baneshwar, Kathmandu 44703, Nepal",27.700514,85.339598,Mankamana Store,,Devkota Sadak,44703,Kathmandu-10,Baneshwar,Kathmandu,Kathmandu,Bagmati Province,Nepal,np,© OpenStreetMap contributors,Open Database License,https://www.openstreetmap.org/copyright
41313428,250,2019-12-02 10:13:20,27.700611666666667,85.33952333333333,0.11,11.88343768903825,"Tempo Stop Near Old Baneshwar, Kathmandu, Kathmandu 44703, Nepal",27.700609,85.339644,Tempo Stop Near Old Baneshwar,,,44703,,,Kathmandu,Kathmandu,Three,Nepal,np,© OpenStreetMap contributors,Open Database License,https://www.openstreetmap.org/copyright
41315041,250,2019-12-02 10:19:41,27.707943333333333,85.33917666666666,16.75,14.363013119227762,"Wigan & Leigh College, Pashupati Sadak, Chabahil, Kathmandu 44660, Nepal",27.70814345,85.33914129437514,Wigan & Leigh College,,Pashupati Sadak,44660,Kathmandu-07,Chabahil,Kathmandu,Kathmandu,Bagmati Province,Nepal,np,© OpenStreetMap contributors,Open Database License,https://www.openstreetmap.org/copyright
41315323,250,2019-12-02 10:20:11,27.708121666666667,85.33727166666667,3.73,0.18275717508725994,"Rudra Mati Marg-2, Chabahil, Kathmandu 44660, Nepal",27.7098912,85.337262,Rudra Mati Marg-2,,Rudra Mati Marg-2,44660,Kathmandu-07,Chabahil,Kathmandu,Kathmandu,Bagmati Province,Nepal,np,© OpenStreetMap contributors,Open Database License,https://www.openstreetmap.org/copyright
41315633,250,2019-12-02 10:20:40,27.708166666666667,85.335565,10.95,9.666810928755114,"Pashupati Sadak, Kathmandu, Kathmandu 44605, Nepal",27.708134,85.335474,,,Pashupati Sadak,44605,,,Kathmandu,Kathmandu,Three,Nepal,np,© OpenStreetMap contributors,Open Database License,https://www.openstreetmap.org/copyright
41315987,250,2019-12-02 10:21:10,27.708126666666665,85.33414166666667,15.61,8.417760189763685,"Shanta Plaza, Pashupati Sadak, Maitidevi, Kathmandu 44605, Nepal",27.7080902,85.3342166,Shanta Plaza,,Pashupati Sadak,44605,Kathmandu-30,Maitidevi,Kathmandu,Kathmandu,Bagmati Province,Nepal,np,© OpenStreetMap contributors,Open Database License,https://www.openstreetmap.org/copyright
41316294,250,2019-12-02 10:21:40,27.70827833333333,85.33293666666667,12.51,8.109976832861372,"Shrestha Motorcycle House, Pashupati Sadak, Maitidevi, Kathmandu 44605, Nepal",27.7081758,85.33300173384461,Shrestha Motorcycle House,,Pashupati Sadak,44605,Kathmandu-30,Maitidevi,Kathmandu,Kathmandu,Bagmati Province,Nepal,np,© OpenStreetMap contributors,Open Database License,https://www.openstreetmap.org/copyright
41316650,250,2019-12-02 10:22:12,27.709156666666665,85.332215,10.06,16.017690117011828,"Attic Bar & Resturant, Gyaneshwar Marg, Maitidevi, Kathmandu 00975, Nepal",27.7089433,85.33229365054419,Attic Bar & Resturant,,Gyaneshwar Marg,00975,Kathmandu-30,Maitidevi,Kathmandu,Kathmandu,Bagmati Province,Nepal,np,© OpenStreetMap contributors,Open Database License,https://www.openstreetmap.org/copyright
41316965,250,2019-12-02 10:22:40,27.709321666666668,85.33228666666666,0.81,15.257744278294052,"International Centre for Academics, Gyaneshwar Marg, Maitidevi, Kathmandu 00975, Nepal",27.7092423,85.3324131,International Centre for Academics,,Gyaneshwar Marg,00975,Kathmandu-30,Maitidevi,Kathmandu,Kathmandu,Bagmati Province,Nepal,np,© OpenStreetMap contributors,Open Database License,https://www.openstreetmap.org/copyright
41317391,250,2019-12-02 10:23:09,27.70959333333333,85.33249,9.87,16.283406964604293,"German Embassy, Gyaneshwar Marg, Maitidevi, Kathmandu 00975, Nepal",27.709540949999997,85.33348460677628,German Embassy,,Gyaneshwar Marg,00975,Kathmandu-30,Maitidevi,Kathmandu,Kathmandu,Bagmati Province,Nepal,np,© OpenStreetMap contributors,Open Database License,https://www.openstreetmap.org/copyright
44015775,250,2019-12-04 09:34:02,27.710911666666668,85.333375,4.87,20.540059551075867,"Prakash New Generation Motorcycle Workshop, Kathmandu, Kathmandu 00975, Nepal",27.71079,85.333218,Prakash New Generation Motorcycle Workshop,,,00975,,,Kathmandu,Kathmandu,Three,Nepal,np,© OpenStreetMap contributors,Open Database License,https://www.openstreetmap.org/copyright
44016278,250,2019-12-04 09:34:31,27.70965,85.33267166666667,12.23,0,"German Embassy, Gyaneshwar Marg, Maitidevi, Kathmandu 00975, Nepal",27.709540949999997,85.33348460677628,German Embassy,,Gyaneshwar Marg,00975,Kathmandu-30,Maitidevi,Kathmandu,Kathmandu,Bagmati Province,Nepal,np,© OpenStreetMap contributors,Open Database License,https://www.openstreetmap.org/copyright
44016790,250,2019-12-04 09:35:01,27.70870333333333,85.332265,8.1,13.746149064158267,"KitabKalam Stationery Mart, Pashupati Sadak, Maitidevi, Kathmandu 44600, Nepal",27.7086005,85.3323425,KitabKalam Stationery Mart,,Pashupati Sadak,44600,Kathmandu-30,Maitidevi,Kathmandu,Kathmandu,Bagmati Province,Nepal,np,© OpenStreetMap contributors,Open Database License,https://www.openstreetmap.org/copyright
44017448,250,2019-12-04 09:35:31,27.708195,85.33334,5.02,22.003703949561412,"Subidha Travel, Pashupati Marga, Kathmandu, Kathmandu 44605, Nepal",27.708218,85.333118,Subidha Travel,,Pashupati Marga,44605,,,Kathmandu,Kathmandu,Three,Nepal,np,© OpenStreetMap contributors,Open Database License,https://www.openstreetmap.org/copyright
44018314,250,2019-12-04 09:36:00,27.70747,85.33336833333334,1.1,20.68558624589389,"AM/PM Cafe and Bar, Maiti Devi marg, Maitidevi, Kathmandu 44605, Nepal",27.7073033,85.3334616,AM/PM Cafe and Bar,,Maiti Devi marg,44605,Kathmandu-30,Maitidevi,Kathmandu,Kathmandu,Bagmati Province,Nepal,np,© OpenStreetMap contributors,Open Database License,https://www.openstreetmap.org/copyright
44018928,250,2019-12-04 09:36:31,27.706596666666663,85.33353666666666,10.34,28.520287171054587,"Maitidevi Temple stop, Kathmandu, Kathmandu 00446, Nepal",27.706365,85.333661,Maitidevi Temple stop,,,00446,,,Kathmandu,Kathmandu,Three,Nepal,np,© OpenStreetMap contributors,Open Database License,https://www.openstreetmap.org/copyright
44019408,250,2019-12-04 09:37:00,27.7061,85.33379,0.52,6.717369850616682,"Maitidevi Mandir, Kathmandu, Kathmandu 00446, Nepal",27.706095,85.333858,Maitidevi Mandir,,,00446,,,Kathmandu,Kathmandu,Three,Nepal,np,© OpenStreetMap contributors,Open Database License,https://www.openstreetmap.org/copyright
44019923,250,2019-12-04 09:37:30,27.706051666666667,85.333835,2.34,5.3239413516338425,"Maitidevi Mandir, Kathmandu, Kathmandu 00446, Nepal",27.706095,85.333858,Maitidevi Mandir,,,00446,,,Kathmandu,Kathmandu,Three,Nepal,np,© OpenStreetMap contributors,Open Database License,https://www.openstreetmap.org/copyright
44020438,250,2019-12-04 09:38:00,27.704851666666663,85.33325166666667,11.37,6.066978745912771,"Kathmandu Dental Pvt. Limited, Maiti Devi marg, Maitidevi, Kathmandu 00446, Nepal",27.7047972,85.3332553,Kathmandu Dental Pvt. Limited,,Maiti Devi marg,00446,Kathmandu-30,Maitidevi,Kathmandu,Kathmandu,Bagmati Province,Nepal,np,© OpenStreetMap contributors,Open Database License,https://www.openstreetmap.org/copyright
44020950,250,2019-12-04 09:38:30,27.704386666666668,85.33294833333333,0.07,17.962492291331195,"The Pizza Fire, Kathmandu, Kathmandu 00446, Nepal",27.704289,85.332803,The Pizza Fire,,,00446,,,Kathmandu,Kathmandu,Three,Nepal,np,© OpenStreetMap contributors,Open Database License,https://www.openstreetmap.org/copyright
44021474,250,2019-12-04 09:38:59,27.70402333333333,85.33264833333334,2.68,9.606543218975087,"Mahanagariya Prahari Parisar, Kathmandu, Kathmandu 00446, Nepal",27.703953,85.332705,Mahanagariya Prahari Parisar,,,00446,,,Kathmandu,Kathmandu,Three,Nepal,np,© OpenStreetMap contributors,Open Database License,https://www.openstreetmap.org/copyright
44021984,250,2019-12-04 09:39:30,27.704003333333333,85.332415,2.27,11.35744620032719,"Dillibazar Sadak, Kathmandu, Kathmandu 44605, Nepal",27.704019,85.332301,,,Dillibazar Sadak,44605,,,Kathmandu,Kathmandu,Three,Nepal,np,© OpenStreetMap contributors,Open Database License,https://www.openstreetmap.org/copyright
44022524,250,2019-12-04 09:39:59,27.70416,85.33152,10.95,23.41779975748831,"Khotange Khaja Ghar, Dillibazar Sadak, Dillibazar, Kathmandu 44605, Nepal",27.7043558,85.3314324,Khotange Khaja Ghar,,Dillibazar Sadak,44605,Kathmandu-30,Dillibazar,Kathmandu,Kathmandu,Bagmati Province,Nepal,np,© OpenStreetMap contributors,Open Database License,https://www.openstreetmap.org/copyright
44023043,250,2019-12-04 09:40:29,27.704356666666666,85.33083666666667,0.66,24.606149306797512,"Bank of Asia, Kathmandu, Kathmandu 44605, Nepal",27.704567,85.330759,Bank of Asia,,,44605,,,Kathmandu,Kathmandu,Three,Nepal,np,© OpenStreetMap contributors,Open Database License,https://www.openstreetmap.org/copyright
44023566,250,2019-12-04 09:40:58,27.70478333333333,85.33002833333333,11.88,42.57286966907191,"Ncell Shop, Kathmandu, Kathmandu 44605, Nepal",27.704792,85.329596,Ncell Shop,,,44605,,,Kathmandu,Kathmandu,Three,Nepal,np,© OpenStreetMap contributors,Open Database License,https://www.openstreetmap.org/copyright
44024078,250,2019-12-04 09:41:28,27.704971666666665,85.329315,0.27,3.6603622002540757,"Kathmandu Metropolitan Ward 29, Gyaneshwar Marg, Dillibazar, Kathmandu 44605, Nepal",27.7050604,85.32927955286168,Kathmandu Metropolitan Ward 29,,Gyaneshwar Marg,44605,Kathmandu-30,Dillibazar,Kathmandu,Kathmandu,Bagmati Province,Nepal,np,© OpenStreetMap contributors,Open Database License,https://www.openstreetmap.org/copyright
44024592,250,2019-12-04 09:41:58,27.705006666666662,85.32898666666667,6.59,14.38651348544491,"Radha Krishna Temple, Dilli Bazaar, Kathmandu, Kathmandu 44605, Nepal",27.704878,85.329002,Radha Krishna Temple,,Dilli Bazaar,44605,,,Kathmandu,Kathmandu,Three,Nepal,np,© OpenStreetMap contributors,Open Database License,https://www.openstreetmap.org/copyright
44025110,250,2019-12-04 09:42:28,27.70529833333333,85.32792,1.98,4.6829518628638676,"AT Burger Point, Kathmandu, Kathmandu 44605, Nepal",27.705273,85.327958,AT Burger Point,,,44605,,,Kathmandu,Kathmandu,Three,Nepal,np,© OpenStreetMap contributors,Open Database License,https://www.openstreetmap.org/copyright
44025631,250,2019-12-04 09:42:58,27.705396666666665,85.32666666666667,9.54,0.7549181888829699,"Friends Optical, Dillibazar Sadak, Ghattekulo, Kathmandu 44605, Nepal",27.705431249999997,85.32664962863288,Friends Optical,,Dillibazar Sadak,44605,Kathmandu-30,Ghattekulo,Kathmandu,Kathmandu,Bagmati Province,Nepal,np,© OpenStreetMap contributors,Open Database License,https://www.openstreetmap.org/copyright
44026234,250,2019-12-04 09:43:29,27.70548833333333,85.32597166666666,0.44,9.4901218464567,"R.D Suppliers Pvt.Ltd, Dillibazar Sadak, Ghattekulo, Kathmandu 44600, Nepal",27.7054148,85.3260206,R.D Suppliers Pvt.Ltd,,Dillibazar Sadak,44600,Kathmandu-30,Ghattekulo,Kathmandu,Kathmandu,Bagmati Province,Nepal,np,© OpenStreetMap contributors,Open Database License,https://www.openstreetmap.org/copyright
44026753,250,2019-12-04 09:43:57,27.70561333333333,85.32473333333333,5.92,11.944053105793943,"Dillibazar Sadak, Kathmandu, Kathmandu 44605, Nepal",27.705544,85.324826,,,Dillibazar Sadak,44605,,,Kathmandu,Kathmandu,Three,Nepal,np,© OpenStreetMap contributors,Open Database License,https://www.openstreetmap.org/copyright
44027308,250,2019-12-04 09:44:27,27.705591666666667,85.32355333333334,8.58,48.92028584576284,"Punya Mansion, Dilli Bazaar Road 33, Kathmandu, Kathmandu 00977, Nepal",27.705795,85.323994,Punya Mansion,33,Dilli Bazaar Road,00977,,,Kathmandu,Kathmandu,Three,Nepal,np,© OpenStreetMap contributors,Open Database License,https://www.openstreetmap.org/copyright
44027816,250,2019-12-04 09:44:57,27.70555333333333,85.323085,0.42,4.290730641572302,"Skyfall Educational Consultancy, Dillibazar Sadak, Ghattekulo, Kathmandu 44605, Nepal",27.7055393,85.3230444,Skyfall Educational Consultancy,,Dillibazar Sadak,44605,Kathmandu-29,Ghattekulo,Kathmandu,Kathmandu,Bagmati Province,Nepal,np,© OpenStreetMap contributors,Open Database License,https://www.openstreetmap.org/copyright
44028335,250,2019-12-04 09:45:26,27.705548333333333,85.32298833333333,0.48,5.577587762276434,"Skyfall Educational Consultancy, Dilli Bazaar Road, Kathmandu, Kathmandu 44605, Nepal",27.705539,85.323044,Skyfall Educational Consultancy,,Dilli Bazaar Road,44605,,,Kathmandu,Kathmandu,Three,Nepal,np,© OpenStreetMap contributors,Open Database License,https://www.openstreetmap.org/copyright
44028871,250,2019-12-04 09:45:56,27.70558,85.322975,0.05,6.32981649658162,"Smile Fancy, Putali Sadak, Bansh Ghari, Kathmandu 46600, Nepal",27.7055491,85.322921,Smile Fancy,,Putali Sadak,46600,Kathmandu-28,Bansh Ghari,Kathmandu,Kathmandu,Bagmati Province,Nepal,np,© OpenStreetMap contributors,Open Database License,https://www.openstreetmap.org/copyright
44029420,250,2019-12-04 09:46:27,27.705646666666667,85.32293833333334,0.59,3.8084817263797364,"Sri Impex, Kathmandu, Kathmandu 46600, Nepal",27.705617,85.322919,Sri Impex,,,46600,,,Kathmandu,Kathmandu,Three,Nepal,np,© OpenStreetMap contributors,Open Database License,https://www.openstreetmap.org/copyright
44029928,250,2019-12-04 09:46:56,27.705375,85.32287666666667,9.26,2.871717140296298,"Shantipur Saving and Credit Cooperative Pvt.Ltd, Putali Sadak, Bansh Ghari, Kathmandu 46600, Nepal",27.7053737,85.3229058,Shantipur Saving and Credit Cooperative Pvt.Ltd,,Putali Sadak,46600,Kathmandu-28,Bansh Ghari,Kathmandu,Kathmandu,Bagmati Province,Nepal,np,© OpenStreetMap contributors,Open Database License,https://www.openstreetmap.org/copyright
44030459,250,2019-12-04 09:47:26,27.704456666666665,85.32271833333333,9.81,5.488254432179197,"ICS International Education and Visa Services, Kathmandu, Kathmandu 46600, Nepal",27.704454,85.322774,ICS International Education and Visa Services,,,46600,,,Kathmandu,Kathmandu,Three,Nepal,np,© OpenStreetMap contributors,Open Database License,https://www.openstreetmap.org/copyright
44031016,250,2019-12-04 09:47:55,27.7031,85.32251666666667,1.02,8.880544369652768,"Ram Hair Cutting, New Plaza Marg, Bansh Ghari, Kathmandu 44605, Nepal",27.7031336,85.3225985,Ram Hair Cutting,,New Plaza Marg,44605,Kathmandu-29,Bansh Ghari,Kathmandu,Kathmandu,Bagmati Province,Nepal,np,© OpenStreetMap contributors,Open Database License,https://www.openstreetmap.org/copyright
44031573,250,2019-12-04 09:48:25,27.702275,85.32240666666667,5.19,4.8159423685979235,"Kantipure Educare Global, Kathmandu, Kathmandu 44605, Nepal",27.702246,85.322443,Kantipure Educare Global,,,44605,,,Kathmandu,Kathmandu,Three,Nepal,np,© OpenStreetMap contributors,Open Database License,https://www.openstreetmap.org/copyright
44032152,250,2019-12-04 09:48:55,27.701836666666665,85.32225833333334,0.06,11.827667102813175,"Kathmandu Valley Education Center, Putali Sadak, Baghbazar, Kathmandu 44605, Nepal",27.701804,85.322144,Kathmandu Valley Education Center,,Putali Sadak,44605,Kathmandu-28,Baghbazar,Kathmandu,Kathmandu,Bagmati Province,Nepal,np,© OpenStreetMap contributors,Open Database License,https://www.openstreetmap.org/copyright
44032709,250,2019-12-04 09:49:25,27.700901666666667,85.322115,12.54,8.212897801028292,"Subham International Pvt.Ltd, Kathmandu, Kathmandu 44605, Nepal",27.700884,85.322034,Subham International Pvt.Ltd,,,44605,,,Kathmandu,Kathmandu,Three,Nepal,np,© OpenStreetMap contributors,Open Database License,https://www.openstreetmap.org/copyright
44033230,250,2019-12-04 09:49:54,27.69954,85.321845,0.02,9.895584688856394,"Himalayan White House International College, Baggi Khana Marg, Baghbazar, Kathmandu 44605, Nepal",27.6995798,85.3217551,Himalayan White House International College,,Baggi Khana Marg,44605,Kathmandu-28,Baghbazar,Kathmandu,Kathmandu,Bagmati Province,Nepal,np,© OpenStreetMap contributors,Open Database License,https://www.openstreetmap.org/copyright
44033747,250,2019-12-04 09:50:24,27.69947833333333,85.32183833333333,0.1,13.944402037377964,"Himalayan White House International College, Baggi Khana Marg, Baghbazar, Kathmandu 44605, Nepal",27.6995798,85.3217551,Himalayan White House International College,,Baggi Khana Marg,44605,Kathmandu-28,Baghbazar,Kathmandu,Kathmandu,Bagmati Province,Nepal,np,© OpenStreetMap contributors,Open Database License,https://www.openstreetmap.org/copyright
44034265,250,2019-12-04 09:50:54,27.699095,85.32175833333334,6.17,16.800190564675113,"Global IME Bank ATM, Ram Shah Path, Baghbazar, Kathmandu 44605, Nepal",27.6990074,85.3216193,Global IME Bank ATM,,Ram Shah Path,44605,Kathmandu-28,Baghbazar,Kathmandu,Kathmandu,Bagmati Province,Nepal,np,© OpenStreetMap contributors,Open Database License,https://www.openstreetmap.org/copyright
44034770,250,2019-12-04 09:51:24,27.69794,85.32152333333333,10.15,17.37393705835709,"Office of the Attorney General, Ram Shah Path, Bansh Ghari, Kathmandu 00446, Nepal",27.69790675,85.32176045718202,Office of the Attorney General,,Ram Shah Path,00446,Kathmandu-29,Bansh Ghari,Kathmandu,Kathmandu,Bagmati Province,Nepal,np,© OpenStreetMap contributors,Open Database License,https://www.openstreetmap.org/copyright
44035289,250,2019-12-04 09:51:54,27.696771666666667,85.32125166666667,0.05,14.911425152537978,"Nepal Bank Limited ATM, Kathmandu, Kathmandu 00446, Nepal",27.696758,85.321101,Nepal Bank Limited ATM,,,00446,,,Kathmandu,Kathmandu,Three,Nepal,np,© OpenStreetMap contributors,Open Database License,https://www.openstreetmap.org/copyright
44035842,250,2019-12-04 09:52:23,27.69610833333333,85.32110666666667,8.18,1.4064267436760811,"Ram Shah Path, Bansh Ghari, Kathmandu 00446, Nepal",27.695921,85.321048,Ram Shah Path,,Ram Shah Path,00446,Kathmandu-29,Bansh Ghari,Kathmandu,Kathmandu,Bagmati Province,Nepal,np,© OpenStreetMap contributors,Open Database License,https://www.openstreetmap.org/copyright
44036397,250,2019-12-04 09:52:53,27.695215,85.320915,8.14,1.9177843883790404,"Ram Shah Path, Bansh Ghari, Kathmandu 00446, Nepal",27.695921,85.321048,Ram Shah Path,,Ram Shah Path,00446,Kathmandu-29,Bansh Ghari,Kathmandu,Kathmandu,Bagmati Province,Nepal,np,© OpenStreetMap contributors,Open Database License,https://www.openstreetmap.org/copyright
44036945,250,2019-12-04 09:53:23,27.69402333333333,85.32127166666666,11.03,13.558211644049134,"Gaurav Marg, Thapathali, Kathmandu 44617, Nepal",27.69406,85.321403,,,Gaurav Marg,44617,,Thapathali,Kathmandu,Kathmandu,Three,Nepal,np,© OpenStreetMap contributors,Open Database License,https://www.openstreetmap.org/copyright
44037478,250,2019-12-04 09:53:53,27.693068333333333,85.32324333333334,14.69,0,"शहरी बिकास तथा भवन निर्माण विभाग, Tanka Prasad Ghumti Sadak, Bansh Ghari, Kathmandu 44617, Nepal",27.69372645,85.32333557287294,शहरी बिकास तथा भवन निर्माण विभाग,,Tanka Prasad Ghumti Sadak,44617,Kathmandu-11,Bansh Ghari,Kathmandu,Kathmandu,Bagmati Province,Nepal,np,© OpenStreetMap contributors,Open Database License,https://www.openstreetmap.org/copyright
44038011,250,2019-12-04 09:54:23,27.691935,85.32544166666666,14.67,6.386478268176594,"Kathmandu, Kathmandu 44617, Nepal",27.6922553,85.324616,,,,44617,Kathmandu-11,,Kathmandu,Kathmandu,Bagmati Province,Nepal,np,© OpenStreetMap contributors,Open Database License,https://www.openstreetmap.org/copyright
44038596,250,2019-12-04 09:54:53,27.691223333333333,85.32698,17.15,6.921320191324606,"Kathmandu, Kathmandu 44617, Nepal",27.6922553,85.324616,,,,44617,Kathmandu-11,,Kathmandu,Kathmandu,Bagmati Province,Nepal,np,© OpenStreetMap contributors,Open Database License,https://www.openstreetmap.org/copyright
44039124,250,2019-12-04 09:55:22,27.690386666666665,85.32850833333333,12.73,3.702309523438179,"Kathmandu, Kathmandu 44617, Nepal",27.6905379,85.3281156,,,,44617,Kathmandu-11,,Kathmandu,Kathmandu,Bagmati Province,Nepal,np,© OpenStreetMap contributors,Open Database License,https://www.openstreetmap.org/copyright
44039652,250,2019-12-04 09:55:53,27.68982,85.32991833333334,16.53,2.951214563570536,"Department of Drug Administration, Madan Bhandari Path, Buddha Nagar, Kathmandu 44617, Nepal",27.690355,85.32991883915108,Department of Drug Administration,,Madan Bhandari Path,44617,Kathmandu-10,Buddha Nagar,Kathmandu,Kathmandu,Bagmati Province,Nepal,np,© OpenStreetMap contributors,Open Database License,https://www.openstreetmap.org/copyright
44040357,250,2019-12-04 09:56:33,27.68911333333333,85.33239333333333,17.8,3.330721778135682,"Buddha Nagar, Kathmandu 44617, Nepal",27.6891539,85.3320663,,,,44617,Kathmandu-10,Buddha Nagar,Kathmandu,Kathmandu,Bagmati Province,Nepal,np,© OpenStreetMap contributors,Open Database License,https://www.openstreetmap.org/copyright
44040680,250,2019-12-04 09:56:52,27.68883,85.33362666666666,13.42,2.540544949225992,"Buddha Nagar, Kathmandu 44617, Nepal",27.6891539,85.3320663,,,,44617,Kathmandu-10,Buddha Nagar,Kathmandu,Kathmandu,Bagmati Province,Nepal,np,© OpenStreetMap contributors,Open Database License,https://www.openstreetmap.org/copyright
44041257,250,2019-12-04 09:57:21,27.688606666666665,85.33469833333334,0.16,4.38591933224065,"Buddha Nagar, Kathmandu 44617, Nepal",27.6891539,85.3320663,,,,44617,Kathmandu-10,Buddha Nagar,Kathmandu,Kathmandu,Bagmati Province,Nepal,np,© OpenStreetMap contributors,Open Database License,https://www.openstreetmap.org/copyright
44041761,250,2019-12-04 09:57:51,27.688565,85.334705,0.16,0.046574418647765944,"Buddha Nagar, Kathmandu 44617, Nepal",27.6891539,85.3320663,,,,44617,Kathmandu-10,Buddha Nagar,Kathmandu,Kathmandu,Bagmati Province,Nepal,np,© OpenStreetMap contributors,Open Database License,https://www.openstreetmap.org/copyright
44042273,250,2019-12-04 09:58:21,27.68857833333333,85.33474,0.13,2.3143420414613787,"Buddha Nagar, Kathmandu 44617, Nepal",27.6891539,85.3320663,,,,44617,Kathmandu-10,Buddha Nagar,Kathmandu,Kathmandu,Bagmati Province,Nepal,np,© OpenStreetMap contributors,Open Database License,https://www.openstreetmap.org/copyright
44042790,250,2019-12-04 09:58:51,27.688638333333333,85.33475666666666,0.11,7.99818703897074,"ATM LOUNGE, Madan Bhandari Path, Buddha Nagar, Kathmandu 44617, Nepal",27.6886862,85.3348173,ATM LOUNGE,,Madan Bhandari Path,44617,Kathmandu-10,Buddha Nagar,Kathmandu,Kathmandu,Bagmati Province,Nepal,np,© OpenStreetMap contributors,Open Database License,https://www.openstreetmap.org/copyright
44043342,250,2019-12-04 09:59:20,27.68867333333333,85.334745,3.41,7.261122247469163,"ATM LOUNGE, Madan Bhandari Path, Buddha Nagar, Kathmandu 44617, Nepal",27.6886862,85.3348173,ATM LOUNGE,,Madan Bhandari Path,44617,Kathmandu-10,Buddha Nagar,Kathmandu,Kathmandu,Bagmati Province,Nepal,np,© OpenStreetMap contributors,Open Database License,https://www.openstreetmap.org/copyright
44043890,250,2019-12-04 09:59:50,27.68848333333333,85.33543333333333,0.58,7.462615258666014,"Fitwell Tailoring, Naya Baneshwar Sadak, Buddha Nagar, Kathmandu 44617, Nepal",27.6886037,85.33536667784551,Fitwell Tailoring,,Naya Baneshwar Sadak,44617,Kathmandu-10,Buddha Nagar,Kathmandu,Kathmandu,Bagmati Province,Nepal,np,© OpenStreetMap contributors,Open Database License,https://www.openstreetmap.org/copyright
44044735,250,2019-12-04 10:00:36,27.68933833333333,85.335725,13.03,11.111918766800692,"kailash bikas bank, Naya Baneshwar Sadak, Buddha Nagar, Kathmandu 44617, Nepal",27.6893526,85.3356133,kailash bikas bank,,Naya Baneshwar Sadak,44617,Kathmandu-10,Buddha Nagar,Kathmandu,Kathmandu,Bagmati Province,Nepal,np,© OpenStreetMap contributors,Open Database License,https://www.openstreetmap.org/copyright
44044982,250,2019-12-04 10:00:50,27.69045833333333,85.33592,5.99,13.187889628105594,"Naya Baneshwar, Kathmandu, Kathmandu 44617, Nepal",27.69034,85.335929,Naya Baneshwar,,,44617,,,Kathmandu,Kathmandu,Three,Nepal,np,© OpenStreetMap contributors,Open Database License,https://www.openstreetmap.org/copyright
44045491,250,2019-12-04 10:01:19,27.691345,85.336125,11.32,20.59281110755591,"Kastamandap Poly Clinic, Devkota Sadak, Buddha Nagar, Kathmandu 00446, Nepal",27.69106345,85.33619809314564,Kastamandap Poly Clinic,,Devkota Sadak,00446,Kathmandu-10,Buddha Nagar,Kathmandu,Kathmandu,Bagmati Province,Nepal,np,© OpenStreetMap contributors,Open Database License,https://www.openstreetmap.org/copyright
44046009,250,2019-12-04 10:01:49,27.692285,85.33620833333333,4.98,1.6985381991497481,"Eyeplex Mall Bus Stop, Kathmandu, Kathmandu 00446, Nepal",27.692292,85.336193,Eyeplex Mall Bus Stop,,,00446,,,Kathmandu,Kathmandu,Three,Nepal,np,© OpenStreetMap contributors,Open Database License,https://www.openstreetmap.org/copyright
44046544,250,2019-12-04 10:02:19,27.69254833333333,85.33639166666667,2.77,27.337670736501483,"Yes Informatics, Devkota Sadak 10, Kathmandu, Kathmandu 44600, Nepal",27.692738,85.336215,Yes Informatics,10,Devkota Sadak,44600,,,Kathmandu,Kathmandu,Three,Nepal,np,© OpenStreetMap contributors,Open Database License,https://www.openstreetmap.org/copyright
44047108,250,2019-12-04 10:02:49,27.693735,85.33708833333333,5.15,2.093498357850378,"Sandar MoMo, Devkota Sadak, Baneshwar, Kathmandu 00446, Nepal",27.693657549999998,85.33711741084306,Sandar MoMo,,Devkota Sadak,00446,Kathmandu-10,Baneshwar,Kathmandu,Kathmandu,Bagmati Province,Nepal,np,© OpenStreetMap contributors,Open Database License,https://www.openstreetmap.org/copyright
44047656,250,2019-12-04 10:03:19,27.69413833333333,85.33717833333333,3.35,0,"SchEMS, Devkota Sadak, Baneshwar, Kathmandu 00446, Nepal",27.694195450000002,85.33733938831966,SchEMS,,Devkota Sadak,00446,Kathmandu-10,Baneshwar,Kathmandu,Kathmandu,Bagmati Province,Nepal,np,© OpenStreetMap contributors,Open Database License,https://www.openstreetmap.org/copyright
44048225,250,2019-12-04 10:03:50,27.694931666666665,85.33728166666667,11.34,11.068833771297163,"Dhungedhara, Devkota Sadak, Baneshwar, Kathmandu 44703, Nepal",27.6947997,85.33739752842871,Dhungedhara,,Devkota Sadak,44703,Kathmandu-10,Baneshwar,Kathmandu,Kathmandu,Bagmati Province,Nepal,np,© OpenStreetMap contributors,Open Database License,https://www.openstreetmap.org/copyright
44048701,250,2019-12-04 10:04:18,27.69571333333333,85.33761666666666,0.39,6.085410910678627,"Banabanga Dhungadhara, Kathmandu, Kathmandu 44703, Nepal",27.695698,85.337676,Banabanga Dhungadhara,,,44703,,,Kathmandu,Kathmandu,Three,Nepal,np,© OpenStreetMap contributors,Open Database License,https://www.openstreetmap.org/copyright
44049233,250,2019-12-04 10:04:48,27.69605,85.33752,4.13,11.801472462795791,"Ganga Heart Clinic, Kathmandu, Kathmandu 44703, Nepal",27.695944,85.337526,Ganga Heart Clinic,,,44703,,,Kathmandu,Kathmandu,Three,Nepal,np,© OpenStreetMap contributors,Open Database License,https://www.openstreetmap.org/copyright
44049758,250,2019-12-04 10:05:18,27.696641666666668,85.33764,2.68,11.235795931522631,"The Pizza Cutter, Kathmandu, Kathmandu 44703, Nepal",27.696637,85.337754,The Pizza Cutter,,,44703,,,Kathmandu,Kathmandu,Three,Nepal,np,© OpenStreetMap contributors,Open Database License,https://www.openstreetmap.org/copyright
44050292,250,2019-12-04 10:05:48,27.696821666666665,85.33766833333334,0.06,9.96937925098919,"My Shop Laundry, Kathmandu, Kathmandu 44703, Nepal",27.69691,85.337651,My Shop Laundry,,,44703,,,Kathmandu,Kathmandu,Three,Nepal,np,© OpenStreetMap contributors,Open Database License,https://www.openstreetmap.org/copyright
44050841,250,2019-12-04 10:06:18,27.696808333333333,85.337655,0.02,11.311690613356578,"My Shop Laundry, Kathmandu, Kathmandu 44703, Nepal",27.69691,85.337651,My Shop Laundry,,,44703,,,Kathmandu,Kathmandu,Three,Nepal,np,© OpenStreetMap contributors,Open Database License,https://www.openstreetmap.org/copyright
44051350,250,2019-12-04 10:06:47,27.697198333333333,85.33779833333334,5.92,11.496251762286274,"Venus International Hospital, Devkota Sadak, Baneshwar, Kathmandu 44703, Nepal",27.69723685,85.33760075000001,Venus International Hospital,,Devkota Sadak,44703,Kathmandu-10,Baneshwar,Kathmandu,Kathmandu,Bagmati Province,Nepal,np,© OpenStreetMap contributors,Open Database License,https://www.openstreetmap.org/copyright
44051897,250,2019-12-04 10:07:18,27.69849,85.33811666666666,9.95,9.819006444822797,"Little Kathmandu, Devkota Sadak, Baneshwar, Kathmandu 44703, Nepal",27.6985306,85.3380281,Little Kathmandu,,Devkota Sadak,44703,Kathmandu-10,Baneshwar,Kathmandu,Kathmandu,Bagmati Province,Nepal,np,© OpenStreetMap contributors,Open Database License,https://www.openstreetmap.org/copyright
44052410,250,2019-12-04 10:07:47,27.699211666666667,85.338355,0.42,10.508830034232133,"Ever Green Restaurant and Cafe, Kathmandu, Kathmandu 44703, Nepal",27.699247,85.338454,Ever Green Restaurant and Cafe,,,44703,,,Kathmandu,Kathmandu,Three,Nepal,np,© OpenStreetMap contributors,Open Database License,https://www.openstreetmap.org/copyright
44052949,250,2019-12-04 10:08:17,27.699241666666666,85.33838333333334,1.28,6.98251122878379,"Ever Green Restaurant and Cafe, Kathmandu, Kathmandu 44703, Nepal",27.699247,85.338454,Ever Green Restaurant and Cafe,,,44703,,,Kathmandu,Kathmandu,Three,Nepal,np,© OpenStreetMap contributors,Open Database License,https://www.openstreetmap.org/copyright
44053478,250,2019-12-04 10:08:46,27.700505,85.339255,11.52,6.523556493216669,"SAIM College, Kathmandu, Kathmandu 44703, Nepal",27.700471,85.339201,SAIM College,,,44703,,,Kathmandu,Kathmandu,Three,Nepal,np,© OpenStreetMap contributors,Open Database License,https://www.openstreetmap.org/copyright
44054045,250,2019-12-04 10:09:17,27.700625,85.33958833333334,0.43,5.761978646404223,"Tempo Stop Near Old Baneshwar, Kathmandu, Kathmandu 44703, Nepal",27.700609,85.339644,Tempo Stop Near Old Baneshwar,,,44703,,,Kathmandu,Kathmandu,Three,Nepal,np,© OpenStreetMap contributors,Open Database License,https://www.openstreetmap.org/copyright
44054545,250,2019-12-04 10:09:46,27.700686666666662,85.33960166666667,0.07,5.16967190413819,"Himalayan Cooperative, Kathmandu, Kathmandu 44703, Nepal",27.700733,85.339606,Himalayan Cooperative,,,44703,,,Kathmandu,Kathmandu,Three,Nepal,np,© OpenStreetMap contributors,Open Database License,https://www.openstreetmap.org/copyright
44055056,250,2019-12-04 10:10:16,27.700961666666668,85.33977833333333,3.3,6.486562688964172,"Hidden Leaf Game Station, Kathmandu, Kathmandu 44703, Nepal",27.700923,85.339729,Hidden Leaf Game Station,,,44703,,,Kathmandu,Kathmandu,Three,Nepal,np,© OpenStreetMap contributors,Open Database License,https://www.openstreetmap.org/copyright
44061760,250,2019-12-04 10:16:43,27.708021666666667,85.338105,14.72,7.99007102933848,"Nice Tailor, Pashupati Sadak, Chabahil, Kathmandu 44660, Nepal",27.708124249999997,85.33812175,Nice Tailor,,Pashupati Sadak,44660,Kathmandu-07,Chabahil,Kathmandu,Kathmandu,Bagmati Province,Nepal,np,© OpenStreetMap contributors,Open Database License,https://www.openstreetmap.org/copyright
44062279,250,2019-12-04 10:17:13,27.70809833333333,85.33676,7.75,10.124764113770288,"Ratopul, Chabahil, Kathmandu 44660, Nepal",27.708086,85.3368619,Ratopul,,Ratopul,44660,Kathmandu-30,Chabahil,Kathmandu,Kathmandu,Bagmati Province,Nepal,np,© OpenStreetMap contributors,Open Database License,https://www.openstreetmap.org/copyright
44062841,250,2019-12-04 10:17:46,27.708191666666668,85.334935,14.4,9.341068338653415,"Spaak Shoes Stores, Pashupati Sadak, Maitidevi, Kathmandu 44605, Nepal",27.7082745,85.3349508,Spaak Shoes Stores,,Pashupati Sadak,44605,Kathmandu-30,Maitidevi,Kathmandu,Kathmandu,Bagmati Province,Nepal,np,© OpenStreetMap contributors,Open Database License,https://www.openstreetmap.org/copyright
44063285,250,2019-12-04 10:18:12,27.70819333333333,85.33333833333333,5.63,21.86322684478766,"Subidha Travel, Pashupati Marga, Kathmandu, Kathmandu 44605, Nepal",27.708218,85.333118,Subidha Travel,,Pashupati Marga,44605,,,Kathmandu,Kathmandu,Three,Nepal,np,© OpenStreetMap contributors,Open Database License,https://www.openstreetmap.org/copyright
44063854,250,2019-12-04 10:18:42,27.70861,85.33202833333333,4.19,0.6469068741605903,"Maitidevi, Kathmandu 44605, Nepal",27.7086373,85.3319646,,,,44605,Kathmandu-30,Maitidevi,Kathmandu,Kathmandu,Bagmati Province,Nepal,np,© OpenStreetMap contributors,Open Database License,https://www.openstreetmap.org/copyright
44064360,250,2019-12-04 10:19:12,27.709765,85.33260333333334,10.17,1.7504364312397285,"Maitidevi, Kathmandu 00975, Nepal",27.7097919,85.3324272,,,,00975,Kathmandu-30,Maitidevi,Kathmandu,Kathmandu,Bagmati Province,Nepal,np,© OpenStreetMap contributors,Open Database License,https://www.openstreetmap.org/copyright
44064886,250,2019-12-04 10:19:42,27.71096333333333,85.33331833333334,13.56,21.65720475762789,"Prakash New Generation Motorcycle Workshop, Kathmandu, Kathmandu 00975, Nepal",27.71079,85.333218,Prakash New Generation Motorcycle Workshop,,,00975,,,Kathmandu,Kathmandu,Three,Nepal,np,© OpenStreetMap contributors,Open Database License,https://www.openstreetmap.org/copyright
45464092,250,2019-12-05 09:31:02,27.710296666666668,85.332995,11.45,9.083065633159281,"ज्ञानेश्वर मार्ग, Kathmandu, Kathmandu 00975, Nepal",27.710215,85.332997,,,ज्ञानेश्वर मार्ग,00975,,,Kathmandu,Kathmandu,Three,Nepal,np,© OpenStreetMap contributors,Open Database License,https://www.openstreetmap.org/copyright
45464615,250,2019-12-05 09:31:32,27.708945,85.332105,6.6,5.020729240609018,"Attic Bar & Resturant, Gyaneshwar Marg, Maitidevi, Kathmandu 00975, Nepal",27.7089433,85.33229365054419,Attic Bar & Resturant,,Gyaneshwar Marg,00975,Kathmandu-30,Maitidevi,Kathmandu,Kathmandu,Bagmati Province,Nepal,np,© OpenStreetMap contributors,Open Database License,https://www.openstreetmap.org/copyright
45465124,250,2019-12-05 09:32:01,27.708335,85.33312333333333,9.9,13.00027477197197,"Subidha Travel, Pashupati Marga, Maitidevi, Kathmandu 44605, Nepal",27.7082182,85.3331175,Subidha Travel,,Pashupati Marga,44605,Kathmandu-30,Maitidevi,Kathmandu,Kathmandu,Bagmati Province,Nepal,np,© OpenStreetMap contributors,Open Database License,https://www.openstreetmap.org/copyright
45465642,250,2019-12-05 09:32:32,27.707366666666665,85.333345,2.66,13.468730328476063,"AM/PM Cafe and Bar, Maiti Devi marg, Maitidevi, Kathmandu 44605, Nepal",27.7073033,85.3334616,AM/PM Cafe and Bar,,Maiti Devi marg,44605,Kathmandu-30,Maitidevi,Kathmandu,Kathmandu,Bagmati Province,Nepal,np,© OpenStreetMap contributors,Open Database License,https://www.openstreetmap.org/copyright
45466414,250,2019-12-05 09:33:16,27.70638,85.33365166666667,9.52,1.9042634882465501,"Maitidevi Temple stop, Kathmandu, Kathmandu 00446, Nepal",27.706365,85.333661,Maitidevi Temple stop,,,00446,,,Kathmandu,Kathmandu,Three,Nepal,np,© OpenStreetMap contributors,Open Database License,https://www.openstreetmap.org/copyright
45466663,250,2019-12-05 09:33:31,27.706165,85.333805,0.19,7.969515062992994,"Maitidevi Sweet House, Maiti Devi marg, Maitidevi, Kathmandu 00446, Nepal",27.7061676,85.3337241,Maitidevi Sweet House,,Maiti Devi marg,00446,Kathmandu-30,Maitidevi,Kathmandu,Kathmandu,Bagmati Province,Nepal,np,© OpenStreetMap contributors,Open Database License,https://www.openstreetmap.org/copyright
45467199,250,2019-12-05 09:34:00,27.70572,85.33367,5.74,25.912144846202295,"Lord Buddha School, Pancha Kumari Marg, Maitidevi, Kathmandu 00446, Nepal",27.7055504,85.33348949089202,Lord Buddha School,,Pancha Kumari Marg,00446,Kathmandu-30,Maitidevi,Kathmandu,Kathmandu,Bagmati Province,Nepal,np,© OpenStreetMap contributors,Open Database License,https://www.openstreetmap.org/copyright
45467735,250,2019-12-05 09:34:31,27.70443,85.33303,6.24,25.228889832144787,"Western Union Money Transfer, Maiti Devi marg, Maitidevi, Kathmandu 00446, Nepal",27.7046376,85.3331334,Western Union Money Transfer,,Maiti Devi marg,00446,Kathmandu-30,Maitidevi,Kathmandu,Kathmandu,Bagmati Province,Nepal,np,© OpenStreetMap contributors,Open Database License,https://www.openstreetmap.org/copyright
45468233,250,2019-12-05 09:35:00,27.704256666666662,85.33289166666667,0.58,9.38292896982138,"The Pizza Fire, Maiti Devi marg, Maitidevi, Kathmandu 00446, Nepal",27.7042885,85.3328034,The Pizza Fire,,Maiti Devi marg,00446,Kathmandu-30,Maitidevi,Kathmandu,Kathmandu,Bagmati Province,Nepal,np,© OpenStreetMap contributors,Open Database License,https://www.openstreetmap.org/copyright
45468745,250,2019-12-05 09:35:30,27.70400833333333,85.33256833333333,0.42,3.823097876870464,"APOLLO POLYCLINIC एपोलो पोलि क्लिनिक ।, Dillibazar Sadak, Dillibazar, Kathmandu 44605, Nepal",27.7040415,85.3325581,APOLLO POLYCLINIC एपोलो पोलि क्लिनिक ।,,Dillibazar Sadak,44605,Kathmandu-30,Dillibazar,Kathmandu,Kathmandu,Bagmati Province,Nepal,np,© OpenStreetMap contributors,Open Database License,https://www.openstreetmap.org/copyright
45469270,250,2019-12-05 09:36:00,27.704083333333333,85.33223333333333,8.37,2.0911140008055757,"Phoenix College, Dillibazar Sadak, Dillibazar, Kathmandu 44605, Nepal",27.7041506,85.332160977999,Phoenix College,,Dillibazar Sadak,44605,Kathmandu-30,Dillibazar,Kathmandu,Kathmandu,Bagmati Province,Nepal,np,© OpenStreetMap contributors,Open Database License,https://www.openstreetmap.org/copyright
45469785,250,2019-12-05 09:36:29,27.704496666666667,85.33081166666666,0.56,9.383324676879782,"Bank of Asia, Kathmandu, Kathmandu 44605, Nepal",27.704567,85.330759,Bank of Asia,,,44605,,,Kathmandu,Kathmandu,Three,Nepal,np,© OpenStreetMap contributors,Open Database License,https://www.openstreetmap.org/copyright
45470321,250,2019-12-05 09:36:59,27.70471333333333,85.330265,13.45,31.18191148135716,"Nevolution Tech Pvt. Ltd., Dillibazar Sadak, Dillibazar, Kathmandu 44605, Nepal",27.7045265,85.3305012,Nevolution Tech Pvt. Ltd.,,Dillibazar Sadak,44605,Kathmandu-30,Dillibazar,Kathmandu,Kathmandu,Bagmati Province,Nepal,np,© OpenStreetMap contributors,Open Database License,https://www.openstreetmap.org/copyright
45470837,250,2019-12-05 09:37:29,27.705013333333333,85.32933666666666,0.15,0,"Kathmandu Metropolitan Ward 29, Gyaneshwar Marg, Dillibazar, Kathmandu 44605, Nepal",27.7050604,85.32927955286168,Kathmandu Metropolitan Ward 29,,Gyaneshwar Marg,44605,Kathmandu-30,Dillibazar,Kathmandu,Kathmandu,Bagmati Province,Nepal,np,© OpenStreetMap contributors,Open Database License,https://www.openstreetmap.org/copyright
45471373,250,2019-12-05 09:37:59,27.705265,85.32811666666667,12.01,20.151668246187967,"Destiny Educational Institute, Dillibazar Sadak 30, Kathmandu, Kathmandu 44600, Nepal",27.705194,85.328305,Destiny Educational Institute,30,Dillibazar Sadak,44600,,,Kathmandu,Kathmandu,Three,Nepal,np,© OpenStreetMap contributors,Open Database License,https://www.openstreetmap.org/copyright
45471881,250,2019-12-05 09:38:29,27.70543333333333,85.32712333333333,6.54,23.367474645051555,"Ram Mandir, Kathmandu, Kathmandu 44605, Nepal",27.705502,85.326899,Ram Mandir,,,44605,,,Kathmandu,Kathmandu,Three,Nepal,np,© OpenStreetMap contributors,Open Database License,https://www.openstreetmap.org/copyright
45472410,250,2019-12-05 09:38:58,27.70548833333333,85.32588166666666,0.31,13.432800207787393,"Furniture Trade Link, Kathmandu, Kathmandu 44605, Nepal",27.705559,85.325771,Furniture Trade Link,,,44605,,,Kathmandu,Kathmandu,Three,Nepal,np,© OpenStreetMap contributors,Open Database License,https://www.openstreetmap.org/copyright
45472935,250,2019-12-05 09:39:28,27.705526666666668,85.32554666666667,5.02,2.269031947562527,"Flashpoint Cyber And Communications, Gurju Marg, Dillibazar, Kathmandu 44605, Nepal",27.70561785,85.32546367945423,Flashpoint Cyber And Communications,,Gurju Marg,44605,Kathmandu-30,Dillibazar,Kathmandu,Kathmandu,Bagmati Province,Nepal,np,© OpenStreetMap contributors,Open Database License,https://www.openstreetmap.org/copyright
45473455,250,2019-12-05 09:39:58,27.705606666666668,85.32445333333334,1.71,49.83345870515352,"Punya Mansion, Dilli Bazaar Road 33, Kathmandu, Kathmandu 00977, Nepal",27.705795,85.323994,Punya Mansion,33,Dilli Bazaar Road,00977,,,Kathmandu,Kathmandu,Three,Nepal,np,© OpenStreetMap contributors,Open Database License,https://www.openstreetmap.org/copyright
45473992,250,2019-12-05 09:40:29,27.705745,85.3235,0.34,43.835163962461614,"Fine education Foundation Pvt. Ltd, Putali Sadak 3rd Floor, Dillibazar, Kathmandu 46600, Nepal",27.7058806,85.3230819,Fine education Foundation Pvt. Ltd,3rd Floor,Putali Sadak,46600,Kathmandu-30,Dillibazar,Kathmandu,Kathmandu,Bagmati Province,Nepal,np,© OpenStreetMap contributors,Open Database License,https://www.openstreetmap.org/copyright
45474487,250,2019-12-05 09:40:57,27.70568,85.32307833333333,1.26,12.703905103502844,"Alta-Vista, A school of Spanish Language, Putalisadak Chowk 1306, Kathmandu, Kathmandu GPO 8975 EPC 5067, Nepal",27.705746,85.322973,"Alta-Vista, A school of Spanish Language",1306,Putalisadak Chowk,GPO 8975 EPC 5067,,,Kathmandu,Kathmandu,Three,Nepal,np,© OpenStreetMap contributors,Open Database License,https://www.openstreetmap.org/copyright
45474999,250,2019-12-05 09:41:27,27.705055,85.32287333333333,2.94,1.9120594344798512,"Computer Shop, Putali Sadak, Bansh Ghari, Kathmandu 46600, Nepal",27.7050563,85.3228927,Computer Shop,,Putali Sadak,46600,Kathmandu-28,Bansh Ghari,Kathmandu,Kathmandu,Bagmati Province,Nepal,np,© OpenStreetMap contributors,Open Database License,https://www.openstreetmap.org/copyright
45475505,250,2019-12-05 09:41:57,27.703416666666666,85.32253666666666,10.05,4.903628679891397,"Nova Education And Consulting Services, Kathmandu, Kathmandu 46600, Nepal",27.70342,85.322487,Nova Education And Consulting Services,,,46600,,,Kathmandu,Kathmandu,Three,Nepal,np,© OpenStreetMap contributors,Open Database License,https://www.openstreetmap.org/copyright
45476049,250,2019-12-05 09:42:27,27.702898333333334,85.32243833333334,0.77,4.369610275814167,"BM Abroad Documentation center, Putali Sadak, Baghbazar, Kathmandu 44605, Nepal",27.7029083,85.3223954,BM Abroad Documentation center,,Putali Sadak,44605,Kathmandu-28,Baghbazar,Kathmandu,Kathmandu,Bagmati Province,Nepal,np,© OpenStreetMap contributors,Open Database License,https://www.openstreetmap.org/copyright
45476586,250,2019-12-05 09:42:57,27.70208833333333,85.32227,0.77,3.5695195394016155,"United Saving And Credit Cooperative Ltd, Putali Sadak, Baghbazar, Kathmandu 44605, Nepal",27.7020582,85.3222825,United Saving And Credit Cooperative Ltd,,Putali Sadak,44605,Kathmandu-28,Baghbazar,Kathmandu,Kathmandu,Bagmati Province,Nepal,np,© OpenStreetMap contributors,Open Database License,https://www.openstreetmap.org/copyright
45477130,250,2019-12-05 09:43:26,27.70079,85.32210833333333,10.2,8.204225213875933,"Manjari Prakasan Griha, Kathmandu, Kathmandu 44605, Nepal",27.70079,85.322025,Manjari Prakasan Griha,,,44605,,,Kathmandu,Kathmandu,Three,Nepal,np,© OpenStreetMap contributors,Open Database License,https://www.openstreetmap.org/copyright
45477659,250,2019-12-05 09:43:56,27.70035,85.322065,0.0,15.603587198376331,"Avant Saving and Credit Co-operatives, Ram Shah Path, Baghbazar, Kathmandu 44605, Nepal",27.700364,85.3219073,Avant Saving and Credit Co-operatives,,Ram Shah Path,44605,Kathmandu-28,Baghbazar,Kathmandu,Kathmandu,Bagmati Province,Nepal,np,© OpenStreetMap contributors,Open Database License,https://www.openstreetmap.org/copyright
45478229,250,2019-12-05 09:44:27,27.700285,85.32205833333333,0.04,14.624316569147249,"City Express Money Transfer, Kathmandu, Kathmandu 44605, Nepal",27.700292,85.32191,City Express Money Transfer,,,44605,,,Kathmandu,Kathmandu,Three,Nepal,np,© OpenStreetMap contributors,Open Database License,https://www.openstreetmap.org/copyright
45478741,250,2019-12-05 09:44:56,27.699845,85.32196666666667,2.94,16.02313811503772,"Shree Saii Digital Photo Studio, Ram Shah Path, Baghbazar, Kathmandu 44605, Nepal",27.6999246,85.321831,Shree Saii Digital Photo Studio,,Ram Shah Path,44605,Kathmandu-28,Baghbazar,Kathmandu,Kathmandu,Bagmati Province,Nepal,np,© OpenStreetMap contributors,Open Database License,https://www.openstreetmap.org/copyright
45479261,250,2019-12-05 09:45:26,27.699396666666665,85.32185,8.76,17.656650937940842,"Supreme court nirmadh sthal, Ram Shah Path, Baghbazar, Kathmandu 44605, Nepal",27.699494,85.3219917,Supreme court nirmadh sthal,,Ram Shah Path,44605,Kathmandu-29,Baghbazar,Kathmandu,Kathmandu,Bagmati Province,Nepal,np,© OpenStreetMap contributors,Open Database License,https://www.openstreetmap.org/copyright
45479810,250,2019-12-05 09:45:55,27.69843833333333,85.32162666666666,9.69,2.2484794517038673,"Ram Shah Path, Bansh Ghari, Kathmandu 00446, Nepal",27.6984899,85.3216621,Ram Shah Path,,Ram Shah Path,00446,Kathmandu-29,Bansh Ghari,Kathmandu,Kathmandu,Bagmati Province,Nepal,np,© OpenStreetMap contributors,Open Database License,https://www.openstreetmap.org/copyright
45480358,250,2019-12-05 09:46:25,27.697006666666667,85.32130166666667,7.02,33.952918638121936,"Nepal Bank Limited ATM, Ram Shah Path, Kathmandu, Kathmandu 00446, Nepal",27.6967584,85.3211009,Nepal Bank Limited ATM,,Ram Shah Path,00446,Kathmandu-11,,Kathmandu,Kathmandu,Bagmati Province,Nepal,np,© OpenStreetMap contributors,Open Database License,https://www.openstreetmap.org/copyright
45480880,250,2019-12-05 09:46:55,27.69621666666667,85.32113,3.95,1.1987252412070875,"Ram Shah Path, Bansh Ghari, Kathmandu 00446, Nepal",27.695921,85.321048,Ram Shah Path,,Ram Shah Path,00446,Kathmandu-29,Bansh Ghari,Kathmandu,Kathmandu,Bagmati Province,Nepal,np,© OpenStreetMap contributors,Open Database License,https://www.openstreetmap.org/copyright
45481397,250,2019-12-05 09:47:25,27.6954,85.32096666666666,5.45,2.4879491581566264,"Singh Durbar, Saras Marg, Ghattekulo, Kathmandu 00446, Nepal",27.696478149999997,85.32461913495442,Singh Durbar,,Saras Marg,00446,Kathmandu-29,Ghattekulo,Kathmandu,Kathmandu,Bagmati Province,Nepal,np,© OpenStreetMap contributors,Open Database License,https://www.openstreetmap.org/copyright
45481924,250,2019-12-05 09:47:54,27.69421333333333,85.3209,9.51,6.315023475047054,"PI Academy, Kathmandu, Kathmandu 44617, Nepal",27.694266,85.320876,PI Academy,,,44617,,,Kathmandu,Kathmandu,Three,Nepal,np,© OpenStreetMap contributors,Open Database License,https://www.openstreetmap.org/copyright
45482444,250,2019-12-05 09:48:24,27.694088333333333,85.321125,0.16,27.551702993980925,"Gaurav Marg, Thapathali, Kathmandu 44617, Nepal",27.69406,85.321403,,,Gaurav Marg,44617,,Thapathali,Kathmandu,Kathmandu,Three,Nepal,np,© OpenStreetMap contributors,Open Database License,https://www.openstreetmap.org/copyright
45482965,250,2019-12-05 09:48:54,27.69409333333333,85.32115166666667,0.06,25.021515004229343,"Gaurav Marg, Thapathali, Kathmandu 44617, Nepal",27.69406,85.321403,,,Gaurav Marg,44617,,Thapathali,Kathmandu,Kathmandu,Three,Nepal,np,© OpenStreetMap contributors,Open Database License,https://www.openstreetmap.org/copyright
45483476,250,2019-12-05 09:49:24,27.69376833333333,85.321565,13.08,4.201925099181769,"Kathmandu, Kathmandu 44617, Nepal",27.6922553,85.324616,,,,44617,Kathmandu-11,,Kathmandu,Kathmandu,Bagmati Province,Nepal,np,© OpenStreetMap contributors,Open Database License,https://www.openstreetmap.org/copyright
45483988,250,2019-12-05 09:49:54,27.692816666666666,85.3237,13.73,2.6370552767433306,"शहरी बिकास तथा भवन निर्माण विभाग, Tanka Prasad Ghumti Sadak, Bansh Ghari, Kathmandu 44617, Nepal",27.69372645,85.32333557287294,शहरी बिकास तथा भवन निर्माण विभाग,,Tanka Prasad Ghumti Sadak,44617,Kathmandu-11,Bansh Ghari,Kathmandu,Kathmandu,Bagmati Province,Nepal,np,© OpenStreetMap contributors,Open Database License,https://www.openstreetmap.org/copyright
45484590,250,2019-12-05 09:50:26,27.691906666666668,85.32553833333333,14.13,8.035935571398939,"Kathmandu, Kathmandu 44617, Nepal",27.6922553,85.324616,,,,44617,Kathmandu-11,,Kathmandu,Kathmandu,Bagmati Province,Nepal,np,© OpenStreetMap contributors,Open Database License,https://www.openstreetmap.org/copyright
45485082,250,2019-12-05 09:50:54,27.691176666666667,85.32710166666666,18.28,8.24754380233197,"Kathmandu, Kathmandu 44617, Nepal",27.6922553,85.324616,,,,44617,Kathmandu-11,,Kathmandu,Kathmandu,Bagmati Province,Nepal,np,© OpenStreetMap contributors,Open Database License,https://www.openstreetmap.org/copyright
45485583,250,2019-12-05 09:51:23,27.690456666666662,85.32839666666666,12.22,5.287003158245133,"Kathmandu, Kathmandu 44617, Nepal",27.6905379,85.3281156,,,,44617,Kathmandu-11,,Kathmandu,Kathmandu,Bagmati Province,Nepal,np,© OpenStreetMap contributors,Open Database License,https://www.openstreetmap.org/copyright
45486094,250,2019-12-05 09:51:53,27.689856666666667,85.32977166666667,11.71,2.3100743826576178,"Buddha Nagar, Kathmandu 44617, Nepal",27.6891539,85.3320663,,,,44617,Kathmandu-10,Buddha Nagar,Kathmandu,Kathmandu,Bagmati Province,Nepal,np,© OpenStreetMap contributors,Open Database License,https://www.openstreetmap.org/copyright
45486620,250,2019-12-05 09:52:23,27.689181666666663,85.331885,15.12,1.520604739505498,"Buddha Nagar, Kathmandu 44617, Nepal",27.6891539,85.3320663,,,,44617,Kathmandu-10,Buddha Nagar,Kathmandu,Kathmandu,Bagmati Province,Nepal,np,© OpenStreetMap contributors,Open Database License,https://www.openstreetmap.org/copyright
45487139,250,2019-12-05 09:52:52,27.688916666666668,85.33302333333333,2.05,2.9443274263280736,"Buddha Nagar, Kathmandu 44617, Nepal",27.6891539,85.3320663,,,,44617,Kathmandu-10,Buddha Nagar,Kathmandu,Kathmandu,Bagmati Province,Nepal,np,© OpenStreetMap contributors,Open Database License,https://www.openstreetmap.org/copyright
45487666,250,2019-12-05 09:53:23,27.688666666666663,85.33417666666666,1.34,1.5399044463494245,"Buddha Nagar, Kathmandu 44617, Nepal",27.6891539,85.3320663,,,,44617,Kathmandu-10,Buddha Nagar,Kathmandu,Kathmandu,Bagmati Province,Nepal,np,© OpenStreetMap contributors,Open Database License,https://www.openstreetmap.org/copyright
45488272,250,2019-12-05 09:53:57,27.68867,85.33418833333333,0.12,0.8944486849552535,"Buddha Nagar, Kathmandu 44617, Nepal",27.6891539,85.3320663,,,,44617,Kathmandu-10,Buddha Nagar,Kathmandu,Kathmandu,Bagmati Province,Nepal,np,© OpenStreetMap contributors,Open Database License,https://www.openstreetmap.org/copyright
45488704,250,2019-12-05 09:54:22,27.688666666666663,85.33417833333333,0.09,1.4989729706768418,"Buddha Nagar, Kathmandu 44617, Nepal",27.6891539,85.3320663,,,,44617,Kathmandu-10,Buddha Nagar,Kathmandu,Kathmandu,Bagmati Province,Nepal,np,© OpenStreetMap contributors,Open Database License,https://www.openstreetmap.org/copyright
45489330,250,2019-12-05 09:54:55,27.688626666666668,85.33458833333333,4.13,3.9401837287187025,"Buddha Nagar, Kathmandu 44617, Nepal",27.6891539,85.3320663,,,,44617,Kathmandu-10,Buddha Nagar,Kathmandu,Kathmandu,Bagmati Province,Nepal,np,© OpenStreetMap contributors,Open Database License,https://www.openstreetmap.org/copyright
45489773,250,2019-12-05 09:55:21,27.688413333333333,85.33543666666667,3.11,0.8164136177760465,"Buddha Nagar, Kathmandu 44617, Nepal",27.6891539,85.3320663,,,,44617,Kathmandu-10,Buddha Nagar,Kathmandu,Kathmandu,Bagmati Province,Nepal,np,© OpenStreetMap contributors,Open Database License,https://www.openstreetmap.org/copyright
45490331,250,2019-12-05 09:55:52,27.690005,85.33585,14.17,17.25961364345324,"ChhakkuBakku Park, Naya Baneshwar Sadak New Baneshwor, Kathmandu, Kathmandu 44617, Nepal",27.689996,85.335675,ChhakkuBakku Park,New Baneshwor,Naya Baneshwar Sadak,44617,,,Kathmandu,Kathmandu,Three,Nepal,np,© OpenStreetMap contributors,Open Database License,https://www.openstreetmap.org/copyright
45490813,250,2019-12-05 09:56:21,27.690875,85.33603666666667,0.42,7.121164277279676,"Budathoki Driving Training Center, Devkota Sadak, Buddha Nagar, Kathmandu 00446, Nepal",27.6909161,85.3359812,Budathoki Driving Training Center,,Devkota Sadak,00446,Kathmandu-10,Buddha Nagar,Kathmandu,Kathmandu,Bagmati Province,Nepal,np,© OpenStreetMap contributors,Open Database License,https://www.openstreetmap.org/copyright
45491357,250,2019-12-05 09:56:51,27.691716666666668,85.33615666666667,2.2,21.163516168613885,"Jyoti Bikash Bank Ltd, Devkota Sadak, Buddha Nagar, Kathmandu 00446, Nepal",27.6915694,85.3360205,Jyoti Bikash Bank Ltd,,Devkota Sadak,00446,Kathmandu-10,Buddha Nagar,Kathmandu,Kathmandu,Bagmati Province,Nepal,np,© OpenStreetMap contributors,Open Database License,https://www.openstreetmap.org/copyright
45491923,250,2019-12-05 09:57:20,27.692151666666668,85.33617,1.16,65.1138391807215,"Yes Informatics, Devkota Sadak 10, Baneshwar, Kathmandu 44600, Nepal",27.69273655,85.33620229628806,Yes Informatics,10,Devkota Sadak,44600,Kathmandu-10,Baneshwar,Kathmandu,Kathmandu,Bagmati Province,Nepal,np,© OpenStreetMap contributors,Open Database License,https://www.openstreetmap.org/copyright
45492428,250,2019-12-05 09:57:50,27.692485,85.336285,0.93,28.96428805821409,"Yes Informatics, Devkota Sadak 10, Kathmandu, Kathmandu 44600, Nepal",27.692738,85.336215,Yes Informatics,10,Devkota Sadak,44600,,,Kathmandu,Kathmandu,Three,Nepal,np,© OpenStreetMap contributors,Open Database License,https://www.openstreetmap.org/copyright
45492947,250,2019-12-05 09:58:20,27.693456666666663,85.33682,3.77,22.550862082117465,"Sandar MoMo, Devkota Sadak, Baneshwar, Kathmandu 00446, Nepal",27.693657549999998,85.33711741084306,Sandar MoMo,,Devkota Sadak,00446,Kathmandu-10,Baneshwar,Kathmandu,Kathmandu,Bagmati Province,Nepal,np,© OpenStreetMap contributors,Open Database License,https://www.openstreetmap.org/copyright
45493459,250,2019-12-05 09:58:50,27.69363333333333,85.33698333333334,3.16,6.686815984442293,"nepal sahakari bitiya sastha l.td, Devkota Sadak, Baneshwar, Kathmandu 00446, Nepal",27.6937122,85.33690168995486,nepal sahakari bitiya sastha l.td,,Devkota Sadak,00446,Kathmandu-10,Baneshwar,Kathmandu,Kathmandu,Bagmati Province,Nepal,np,© OpenStreetMap contributors,Open Database License,https://www.openstreetmap.org/copyright
45493985,250,2019-12-05 09:59:20,27.694053333333333,85.33713333333333,3.75,2.8642633995792153,"Old Whitehouse International College, Devkota Sadak, Baneshwar, Kathmandu 00446, Nepal",27.69402185,85.33730716567752,Old Whitehouse International College,,Devkota Sadak,00446,Kathmandu-10,Baneshwar,Kathmandu,Kathmandu,Bagmati Province,Nepal,np,© OpenStreetMap contributors,Open Database License,https://www.openstreetmap.org/copyright
45494484,250,2019-12-05 09:59:49,27.694795,85.33732166666667,6.9,2.591625507150667,"Dhungedhara, Devkota Sadak, Baneshwar, Kathmandu 44703, Nepal",27.6947997,85.33739752842871,Dhungedhara,,Devkota Sadak,44703,Kathmandu-10,Baneshwar,Kathmandu,Kathmandu,Bagmati Province,Nepal,np,© OpenStreetMap contributors,Open Database License,https://www.openstreetmap.org/copyright
45495020,250,2019-12-05 10:00:20,27.69564,85.33759333333333,1.1,9.053556293337332,"Ratna Rajya Stop, Kathmandu, Kathmandu 44703, Nepal",27.695559,85.337584,Ratna Rajya Stop,,,44703,,,Kathmandu,Kathmandu,Three,Nepal,np,© OpenStreetMap contributors,Open Database License,https://www.openstreetmap.org/copyright
45495513,250,2019-12-05 10:00:49,27.69588333333333,85.33763166666667,2.63,3.984562607219212,"Naya Baneshwar, Kathmandu 44703, Nepal",27.6958546,85.3379355,,,,44703,Kathmandu-31,Naya Baneshwar,Kathmandu,Kathmandu,Bagmati Province,Nepal,np,© OpenStreetMap contributors,Open Database License,https://www.openstreetmap.org/copyright
45496037,250,2019-12-05 10:01:19,27.696311666666663,85.33759333333333,0.49,5.739236839269484,"Sunway International Business School, Devkota Sadak, Baneshwar, Kathmandu 44703, Nepal",27.6962397,85.3377140452759,Sunway International Business School,,Devkota Sadak,44703,Kathmandu-10,Baneshwar,Kathmandu,Kathmandu,Bagmati Province,Nepal,np,© OpenStreetMap contributors,Open Database License,https://www.openstreetmap.org/copyright
45496568,250,2019-12-05 10:01:49,27.69656,85.337645,0.18,7.960788453411951,"Central Cafe, Devkota Sadak, Baneshwar, Kathmandu 44703, Nepal",27.6965573,85.3377258,Central Cafe,,Devkota Sadak,44703,Kathmandu-10,Baneshwar,Kathmandu,Kathmandu,Bagmati Province,Nepal,np,© OpenStreetMap contributors,Open Database License,https://www.openstreetmap.org/copyright
45497078,250,2019-12-05 10:02:18,27.696745,85.33768666666667,0.58,13.71731961630927,"The Pizza Cutter, Kathmandu, Kathmandu 44703, Nepal",27.696637,85.337754,The Pizza Cutter,,,44703,,,Kathmandu,Kathmandu,Three,Nepal,np,© OpenStreetMap contributors,Open Database License,https://www.openstreetmap.org/copyright
45497597,250,2019-12-05 10:02:48,27.697121666666668,85.33778333333333,6.89,9.405941964054932,"Shrestha electronic, Devkota Sadak, Baneshwar, Kathmandu 44703, Nepal",27.6970803,85.3377,Shrestha electronic,,Devkota Sadak,44703,Kathmandu-10,Baneshwar,Kathmandu,Kathmandu,Bagmati Province,Nepal,np,© OpenStreetMap contributors,Open Database License,https://www.openstreetmap.org/copyright
45498113,250,2019-12-05 10:03:18,27.69862,85.33816,11.18,7.779530863630047,"Apex College, Devkota Sadak, Baneshwar, Kathmandu 44703, Nepal",27.6989896,85.33804992574136,Apex College,,Devkota Sadak,44703,Kathmandu-10,Baneshwar,Kathmandu,Kathmandu,Bagmati Province,Nepal,np,© OpenStreetMap contributors,Open Database License,https://www.openstreetmap.org/copyright
45498656,250,2019-12-05 10:03:48,27.699155,85.33836166666667,0.39,12.687706047491497,"Apex College Stop, Kathmandu, Kathmandu 44703, Nepal",27.699062,85.338287,Apex College Stop,,,44703,,,Kathmandu,Kathmandu,Three,Nepal,np,© OpenStreetMap contributors,Open Database License,https://www.openstreetmap.org/copyright
45499194,250,2019-12-05 10:04:18,27.69928833333333,85.33836833333334,1.41,4.890128273659576,"The Bakery Shop, Devkota Sadak, Baneshwar, Kathmandu 44703, Nepal",27.6993226,85.3383372,The Bakery Shop,,Devkota Sadak,44703,Kathmandu-10,Baneshwar,Kathmandu,Kathmandu,Bagmati Province,Nepal,np,© OpenStreetMap contributors,Open Database License,https://www.openstreetmap.org/copyright
45499724,250,2019-12-05 10:04:47,27.700381666666665,85.33904166666667,7.82,18.519651958258482,"SAIM College, Devkota Sadak, Baneshwar, Kathmandu 44703, Nepal",27.7004709,85.3392005,SAIM College,,Devkota Sadak,44703,Kathmandu-10,Baneshwar,Kathmandu,Kathmandu,Bagmati Province,Nepal,np,© OpenStreetMap contributors,Open Database License,https://www.openstreetmap.org/copyright
45500256,250,2019-12-05 10:05:17,27.700866666666663,85.33970833333333,4.3,5.437706051708565,"Lhaphing Centre, Kathmandu, Kathmandu 44703, Nepal",27.700913,85.339726,Lhaphing Centre,,,44703,,,Kathmandu,Kathmandu,Three,Nepal,np,© OpenStreetMap contributors,Open Database License,https://www.openstreetmap.org/copyright
45500782,250,2019-12-05 10:05:47,27.701295,85.33989,0.16,11.460527602480175,"Express Mart, Devkota Sadak, Baneshwar, Kathmandu 44703, Nepal",27.701207,85.3398294,Express Mart,,Devkota Sadak,44703,Kathmandu-10,Baneshwar,Kathmandu,Kathmandu,Bagmati Province,Nepal,np,© OpenStreetMap contributors,Open Database License,https://www.openstreetmap.org/copyright
45501555,250,2019-12-05 10:06:30,27.70132333333333,85.33992666666667,0.44,16.039471492255203,"burger king, Kathmandu, Kathmandu 44703, Nepal",27.701209,85.340026,burger king,,,44703,,,Kathmandu,Kathmandu,Three,Nepal,np,© OpenStreetMap contributors,Open Database License,https://www.openstreetmap.org/copyright
45502931,250,2019-12-05 10:07:48,27.701316666666667,85.33993666666667,0.09,14.855267902945105,"burger king, Kathmandu, Kathmandu 44703, Nepal",27.701209,85.340026,burger king,,,44703,,,Kathmandu,Kathmandu,Three,Nepal,np,© OpenStreetMap contributors,Open Database License,https://www.openstreetmap.org/copyright
45502932,250,2019-12-05 10:07:48,27.70129333333333,85.33998166666667,0.48,10.343432270822312,"burger king, Kathmandu, Kathmandu 44703, Nepal",27.701209,85.340026,burger king,,,44703,,,Kathmandu,Kathmandu,Three,Nepal,np,© OpenStreetMap contributors,Open Database License,https://www.openstreetmap.org/copyright
45502933,250,2019-12-05 10:07:48,27.701311666666665,85.339955,0.33,13.38601426442603,"burger king, Kathmandu, Kathmandu 44703, Nepal",27.701209,85.340026,burger king,,,44703,,,Kathmandu,Kathmandu,Three,Nepal,np,© OpenStreetMap contributors,Open Database License,https://www.openstreetmap.org/copyright
45503748,250,2019-12-05 10:08:32,27.701326666666667,85.33999833333333,0.05,13.364464088672808,"burger king, Kathmandu, Kathmandu 44703, Nepal",27.701209,85.340026,burger king,,,44703,,,Kathmandu,Kathmandu,Three,Nepal,np,© OpenStreetMap contributors,Open Database License,https://www.openstreetmap.org/copyright
45504144,250,2019-12-05 10:08:54,27.701361666666667,85.339915,0.15,19.15195099262276,"Express Mart, Devkota Sadak, Baneshwar, Kathmandu 44703, Nepal",27.701207,85.3398294,Express Mart,,Devkota Sadak,44703,Kathmandu-10,Baneshwar,Kathmandu,Kathmandu,Bagmati Province,Nepal,np,© OpenStreetMap contributors,Open Database License,https://www.openstreetmap.org/copyright
45504494,250,2019-12-05 10:09:15,27.701371666666667,85.33986666666667,0.08,18.67408719680276,"Express Mart, Devkota Sadak, Baneshwar, Kathmandu 44703, Nepal",27.701207,85.3398294,Express Mart,,Devkota Sadak,44703,Kathmandu-10,Baneshwar,Kathmandu,Kathmandu,Bagmati Province,Nepal,np,© OpenStreetMap contributors,Open Database License,https://www.openstreetmap.org/copyright
45505012,250,2019-12-05 10:09:45,27.701385,85.33988333333333,0.22,20.492568869799168,"Express Mart, Devkota Sadak, Baneshwar, Kathmandu 44703, Nepal",27.701207,85.3398294,Express Mart,,Devkota Sadak,44703,Kathmandu-10,Baneshwar,Kathmandu,Kathmandu,Bagmati Province,Nepal,np,© OpenStreetMap contributors,Open Database License,https://www.openstreetmap.org/copyright
45506266,250,2019-12-05 10:10:55,27.701391666666662,85.33991666666667,0.37,22.258902732424975,"Express Mart, Devkota Sadak, Baneshwar, Kathmandu 44703, Nepal",27.701207,85.3398294,Express Mart,,Devkota Sadak,44703,Kathmandu-10,Baneshwar,Kathmandu,Kathmandu,Bagmati Province,Nepal,np,© OpenStreetMap contributors,Open Database License,https://www.openstreetmap.org/copyright
45506285,250,2019-12-05 10:10:56,27.701351666666667,85.33994333333334,0.22,17.829672546107695,"burger king, Kathmandu, Kathmandu 44703, Nepal",27.701209,85.340026,burger king,,,44703,,,Kathmandu,Kathmandu,Three,Nepal,np,© OpenStreetMap contributors,Open Database License,https://www.openstreetmap.org/copyright
45510855,250,2019-12-05 10:15:13,27.707935,85.33949666666666,11.12,8.289508367011665,"Baram and Basel Furniture Showroom, Pashupati Sadak, Chabahil, Kathmandu 44660, Nepal",27.7079999,85.3395381,Baram and Basel Furniture Showroom,,Pashupati Sadak,44660,Kathmandu-07,Chabahil,Kathmandu,Kathmandu,Bagmati Province,Nepal,np,© OpenStreetMap contributors,Open Database License,https://www.openstreetmap.org/copyright
45511388,250,2019-12-05 10:15:43,27.707986666666667,85.33743833333334,10.32,9.834354425757803,"Ratopul Stop, Kathmandu, Kathmandu 44660, Nepal",27.708052,85.337371,Ratopul Stop,,,44660,,,Kathmandu,Kathmandu,Three,Nepal,np,© OpenStreetMap contributors,Open Database License,https://www.openstreetmap.org/copyright
45512307,250,2019-12-05 10:16:29,27.708096666666663,85.33599833333334,11.78,2.920477603391453,"Samarpan electrical solution, Pashupati Sadak, Maitidevi, Kathmandu 44605, Nepal",27.7080748,85.3359819,Samarpan electrical solution,,Pashupati Sadak,44605,Kathmandu-30,Maitidevi,Kathmandu,Kathmandu,Bagmati Province,Nepal,np,© OpenStreetMap contributors,Open Database License,https://www.openstreetmap.org/copyright
45512517,250,2019-12-05 10:16:42,27.708175,85.33425666666666,10.51,10.2210671476591,"Shanta Plaza, Pashupati Sadak, Maitidevi, Kathmandu 44605, Nepal",27.7080902,85.3342166,Shanta Plaza,,Pashupati Sadak,44605,Kathmandu-30,Maitidevi,Kathmandu,Kathmandu,Bagmati Province,Nepal,np,© OpenStreetMap contributors,Open Database License,https://www.openstreetmap.org/copyright
45513050,250,2019-12-05 10:17:13,27.708446666666667,85.33247833333333,10.75,2.1498776849800585,"Maitidevi, Kathmandu 44605, Nepal",27.7086373,85.3319646,,,,44605,Kathmandu-30,Maitidevi,Kathmandu,Kathmandu,Bagmati Province,Nepal,np,© OpenStreetMap contributors,Open Database License,https://www.openstreetmap.org/copyright
45513533,250,2019-12-05 10:17:42,27.708955,85.33204833333333,7.43,0.4208223454231791,"Maitidevi, Kathmandu 44605, Nepal",27.7086839,85.3318427,,,,44605,Kathmandu-30,Maitidevi,Kathmandu,Kathmandu,Bagmati Province,Nepal,np,© OpenStreetMap contributors,Open Database License,https://www.openstreetmap.org/copyright
45514049,250,2019-12-05 10:18:12,27.70969,85.33254833333334,6.43,8.880307354022865,"German Embassy, Gyaneshwar Marg, Maitidevi, Kathmandu 00975, Nepal",27.709540949999997,85.33348460677628,German Embassy,,Gyaneshwar Marg,00975,Kathmandu-30,Maitidevi,Kathmandu,Kathmandu,Bagmati Province,Nepal,np,© OpenStreetMap contributors,Open Database License,https://www.openstreetmap.org/copyright
45514563,250,2019-12-05 10:18:41,27.710705,85.333195,10.11,9.664933465974535,"Prakash New Generation Motorcycle Workshop, Gyaneshwar Marg, Maitidevi, Kathmandu 00975, Nepal",27.7107895,85.333218,Prakash New Generation Motorcycle Workshop,,Gyaneshwar Marg,00975,Kathmandu-30,Maitidevi,Kathmandu,Kathmandu,Bagmati Province,Nepal,np,© OpenStreetMap contributors,Open Database License,https://www.openstreetmap.org/copyright
46906549,250,2019-12-06 09:27:13,27.710855,85.33333,6.99,13.18333174421382,"Prakash New Generation Motorcycle Workshop, Kathmandu, Kathmandu 00975, Nepal",27.71079,85.333218,Prakash New Generation Motorcycle Workshop,,,00975,,,Kathmandu,Kathmandu,Three,Nepal,np,© OpenStreetMap contributors,Open Database License,https://www.openstreetmap.org/copyright
46907053,250,2019-12-06 09:27:43,27.70933833333333,85.332295,9.53,15.785932792598281,"International Centre for Academics, Gyaneshwar Marg, Maitidevi, Kathmandu 00975, Nepal",27.7092423,85.3324131,International Centre for Academics,,Gyaneshwar Marg,00975,Kathmandu-30,Maitidevi,Kathmandu,Kathmandu,Bagmati Province,Nepal,np,© OpenStreetMap contributors,Open Database License,https://www.openstreetmap.org/copyright
46907558,250,2019-12-06 09:28:13,27.708735,85.33203333333333,3.3,11.721111652080175,"Institute of International Management Science, Kathmandu, Kathmandu 44600, Nepal",27.708794,85.332132,Institute of International Management Science,,,44600,,,Kathmandu,Kathmandu,Three,Nepal,np,© OpenStreetMap contributors,Open Database License,https://www.openstreetmap.org/copyright
46908089,250,2019-12-06 09:28:43,27.708241666666662,85.33325333333333,2.25,13.580175362868339,"Subidha Travel, Pashupati Marga, Kathmandu, Kathmandu 44605, Nepal",27.708218,85.333118,Subidha Travel,,Pashupati Marga,44605,,,Kathmandu,Kathmandu,Three,Nepal,np,© OpenStreetMap contributors,Open Database License,https://www.openstreetmap.org/copyright
46908615,250,2019-12-06 09:29:13,27.70754833333333,85.33332333333334,5.94,30.45731597742266,"AM/PM Cafe and Bar, Maiti Devi marg, Maitidevi, Kathmandu 44605, Nepal",27.7073033,85.3334616,AM/PM Cafe and Bar,,Maiti Devi marg,44605,Kathmandu-30,Maitidevi,Kathmandu,Kathmandu,Bagmati Province,Nepal,np,© OpenStreetMap contributors,Open Database License,https://www.openstreetmap.org/copyright
46909193,250,2019-12-06 09:29:47,27.70724333333333,85.33348666666667,3.5,7.109969575295436,"AM/PM Cafe and Bar, Maiti Devi marg, Maitidevi, Kathmandu 44605, Nepal",27.7073033,85.3334616,AM/PM Cafe and Bar,,Maiti Devi marg,44605,Kathmandu-30,Maitidevi,Kathmandu,Kathmandu,Bagmati Province,Nepal,np,© OpenStreetMap contributors,Open Database License,https://www.openstreetmap.org/copyright
46909646,250,2019-12-06 09:30:12,27.706406666666663,85.33368166666666,6.23,5.060162599695024,"Maitidevi Temple stop, Kathmandu, Kathmandu 00446, Nepal",27.706365,85.333661,Maitidevi Temple stop,,,00446,,,Kathmandu,Kathmandu,Three,Nepal,np,© OpenStreetMap contributors,Open Database License,https://www.openstreetmap.org/copyright
46910157,250,2019-12-06 09:30:42,27.706155,85.33375166666667,0.12,3.0541455178473034,"Maitidevi Sweet House, Maiti Devi marg, Maitidevi, Kathmandu 00446, Nepal",27.7061676,85.3337241,Maitidevi Sweet House,,Maiti Devi marg,00446,Kathmandu-30,Maitidevi,Kathmandu,Kathmandu,Bagmati Province,Nepal,np,© OpenStreetMap contributors,Open Database License,https://www.openstreetmap.org/copyright
46910683,250,2019-12-06 09:31:12,27.705808333333334,85.33376333333334,6.99,21.557099457661682,"Maiti Devi marg, Kathmandu, Kathmandu 00446, Nepal",27.706001,85.333739,,,Maiti Devi marg,00446,,,Kathmandu,Kathmandu,Three,Nepal,np,© OpenStreetMap contributors,Open Database License,https://www.openstreetmap.org/copyright
46911205,250,2019-12-06 09:31:41,27.70461333333333,85.333105,5.21,3.885623795179578,"Western Union Money Transfer, Maiti Devi marg, Maitidevi, Kathmandu 00446, Nepal",27.7046376,85.3331334,Western Union Money Transfer,,Maiti Devi marg,00446,Kathmandu-30,Maitidevi,Kathmandu,Kathmandu,Bagmati Province,Nepal,np,© OpenStreetMap contributors,Open Database License,https://www.openstreetmap.org/copyright
46911738,250,2019-12-06 09:32:11,27.70441333333333,85.33296,0.76,20.73724959736445,"The Pizza Fire, Kathmandu, Kathmandu 00446, Nepal",27.704289,85.332803,The Pizza Fire,,,00446,,,Kathmandu,Kathmandu,Three,Nepal,np,© OpenStreetMap contributors,Open Database License,https://www.openstreetmap.org/copyright
46912294,250,2019-12-06 09:32:43,27.704163333333334,85.33281333333333,0.42,13.952230727380897,"The Pizza Fire, Maiti Devi marg, Maitidevi, Kathmandu 00446, Nepal",27.7042885,85.3328034,The Pizza Fire,,Maiti Devi marg,00446,Kathmandu-30,Maitidevi,Kathmandu,Kathmandu,Bagmati Province,Nepal,np,© OpenStreetMap contributors,Open Database License,https://www.openstreetmap.org/copyright
46912800,250,2019-12-06 09:33:11,27.70401,85.33244166666667,0.32,11.98581672958776,"APOLLO POLYCLINIC एपोलो पोलि क्लिनिक ।, Dillibazar Sadak, Dillibazar, Kathmandu 44605, Nepal",27.7040415,85.3325581,APOLLO POLYCLINIC एपोलो पोलि क्लिनिक ।,,Dillibazar Sadak,44605,Kathmandu-30,Dillibazar,Kathmandu,Kathmandu,Bagmati Province,Nepal,np,© OpenStreetMap contributors,Open Database License,https://www.openstreetmap.org/copyright
46913317,250,2019-12-06 09:33:41,27.70453333333333,85.33100166666667,10.48,7.736554223293034,"Dibyadurga boy's hostel, Kathmandu, Kathmandu 44605, Nepal",27.704602,85.330989,Dibyadurga boy's hostel,,,44605,,,Kathmandu,Kathmandu,Three,Nepal,np,© OpenStreetMap contributors,Open Database License,https://www.openstreetmap.org/copyright
46913827,250,2019-12-06 09:34:10,27.704515,85.33081166666666,0.32,7.766356760091085,"Bank of Asia, Kathmandu, Kathmandu 44605, Nepal",27.704567,85.330759,Bank of Asia,,,44605,,,Kathmandu,Kathmandu,Three,Nepal,np,© OpenStreetMap contributors,Open Database License,https://www.openstreetmap.org/copyright
