original_id,original_deviceid,original_servertime,original_latitude,original_longitude,original_speed,distance,formatted,lat,lon,name,housenumber,street,district,suburb,postcode,city,county,state,country,country_code,attribution,attribution_license,attribution_url
51226404,250,2019-12-09 10:07:55,27.68856,85.33562,5.96,18.603374856061915,"Binayak aankha clinic, Kathmandu, Kathmandu 44617, Nepal",27.688664,85.335472,Binayak aankha clinic,,,,,44617,Kathmandu,Kathmandu,Three,Nepal,np,© OpenStreetMap contributors,Open Database License,https://www.openstreetmap.org/copyright
51226905,250,2019-12-09 10:08:25,27.69016833333333,85.33591166666666,3.08,30.16956191538511,"ChhakkuBakku Park, Naya Baneshwar Sadak New Baneshwor, Kathmandu, Kathmandu 44617, Nepal",27.689996,85.335675,ChhakkuBakku Park,New Baneshwor,Naya Baneshwar Sadak,,,44617,Kathmandu,Kathmandu,Three,Nepal,np,© OpenStreetMap contributors,Open Database License,https://www.openstreetmap.org/copyright
51227643,250,2019-12-09 10:09:06,27.69078,85.33606,0.24,12.006280484933528,"Nepal Investment Bank, Old Baneshwor Road, Buddha Nagar, Kathmandu 44617, Nepal",27.69068915,85.33632049088116,Nepal Investment Bank,,Old Baneshwor Road,Kathmandu-10,Buddha Nagar,44617,Kathmandu,Kathmandu,Bagmati Province,Nepal,np,© OpenStreetMap contributors,Open Database License,https://www.openstreetmap.org/copyright
51227963,250,2019-12-09 10:09:25,27.69151833333333,85.33617666666666,3.62,16.3294571939338,"Jyoti Bikash Bank Ltd, Devkota Sadak, Kathmandu, Kathmandu 00446, Nepal",27.691569,85.336021,Jyoti Bikash Bank Ltd,,Devkota Sadak,,,00446,Kathmandu,Kathmandu,Three,Nepal,np,© OpenStreetMap contributors,Open Database License,https://www.openstreetmap.org/copyright
51228468,250,2019-12-09 10:09:54,27.692071666666667,85.336385,2.77,75.9600448366652,"Yes Informatics, Devkota Sadak 10, Kathmandu, Kathmandu 44600, Nepal",27.692738,85.336215,Yes Informatics,10,Devkota Sadak,,,44600,Kathmandu,Kathmandu,Three,Nepal,np,© OpenStreetMap contributors,Open Database License,https://www.openstreetmap.org/copyright
51228981,250,2019-12-09 10:10:24,27.692396666666667,85.33644666666666,1.16,44.28117398111483,"Yes Informatics, Devkota Sadak 10, Kathmandu, Kathmandu 44600, Nepal",27.692738,85.336215,Yes Informatics,10,Devkota Sadak,,,44600,Kathmandu,Kathmandu,Three,Nepal,np,© OpenStreetMap contributors,Open Database License,https://www.openstreetmap.org/copyright
51229533,250,2019-12-09 10:10:54,27.69352333333333,85.33707,12.26,0.3840306924852736,"Sandar MoMo, Devkota Sadak, Baneshwar, Kathmandu 00446, Nepal",27.693657549999998,85.33711741084306,Sandar MoMo,,Devkota Sadak,Kathmandu-10,Baneshwar,00446,Kathmandu,Kathmandu,Bagmati Province,Nepal,np,© OpenStreetMap contributors,Open Database License,https://www.openstreetmap.org/copyright
51230071,250,2019-12-09 10:11:24,27.694395,85.33724166666667,0.16,6.301335185526556,"Global IME Bank, Kathmandu, Kathmandu 00446, Nepal",27.694439,85.337282,Global IME Bank,,,,,00446,Kathmandu,Kathmandu,Three,Nepal,np,© OpenStreetMap contributors,Open Database License,https://www.openstreetmap.org/copyright
51230603,250,2019-12-09 10:11:54,27.69557,85.33769166666667,6.12,10.67070080385987,"Ratna Rajya Stop, Kathmandu, Kathmandu 44703, Nepal",27.695559,85.337584,Ratna Rajya Stop,,,,,44703,Kathmandu,Kathmandu,Three,Nepal,np,© OpenStreetMap contributors,Open Database License,https://www.openstreetmap.org/copyright
51231157,250,2019-12-09 10:12:24,27.6965,85.33772166666667,3.47,5.7080730378994335,"DDC sales counter mid baneshwar, Devkota Sadak, Baneshwar, Kathmandu 44703, Nepal",27.6964502,85.3377076,DDC sales counter mid baneshwar,,Devkota Sadak,Kathmandu-10,Baneshwar,44703,Kathmandu,Kathmandu,Bagmati Province,Nepal,np,© OpenStreetMap contributors,Open Database License,https://www.openstreetmap.org/copyright
51231661,250,2019-12-09 10:12:53,27.696906666666667,85.33777666666667,0.67,12.377962349606525,"My Shop Laundry, Kathmandu, Kathmandu 44703, Nepal",27.69691,85.337651,My Shop Laundry,,,,,44703,Kathmandu,Kathmandu,Three,Nepal,np,© OpenStreetMap contributors,Open Database License,https://www.openstreetmap.org/copyright
51232164,250,2019-12-09 10:13:23,27.697755,85.33797666666666,13.28,14.12912080110567,"Samyak Diagnostic Private Limited, Devkota Sadak, Baneshwar, Kathmandu 44703, Nepal",27.697973599999997,85.33785953908827,Samyak Diagnostic Private Limited,,Devkota Sadak,Kathmandu-10,Baneshwar,44703,Kathmandu,Kathmandu,Bagmati Province,Nepal,np,© OpenStreetMap contributors,Open Database License,https://www.openstreetmap.org/copyright
51232686,250,2019-12-09 10:13:53,27.698913333333333,85.3383,1.34,4.415724049203899,"Serene, Devkota Sadak, Baneshwar, Kathmandu 44703, Nepal",27.6988994,85.338342,Serene,,Devkota Sadak,Kathmandu-10,Baneshwar,44703,Kathmandu,Kathmandu,Bagmati Province,Nepal,np,© OpenStreetMap contributors,Open Database License,https://www.openstreetmap.org/copyright
51233213,250,2019-12-09 10:14:23,27.699275,85.33847,6.03,3.4550656787274803,"Ever Green Restaurant and Cafe, Basuki Marg, Naya Baneshwar, Kathmandu 44703, Nepal",27.6992473,85.3384541,Ever Green Restaurant and Cafe,,Basuki Marg,Kathmandu-10,Naya Baneshwar,44703,Kathmandu,Kathmandu,Bagmati Province,Nepal,np,© OpenStreetMap contributors,Open Database License,https://www.openstreetmap.org/copyright
51233764,250,2019-12-09 10:14:53,27.700376666666667,85.33926666666666,4.47,12.321654099265007,"SAIM College, Kathmandu, Kathmandu 44703, Nepal",27.700471,85.339201,SAIM College,,,,,44703,Kathmandu,Kathmandu,Three,Nepal,np,© OpenStreetMap contributors,Open Database License,https://www.openstreetmap.org/copyright
51234285,250,2019-12-09 10:15:22,27.70068,85.339605,1.98,5.894161526526912,"Himalayan Cooperative, Kathmandu, Kathmandu 44703, Nepal",27.700733,85.339606,Himalayan Cooperative,,,,,44703,Kathmandu,Kathmandu,Three,Nepal,np,© OpenStreetMap contributors,Open Database License,https://www.openstreetmap.org/copyright
51234804,250,2019-12-09 10:15:52,27.700751666666665,85.33972333333334,0.66,8.421090455783357,"Bina Gold Plated Jewellary, Devkota Sadak, Baneshwar, Kathmandu 44703, Nepal",27.7007961,85.3397926,Bina Gold Plated Jewellary,,Devkota Sadak,Kathmandu-10,Baneshwar,44703,Kathmandu,Kathmandu,Bagmati Province,Nepal,np,© OpenStreetMap contributors,Open Database License,https://www.openstreetmap.org/copyright
51235328,250,2019-12-09 10:16:22,27.70076333333333,85.339715,0.09,8.464112510639836,"Bina Gold Plated Jewellary, Devkota Sadak, Baneshwar, Kathmandu 44703, Nepal",27.7007961,85.3397926,Bina Gold Plated Jewellary,,Devkota Sadak,Kathmandu-10,Baneshwar,44703,Kathmandu,Kathmandu,Bagmati Province,Nepal,np,© OpenStreetMap contributors,Open Database License,https://www.openstreetmap.org/copyright
51235853,250,2019-12-09 10:16:52,27.700781666666668,85.33971,0.31,8.288886265957903,"Bina Gold Plated Jewellary, Devkota Sadak, Baneshwar, Kathmandu 44703, Nepal",27.7007961,85.3397926,Bina Gold Plated Jewellary,,Devkota Sadak,Kathmandu-10,Baneshwar,44703,Kathmandu,Kathmandu,Bagmati Province,Nepal,np,© OpenStreetMap contributors,Open Database License,https://www.openstreetmap.org/copyright
51236355,250,2019-12-09 10:17:21,27.70074,85.33972833333333,0.15,8.8851215132395,"Bina Gold Plated Jewellary, Devkota Sadak, Baneshwar, Kathmandu 44703, Nepal",27.7007961,85.3397926,Bina Gold Plated Jewellary,,Devkota Sadak,Kathmandu-10,Baneshwar,44703,Kathmandu,Kathmandu,Bagmati Province,Nepal,np,© OpenStreetMap contributors,Open Database License,https://www.openstreetmap.org/copyright
51237029,250,2019-12-09 10:18:00,27.700703333333333,85.33974,0.08,5.702252755963568,"Glory Face Ladies Sallon, Devkota Sadak, Baneshwar, Kathmandu 44703, Nepal",27.7006522,85.3397444,Glory Face Ladies Sallon,,Devkota Sadak,Kathmandu-10,Baneshwar,44703,Kathmandu,Kathmandu,Bagmati Province,Nepal,np,© OpenStreetMap contributors,Open Database License,https://www.openstreetmap.org/copyright
51237387,250,2019-12-09 10:18:21,27.700705,85.33972666666666,0.06,6.1251814906671855,"Glory Face Ladies Sallon, Devkota Sadak, Baneshwar, Kathmandu 44703, Nepal",27.7006522,85.3397444,Glory Face Ladies Sallon,,Devkota Sadak,Kathmandu-10,Baneshwar,44703,Kathmandu,Kathmandu,Bagmati Province,Nepal,np,© OpenStreetMap contributors,Open Database License,https://www.openstreetmap.org/copyright
51237918,250,2019-12-09 10:18:51,27.7007,85.339715,0.14,6.052141282250789,"Glory Face Ladies Sallon, Devkota Sadak, Baneshwar, Kathmandu 44703, Nepal",27.7006522,85.3397444,Glory Face Ladies Sallon,,Devkota Sadak,Kathmandu-10,Baneshwar,44703,Kathmandu,Kathmandu,Bagmati Province,Nepal,np,© OpenStreetMap contributors,Open Database License,https://www.openstreetmap.org/copyright
51238459,250,2019-12-09 10:19:20,27.700675,85.33971166666667,0.4,4.083353452444782,"Glory Face Ladies Sallon, Kathmandu, Kathmandu 44703, Nepal",27.700652,85.339744,Glory Face Ladies Sallon,,,,,44703,Kathmandu,Kathmandu,Three,Nepal,np,© OpenStreetMap contributors,Open Database License,https://www.openstreetmap.org/copyright
51238978,250,2019-12-09 10:19:50,27.700578333333333,85.33973666666667,0.45,3.4112841124355677,"Naya Baneshwar, Kathmandu 44703, Nepal",27.7004311,85.3399373,,,,Kathmandu-31,Naya Baneshwar,44703,Kathmandu,Kathmandu,Bagmati Province,Nepal,np,© OpenStreetMap contributors,Open Database License,https://www.openstreetmap.org/copyright
51239496,250,2019-12-09 10:20:20,27.70066,85.33973666666667,0.1,1.1456712973973537,"Glory Face Ladies Sallon, Kathmandu, Kathmandu 44703, Nepal",27.700652,85.339744,Glory Face Ladies Sallon,,,,,44703,Kathmandu,Kathmandu,Three,Nepal,np,© OpenStreetMap contributors,Open Database License,https://www.openstreetmap.org/copyright
51240013,250,2019-12-09 10:20:50,27.700705,85.33975333333333,1.43,5.936609082581969,"Glory Face Ladies Sallon, Devkota Sadak, Baneshwar, Kathmandu 44703, Nepal",27.7006522,85.3397444,Glory Face Ladies Sallon,,Devkota Sadak,Kathmandu-10,Baneshwar,44703,Kathmandu,Kathmandu,Bagmati Province,Nepal,np,© OpenStreetMap contributors,Open Database License,https://www.openstreetmap.org/copyright
51240557,250,2019-12-09 10:21:20,27.700735,85.33975666666667,0.56,7.659879701589345,"Bina Gold Plated Jewellary, Devkota Sadak, Baneshwar, Kathmandu 44703, Nepal",27.7007961,85.3397926,Bina Gold Plated Jewellary,,Devkota Sadak,Kathmandu-10,Baneshwar,44703,Kathmandu,Kathmandu,Bagmati Province,Nepal,np,© OpenStreetMap contributors,Open Database License,https://www.openstreetmap.org/copyright
51241101,250,2019-12-09 10:21:49,27.70110833333333,85.33993,2.13,0,"IID Pvt. Ltd, Devkota Sadak, Baneshwar, Kathmandu 44703, Nepal",27.70107815,85.33995419617824,IID Pvt. Ltd,,Devkota Sadak,Kathmandu-10,Baneshwar,44703,Kathmandu,Kathmandu,Bagmati Province,Nepal,np,© OpenStreetMap contributors,Open Database License,https://www.openstreetmap.org/copyright
51246884,250,2019-12-09 10:27:17,27.707901666666668,85.33985,15.64,16.236031330495592,"Cosmos Diagonosis and Research Centre, Pashupati Sadak, Chabahil, Kathmandu 44660, Nepal",27.70814865,85.33979338472814,Cosmos Diagonosis and Research Centre,,Pashupati Sadak,Kathmandu-07,Chabahil,44660,Kathmandu,Kathmandu,Bagmati Province,Nepal,np,© OpenStreetMap contributors,Open Database License,https://www.openstreetmap.org/copyright
51247416,250,2019-12-09 10:27:47,27.707995,85.337465,7.35,11.216224674898521,"Ratopul Stop, Kathmandu, Kathmandu 44660, Nepal",27.708052,85.337371,Ratopul Stop,,,,,44660,Kathmandu,Kathmandu,Three,Nepal,np,© OpenStreetMap contributors,Open Database License,https://www.openstreetmap.org/copyright
51247963,250,2019-12-09 10:28:17,27.70806,85.33618,9.6,2.2756141561582286,"Lumbini tanduri dhaba & bhojanalaya, Pashupati Sadak, Maitidevi, Kathmandu 44605, Nepal",27.708054,85.3361579,Lumbini tanduri dhaba & bhojanalaya,,Pashupati Sadak,Kathmandu-30,Maitidevi,44605,Kathmandu,Kathmandu,Bagmati Province,Nepal,np,© OpenStreetMap contributors,Open Database License,https://www.openstreetmap.org/copyright
51248473,250,2019-12-09 10:28:46,27.708121666666667,85.334335,9.85,12.13834969686651,"Shanta Plaza, Kathmandu, Kathmandu 44605, Nepal",27.70809,85.334217,Shanta Plaza,,,,,44605,Kathmandu,Kathmandu,Three,Nepal,np,© OpenStreetMap contributors,Open Database License,https://www.openstreetmap.org/copyright
51248998,250,2019-12-09 10:29:17,27.70832833333333,85.33283,11.67,19.786754402075523,"Shrestha Motorcycle House, Pashupati Sadak, Maitidevi, Kathmandu 44605, Nepal",27.7081758,85.33300173384461,Shrestha Motorcycle House,,Pashupati Sadak,Kathmandu-30,Maitidevi,44605,Kathmandu,Kathmandu,Bagmati Province,Nepal,np,© OpenStreetMap contributors,Open Database License,https://www.openstreetmap.org/copyright
51249490,250,2019-12-09 10:29:46,27.70905,85.332185,9.87,3.4098129169346265,"Maitidevi, Kathmandu 44605, Nepal",27.7089216,85.3326015,,,,Kathmandu-30,Maitidevi,44605,Kathmandu,Kathmandu,Bagmati Province,Nepal,np,© OpenStreetMap contributors,Open Database License,https://www.openstreetmap.org/copyright
51250021,250,2019-12-09 10:30:16,27.710058333333333,85.332885,9.41,0.8634582473538556,"German Embassy, Gyaneshwar Marg, Maitidevi, Kathmandu 00975, Nepal",27.709540949999997,85.33348460677628,German Embassy,,Gyaneshwar Marg,Kathmandu-30,Maitidevi,00975,Kathmandu,Kathmandu,Bagmati Province,Nepal,np,© OpenStreetMap contributors,Open Database License,https://www.openstreetmap.org/copyright
51478648,250,2019-12-09 14:13:06,27.70453333333333,85.33311833333333,12.72,11.688436593753309,"Western Union Money Transfer, Maiti Devi marg, Maitidevi, Kathmandu 00446, Nepal",27.7046376,85.3331334,Western Union Money Transfer,,Maiti Devi marg,Kathmandu-30,Maitidevi,00446,Kathmandu,Kathmandu,Bagmati Province,Nepal,np,© OpenStreetMap contributors,Open Database License,https://www.openstreetmap.org/copyright
52630075,250,2019-12-10 09:28:51,27.710476666666665,85.33320666666667,8.01,34.80341447076741,"Prakash New Generation Motorcycle Workshop, Gyaneshwar Marg, Maitidevi, Kathmandu 00975, Nepal",27.7107895,85.333218,Prakash New Generation Motorcycle Workshop,,Gyaneshwar Marg,Kathmandu-30,Maitidevi,00975,Kathmandu,Kathmandu,Bagmati Province,Nepal,np,© OpenStreetMap contributors,Open Database License,https://www.openstreetmap.org/copyright
52630586,250,2019-12-10 09:29:21,27.70928,85.33232,13.79,10.07826576823166,"International Centre for Academics, Gyaneshwar Marg, Maitidevi, Kathmandu 00975, Nepal",27.7092423,85.3324131,International Centre for Academics,,Gyaneshwar Marg,Kathmandu-30,Maitidevi,00975,Kathmandu,Kathmandu,Bagmati Province,Nepal,np,© OpenStreetMap contributors,Open Database License,https://www.openstreetmap.org/copyright
52631102,250,2019-12-10 09:29:51,27.70851333333333,85.33260166666666,11.04,9.044706309998745,"Maitidevi, Kathmandu 44605, Nepal",27.7086373,85.3319646,,,,Kathmandu-30,Maitidevi,44605,Kathmandu,Kathmandu,Bagmati Province,Nepal,np,© OpenStreetMap contributors,Open Database License,https://www.openstreetmap.org/copyright
52631600,250,2019-12-10 09:30:21,27.707535,85.33336,11.96,27.637261544821975,"AM/PM Cafe and Bar, Maiti Devi marg, Maitidevi, Kathmandu 44605, Nepal",27.7073033,85.3334616,AM/PM Cafe and Bar,,Maiti Devi marg,Kathmandu-30,Maitidevi,44605,Kathmandu,Kathmandu,Bagmati Province,Nepal,np,© OpenStreetMap contributors,Open Database License,https://www.openstreetmap.org/copyright
52632125,250,2019-12-10 09:30:51,27.707186666666665,85.33337666666667,3.11,15.430711642710417,"AM/PM Cafe and Bar, Maiti Devi marg, Maitidevi, Kathmandu 44605, Nepal",27.7073033,85.3334616,AM/PM Cafe and Bar,,Maiti Devi marg,Kathmandu-30,Maitidevi,44605,Kathmandu,Kathmandu,Bagmati Province,Nepal,np,© OpenStreetMap contributors,Open Database License,https://www.openstreetmap.org/copyright
52632623,250,2019-12-10 09:31:20,27.70642833333333,85.33366,4.64,7.043043137221923,"Maitidevi Temple stop, Kathmandu, Kathmandu 00446, Nepal",27.706365,85.333661,Maitidevi Temple stop,,,,,00446,Kathmandu,Kathmandu,Three,Nepal,np,© OpenStreetMap contributors,Open Database License,https://www.openstreetmap.org/copyright
52633149,250,2019-12-10 09:31:50,27.70619,85.3338,0.4,7.871653553925103,"Maitidevi Sweet House, Kathmandu, Kathmandu 00446, Nepal",27.706168,85.333724,Maitidevi Sweet House,,,,,00446,Kathmandu,Kathmandu,Three,Nepal,np,© OpenStreetMap contributors,Open Database License,https://www.openstreetmap.org/copyright
52633673,250,2019-12-10 09:32:20,27.705461666666668,85.33357833333334,7.44,0,"Lord Buddha School, Pancha Kumari Marg, Maitidevi, Kathmandu 00446, Nepal",27.7055504,85.33348949089202,Lord Buddha School,,Pancha Kumari Marg,Kathmandu-30,Maitidevi,00446,Kathmandu,Kathmandu,Bagmati Province,Nepal,np,© OpenStreetMap contributors,Open Database License,https://www.openstreetmap.org/copyright
52634207,250,2019-12-10 09:32:50,27.70451,85.333015,0.16,18.362444129826887,"Western Union Money Transfer, Maiti Devi marg, Maitidevi, Kathmandu 00446, Nepal",27.7046376,85.3331334,Western Union Money Transfer,,Maiti Devi marg,Kathmandu-30,Maitidevi,00446,Kathmandu,Kathmandu,Bagmati Province,Nepal,np,© OpenStreetMap contributors,Open Database License,https://www.openstreetmap.org/copyright
52634777,250,2019-12-10 09:33:21,27.704145,85.33275666666667,3.45,15.016918441072857,"Nyugu Bhintuna Jewellers, Maiti Devi marg, Maitidevi, Kathmandu 00446, Nepal",27.7040123,85.332785,Nyugu Bhintuna Jewellers,,Maiti Devi marg,Kathmandu-30,Maitidevi,00446,Kathmandu,Kathmandu,Bagmati Province,Nepal,np,© OpenStreetMap contributors,Open Database License,https://www.openstreetmap.org/copyright
52635308,250,2019-12-10 09:33:49,27.70410333333333,85.33235666666667,5.62,1.1640128617237306,"Appolo Medical & Pharmacy, Dillibazar Sadak, Dillibazar, Kathmandu 44605, Nepal",27.7040932,85.3323537,Appolo Medical & Pharmacy,,Dillibazar Sadak,Kathmandu-30,Dillibazar,44605,Kathmandu,Kathmandu,Bagmati Province,Nepal,np,© OpenStreetMap contributors,Open Database License,https://www.openstreetmap.org/copyright
52635845,250,2019-12-10 09:34:19,27.704365,85.330995,3.33,20.78912365698573,"Versatile, Kathmandu, Kathmandu 44605, Nepal",27.704425,85.331195,Versatile,,,,,44605,Kathmandu,Kathmandu,Three,Nepal,np,© OpenStreetMap contributors,Open Database License,https://www.openstreetmap.org/copyright
52636401,250,2019-12-10 09:34:49,27.704465,85.33085833333334,0.89,14.975630229732722,"Bank of Asia, Kathmandu, Kathmandu 44605, Nepal",27.704567,85.330759,Bank of Asia,,,,,44605,Kathmandu,Kathmandu,Three,Nepal,np,© OpenStreetMap contributors,Open Database License,https://www.openstreetmap.org/copyright
52636925,250,2019-12-10 09:35:18,27.70493,85.329415,10.73,12.468649721098386,"Kist Bank, Kathmandu, Kathmandu 44605, Nepal",27.704876,85.329304,Kist Bank,,,,,44605,Kathmandu,Kathmandu,Three,Nepal,np,© OpenStreetMap contributors,Open Database License,https://www.openstreetmap.org/copyright
52637437,250,2019-12-10 09:35:48,27.705046666666668,85.32889666666667,9.92,60.473758074396116,"Destiny Educational Institute, Dillibazar Sadak 30, Dillibazar, Kathmandu 44600, Nepal",27.7051935,85.3283052,Destiny Educational Institute,30,Dillibazar Sadak,Kathmandu-30,Dillibazar,44600,Kathmandu,Kathmandu,Bagmati Province,Nepal,np,© OpenStreetMap contributors,Open Database License,https://www.openstreetmap.org/copyright
52637935,250,2019-12-10 09:36:18,27.705336666666668,85.32781833333334,2.5,50.46877551229283,"Destiny Educational Institute, Dillibazar Sadak 30, Kathmandu, Kathmandu 44600, Nepal",27.705194,85.328305,Destiny Educational Institute,30,Dillibazar Sadak,,,44600,Kathmandu,Kathmandu,Three,Nepal,np,© OpenStreetMap contributors,Open Database License,https://www.openstreetmap.org/copyright
52638457,250,2019-12-10 09:36:49,27.7054,85.32708,5.45,21.122236114755342,"Ram Mandir, Kathmandu, Kathmandu 44605, Nepal",27.705502,85.326899,Ram Mandir,,,,,44605,Kathmandu,Kathmandu,Three,Nepal,np,© OpenStreetMap contributors,Open Database License,https://www.openstreetmap.org/copyright
52639010,250,2019-12-10 09:37:20,27.70551333333333,85.32587333333333,0.11,11.281741513972875,"Furniture Trade Link, Kathmandu, Kathmandu 44605, Nepal",27.705559,85.325771,Furniture Trade Link,,,,,44605,Kathmandu,Kathmandu,Three,Nepal,np,© OpenStreetMap contributors,Open Database License,https://www.openstreetmap.org/copyright
52639484,250,2019-12-10 09:37:47,27.705585,85.325035,10.9,1.0192042281175409,"Swatha Parichyan, Dillibazar Sadak, Ghattekulo, Kathmandu 44605, Nepal",27.7056246,85.3250589,Swatha Parichyan,,Dillibazar Sadak,Kathmandu-30,Ghattekulo,44605,Kathmandu,Kathmandu,Bagmati Province,Nepal,np,© OpenStreetMap contributors,Open Database License,https://www.openstreetmap.org/copyright
52640003,250,2019-12-10 09:38:17,27.705503333333333,85.32383166666666,9.64,36.15555558402686,"Punya Mansion, Dilli Bazaar Road 33, Kathmandu, Kathmandu 00977, Nepal",27.705795,85.323994,Punya Mansion,33,Dilli Bazaar Road,,,00977,Kathmandu,Kathmandu,Three,Nepal,np,© OpenStreetMap contributors,Open Database License,https://www.openstreetmap.org/copyright
52640524,250,2019-12-10 09:38:47,27.705616666666668,85.32305666666667,1.95,16.572946853020376,"Alta-Vista, A school of Spanish Language, Putalisadak Chowk 1306, Kathmandu, Kathmandu GPO 8975 EPC 5067, Nepal",27.705746,85.322973,"Alta-Vista, A school of Spanish Language",1306,Putalisadak Chowk,,,GPO 8975 EPC 5067,Kathmandu,Kathmandu,Three,Nepal,np,© OpenStreetMap contributors,Open Database License,https://www.openstreetmap.org/copyright
52641029,250,2019-12-10 09:39:17,27.704875,85.32281333333333,4.03,5.345095387920159,"Kumari Store, Kathmandu, Kathmandu 46600, Nepal",27.704849,85.322859,Kumari Store,,,,,46600,Kathmandu,Kathmandu,Three,Nepal,np,© OpenStreetMap contributors,Open Database License,https://www.openstreetmap.org/copyright
52641554,250,2019-12-10 09:39:47,27.703191666666665,85.32246833333333,9.81,6.9833478249468,"Office Dealers Pvt Ltd, Putali Sadak, Baghbazar, Kathmandu 46600, Nepal",27.70326345,85.32228055,Office Dealers Pvt Ltd,,Putali Sadak,Kathmandu-28,Baghbazar,46600,Kathmandu,Kathmandu,Bagmati Province,Nepal,np,© OpenStreetMap contributors,Open Database License,https://www.openstreetmap.org/copyright
52642076,250,2019-12-10 09:40:16,27.70272,85.32239166666666,7.14,4.175234662616574,"Zebra Excellence Group, Kathmandu, Kathmandu 44605, Nepal",27.702727,85.32235,Zebra Excellence Group,,,,,44605,Kathmandu,Kathmandu,Three,Nepal,np,© OpenStreetMap contributors,Open Database License,https://www.openstreetmap.org/copyright
52642607,250,2019-12-10 09:40:46,27.70151333333333,85.32224166666667,8.97,6.055226875808159,"Everest Pustak Bhandar, Ram Shah Path, Baghbazar, Kathmandu 44605, Nepal",27.7015233,85.3221812,Everest Pustak Bhandar,,Ram Shah Path,Kathmandu-28,Baghbazar,44605,Kathmandu,Kathmandu,Bagmati Province,Nepal,np,© OpenStreetMap contributors,Open Database License,https://www.openstreetmap.org/copyright
52643135,250,2019-12-10 09:41:16,27.69984833333333,85.32197,13.63,16.099415876293747,"Shree Saii Digital Photo Studio, Ram Shah Path, Baghbazar, Kathmandu 44605, Nepal",27.6999246,85.321831,Shree Saii Digital Photo Studio,,Ram Shah Path,Kathmandu-28,Baghbazar,44605,Kathmandu,Kathmandu,Bagmati Province,Nepal,np,© OpenStreetMap contributors,Open Database License,https://www.openstreetmap.org/copyright
52643657,250,2019-12-10 09:41:46,27.69848333333333,85.32168166666666,9.84,0.7141747474269244,"Singh Durbar, Saras Marg, Ghattekulo, Kathmandu 00446, Nepal",27.696478149999997,85.32461913495442,Singh Durbar,,Saras Marg,Kathmandu-29,Ghattekulo,00446,Kathmandu,Kathmandu,Bagmati Province,Nepal,np,© OpenStreetMap contributors,Open Database License,https://www.openstreetmap.org/copyright
52644206,250,2019-12-10 09:42:16,27.696655,85.32124666666667,12.64,2.0793913198577725,"Supreme Court, Ram Shah Path, Kathmandu, Kathmandu 00446, Nepal",27.69680365,85.32167994840998,Supreme Court,,Ram Shah Path,Kathmandu-11,,00446,Kathmandu,Kathmandu,Bagmati Province,Nepal,np,© OpenStreetMap contributors,Open Database License,https://www.openstreetmap.org/copyright
52644726,250,2019-12-10 09:42:45,27.695685,85.32104333333334,3.09,1.302847168527262,"Singh Durbar, Saras Marg, Ghattekulo, Kathmandu 00446, Nepal",27.696478149999997,85.32461913495442,Singh Durbar,,Saras Marg,Kathmandu-29,Ghattekulo,00446,Kathmandu,Kathmandu,Bagmati Province,Nepal,np,© OpenStreetMap contributors,Open Database License,https://www.openstreetmap.org/copyright
52645245,250,2019-12-10 09:43:15,27.695218333333333,85.32094166666667,4.81,1.7900137496661148,"Singh Durbar, Saras Marg, Ghattekulo, Kathmandu 00446, Nepal",27.696478149999997,85.32461913495442,Singh Durbar,,Saras Marg,Kathmandu-29,Ghattekulo,00446,Kathmandu,Kathmandu,Bagmati Province,Nepal,np,© OpenStreetMap contributors,Open Database License,https://www.openstreetmap.org/copyright
52645767,250,2019-12-10 09:43:45,27.694188333333333,85.320935,10.07,10.408020971248362,"PI Academy, Kathmandu, Kathmandu 44617, Nepal",27.694266,85.320876,PI Academy,,,,,44617,Kathmandu,Kathmandu,Three,Nepal,np,© OpenStreetMap contributors,Open Database License,https://www.openstreetmap.org/copyright
52646364,250,2019-12-10 09:44:19,27.69405,85.32107333333333,0.52,7.40683872437082,"Kathmandu, Kathmandu 44617, Nepal",27.6922553,85.324616,,,,Kathmandu-11,,44617,Kathmandu,Kathmandu,Bagmati Province,Nepal,np,© OpenStreetMap contributors,Open Database License,https://www.openstreetmap.org/copyright
52646847,250,2019-12-10 09:44:45,27.69401166666667,85.32103333333333,0.16,1.7162345885683155,"Kathmandu, Kathmandu 44617, Nepal",27.6922553,85.324616,,,,Kathmandu-11,,44617,Kathmandu,Kathmandu,Bagmati Province,Nepal,np,© OpenStreetMap contributors,Open Database License,https://www.openstreetmap.org/copyright
52647383,250,2019-12-10 09:45:14,27.69349833333333,85.32192333333333,16.01,4.582957357660128,"Kathmandu, Kathmandu 44617, Nepal",27.6922553,85.324616,,,,Kathmandu-11,,44617,Kathmandu,Kathmandu,Bagmati Province,Nepal,np,© OpenStreetMap contributors,Open Database License,https://www.openstreetmap.org/copyright
52647934,250,2019-12-10 09:45:44,27.692733333333333,85.32396,11.81,31.7984505534372,"Babarmahal, Kathmandu, Kathmandu 44617, Nepal",27.692462,85.323858,Babarmahal,,,,,44617,Kathmandu,Kathmandu,Three,Nepal,np,© OpenStreetMap contributors,Open Database License,https://www.openstreetmap.org/copyright
52648492,250,2019-12-10 09:46:14,27.691866666666662,85.32595,0.86,16.391392413847388,"Kathmandu, Kathmandu 44617, Nepal",27.6921852,85.3264339,,,,Kathmandu-11,,44617,Kathmandu,Kathmandu,Bagmati Province,Nepal,np,© OpenStreetMap contributors,Open Database License,https://www.openstreetmap.org/copyright
52649043,250,2019-12-10 09:46:45,27.690975,85.32769666666667,13.19,4.709998757752518,"The Thakali Bhansa Ghar, Kathmandu, Kathmandu 44617, Nepal",27.691014,85.327678,The Thakali Bhansa Ghar,,,,,44617,Kathmandu,Kathmandu,Three,Nepal,np,© OpenStreetMap contributors,Open Database License,https://www.openstreetmap.org/copyright
52649564,250,2019-12-10 09:47:13,27.690411666666662,85.32860666666667,8.05,10.770216063982984,"Kathmandu, Kathmandu 44617, Nepal",27.6905379,85.3281156,,,,Kathmandu-11,,44617,Kathmandu,Kathmandu,Bagmati Province,Nepal,np,© OpenStreetMap contributors,Open Database License,https://www.openstreetmap.org/copyright
52650098,250,2019-12-10 09:47:44,27.689791666666668,85.33020333333333,15.13,7.426709449886862,"Shiva Service center, Madan Bhandari Path, Buddha Nagar, Kathmandu 44617, Nepal",27.6898417,85.3302533,Shiva Service center,,Madan Bhandari Path,Kathmandu-10,Buddha Nagar,44617,Kathmandu,Kathmandu,Bagmati Province,Nepal,np,© OpenStreetMap contributors,Open Database License,https://www.openstreetmap.org/copyright
52651051,250,2019-12-10 09:48:39,27.689065,85.33256666666666,16.33,2.199239895833869,"Buddha Nagar, Kathmandu 44617, Nepal",27.6891539,85.3320663,,,,Kathmandu-10,Buddha Nagar,44617,Kathmandu,Kathmandu,Bagmati Province,Nepal,np,© OpenStreetMap contributors,Open Database License,https://www.openstreetmap.org/copyright
52651124,250,2019-12-10 09:48:43,27.688775,85.33351166666667,12.82,12.298612164135426,"Madan Bhandari Path, Kathmandu, Kathmandu 44617, Nepal",27.688687,85.333436,,,Madan Bhandari Path,,,44617,Kathmandu,Kathmandu,Three,Nepal,np,© OpenStreetMap contributors,Open Database License,https://www.openstreetmap.org/copyright
52651639,250,2019-12-10 09:49:12,27.6886,85.33484333333334,0.48,7.099422613824747,"Buddha Nagar, Kathmandu 44617, Nepal",27.6891539,85.3320663,,,,Kathmandu-10,Buddha Nagar,44617,Kathmandu,Kathmandu,Bagmati Province,Nepal,np,© OpenStreetMap contributors,Open Database License,https://www.openstreetmap.org/copyright
52652149,250,2019-12-10 09:49:42,27.688576666666663,85.3349,1.73,5.922651142521177,"Buddha Nagar, Kathmandu 44617, Nepal",27.6891539,85.3320663,,,,Kathmandu-10,Buddha Nagar,44617,Kathmandu,Kathmandu,Bagmati Province,Nepal,np,© OpenStreetMap contributors,Open Database License,https://www.openstreetmap.org/copyright
52652671,250,2019-12-10 09:50:12,27.688596666666665,85.33504666666667,0.99,4.956822229942439,"G4S, Madan Bhandari Path, Buddha Nagar, Kathmandu 44617, Nepal",27.68861815,85.33515885120235,G4S,,Madan Bhandari Path,Kathmandu-10,Buddha Nagar,44617,Kathmandu,Kathmandu,Bagmati Province,Nepal,np,© OpenStreetMap contributors,Open Database License,https://www.openstreetmap.org/copyright
52653186,250,2019-12-10 09:50:42,27.688551666666665,85.335435,3.75,2.648708572508866,"Fitwell Tailoring, Naya Baneshwar Sadak, Buddha Nagar, Kathmandu 44617, Nepal",27.6886037,85.33536667784551,Fitwell Tailoring,,Naya Baneshwar Sadak,Kathmandu-10,Buddha Nagar,44617,Kathmandu,Kathmandu,Bagmati Province,Nepal,np,© OpenStreetMap contributors,Open Database License,https://www.openstreetmap.org/copyright
52653766,250,2019-12-10 09:51:15,27.689826666666665,85.33576333333333,14.61,20.74069247661909,"ChhakkuBakku Park, Naya Baneshwar Sadak New Baneshwor, Kathmandu, Kathmandu 44617, Nepal",27.689996,85.335675,ChhakkuBakku Park,New Baneshwor,Naya Baneshwar Sadak,,,44617,Kathmandu,Kathmandu,Three,Nepal,np,© OpenStreetMap contributors,Open Database License,https://www.openstreetmap.org/copyright
52654221,250,2019-12-10 09:51:41,27.690705,85.33601666666667,0.88,10.26620596935884,"पुरानो बानेश्वर सडक, Kathmandu, Kathmandu 44617, Nepal",27.690622,85.335971,,,पुरानो बानेश्वर सडक,,,44617,Kathmandu,Kathmandu,Three,Nepal,np,© OpenStreetMap contributors,Open Database License,https://www.openstreetmap.org/copyright
52654749,250,2019-12-10 09:52:11,27.691786666666665,85.33606833333333,6.93,15.982251248707634,"Mini Market, Buddha Nagar, Kathmandu 44617, Nepal",27.69177445,85.33590659653649,Mini Market,,,Kathmandu-10,Buddha Nagar,44617,Kathmandu,Kathmandu,Bagmati Province,Nepal,np,© OpenStreetMap contributors,Open Database License,https://www.openstreetmap.org/copyright
52655297,250,2019-12-10 09:52:41,27.69242333333333,85.336315,0.4,36.34827464306008,"Yes Informatics, Devkota Sadak 10, Kathmandu, Kathmandu 44600, Nepal",27.692738,85.336215,Yes Informatics,10,Devkota Sadak,,,44600,Kathmandu,Kathmandu,Three,Nepal,np,© OpenStreetMap contributors,Open Database License,https://www.openstreetmap.org/copyright
52655940,250,2019-12-10 09:53:11,27.69306333333333,85.33666333333333,9.64,57.07165357937527,"Yes Informatics, Devkota Sadak 10, Kathmandu, Kathmandu 44600, Nepal",27.692738,85.336215,Yes Informatics,10,Devkota Sadak,,,44600,Kathmandu,Kathmandu,Three,Nepal,np,© OpenStreetMap contributors,Open Database License,https://www.openstreetmap.org/copyright
52656499,250,2019-12-10 09:53:40,27.693575,85.33695833333333,0.61,7.7802522112596995,"Sandar MoMo, Devkota Sadak, Baneshwar, Kathmandu 00446, Nepal",27.693657549999998,85.33711741084306,Sandar MoMo,,Devkota Sadak,Kathmandu-10,Baneshwar,00446,Kathmandu,Kathmandu,Bagmati Province,Nepal,np,© OpenStreetMap contributors,Open Database License,https://www.openstreetmap.org/copyright
52657048,250,2019-12-10 09:54:10,27.693843333333334,85.33707666666666,0.6,7.8358776937295636,"prabu, Devkota Sadak, Baneshwar, Kathmandu 00446, Nepal",27.6938377,85.33694297071918,prabu,,Devkota Sadak,Kathmandu-10,Baneshwar,00446,Kathmandu,Kathmandu,Bagmati Province,Nepal,np,© OpenStreetMap contributors,Open Database License,https://www.openstreetmap.org/copyright
52657582,250,2019-12-10 09:54:40,27.693835,85.33710666666667,0.23,5.712633862467458,"Barahi Furniture, Devkota Sadak, Baneshwar, Kathmandu 00446, Nepal",27.693848,85.3371628,Barahi Furniture,,Devkota Sadak,Kathmandu-10,Baneshwar,00446,Kathmandu,Kathmandu,Bagmati Province,Nepal,np,© OpenStreetMap contributors,Open Database License,https://www.openstreetmap.org/copyright
52658115,250,2019-12-10 09:55:10,27.69401,85.33714666666667,4.21,0.8928782834589093,"Old Whitehouse International College, Devkota Sadak, Baneshwar, Kathmandu 00446, Nepal",27.69402185,85.33730716567752,Old Whitehouse International College,,Devkota Sadak,Kathmandu-10,Baneshwar,00446,Kathmandu,Kathmandu,Bagmati Province,Nepal,np,© OpenStreetMap contributors,Open Database License,https://www.openstreetmap.org/copyright
52658685,250,2019-12-10 09:55:40,27.694346666666668,85.33723333333333,0.96,2.6460909734501237,"SchEMS, Devkota Sadak, Baneshwar, Kathmandu 00446, Nepal",27.694195450000002,85.33733938831966,SchEMS,,Devkota Sadak,Kathmandu-10,Baneshwar,00446,Kathmandu,Kathmandu,Bagmati Province,Nepal,np,© OpenStreetMap contributors,Open Database License,https://www.openstreetmap.org/copyright
52659217,250,2019-12-10 09:56:10,27.69466,85.33727666666667,2.44,11.979145470973915,"Dhungedhara, Devkota Sadak, Baneshwar, Kathmandu 44703, Nepal",27.6947997,85.33739752842871,Dhungedhara,,Devkota Sadak,Kathmandu-10,Baneshwar,44703,Kathmandu,Kathmandu,Bagmati Province,Nepal,np,© OpenStreetMap contributors,Open Database License,https://www.openstreetmap.org/copyright
52659765,250,2019-12-10 09:56:40,27.695445,85.337465,11.44,6.11298829093504,"Police bit mid Baneshwar, Kathmandu, Kathmandu 44703, Nepal",27.695491,85.337499,Police bit mid Baneshwar,,,,,44703,Kathmandu,Kathmandu,Three,Nepal,np,© OpenStreetMap contributors,Open Database License,https://www.openstreetmap.org/copyright
52660291,250,2019-12-10 09:57:09,27.69682,85.33779,10.25,16.953886083188426,"My Shop Laundry, Kathmandu, Kathmandu 44703, Nepal",27.69691,85.337651,My Shop Laundry,,,,,44703,Kathmandu,Kathmandu,Three,Nepal,np,© OpenStreetMap contributors,Open Database License,https://www.openstreetmap.org/copyright
52660833,250,2019-12-10 09:57:39,27.69835833333333,85.33823166666667,11.02,6.435059406239444,"everest bank limited, Devkota Sadak, Baneshwar, Kathmandu 44703, Nepal",27.6983199,85.3381828,everest bank limited,,Devkota Sadak,Kathmandu-10,Baneshwar,44703,Kathmandu,Kathmandu,Bagmati Province,Nepal,np,© OpenStreetMap contributors,Open Database License,https://www.openstreetmap.org/copyright
52661364,250,2019-12-10 09:58:10,27.69902666666667,85.33837833333334,0.17,9.812838903027762,"Apex College Stop, Kathmandu, Kathmandu 44703, Nepal",27.699062,85.338287,Apex College Stop,,,,,44703,Kathmandu,Kathmandu,Three,Nepal,np,© OpenStreetMap contributors,Open Database License,https://www.openstreetmap.org/copyright
52661853,250,2019-12-10 09:58:38,27.699961666666667,85.33884166666667,13.43,22.722103185977666,"Cherry on Top, Devkota Sadak, Baneshwar, Kathmandu 44703, Nepal",27.7000706,85.3386464,Cherry on Top,,Devkota Sadak,Kathmandu-10,Baneshwar,44703,Kathmandu,Kathmandu,Bagmati Province,Nepal,np,© OpenStreetMap contributors,Open Database License,https://www.openstreetmap.org/copyright
52662384,250,2019-12-10 09:59:08,27.70120333333333,85.33993833333334,5.28,8.653782342406398,"burger king, Kathmandu, Kathmandu 44600, Nepal",27.701209,85.340026,burger king,,,,,44600,Kathmandu,Kathmandu,Three,Nepal,np,© OpenStreetMap contributors,Open Database License,https://www.openstreetmap.org/copyright
52667260,250,2019-12-10 10:03:37,27.70794833333333,85.33801333333334,14.3,20.822237512897498,"Fruit Store, Kathmandu, Kathmandu 44660, Nepal",27.708107,85.337901,Fruit Store,,,,,44660,Kathmandu,Kathmandu,Three,Nepal,np,© OpenStreetMap contributors,Open Database License,https://www.openstreetmap.org/copyright
52667810,250,2019-12-10 10:04:07,27.70804333333333,85.33659833333333,10.16,7.002292225505016,"Pashupati Sadak, Kathmandu, Kathmandu 44605, Nepal",27.708085,85.336545,,,Pashupati Sadak,,,44605,Kathmandu,Kathmandu,Three,Nepal,np,© OpenStreetMap contributors,Open Database License,https://www.openstreetmap.org/copyright
52668319,250,2019-12-10 10:04:36,27.708068333333333,85.33484,14.62,4.0774636656159124,"Kaila Chhaun Newari Khaja Ghar, Pashupati Sadak, Maitidevi, Kathmandu 44605, Nepal",27.7080855,85.3348034,Kaila Chhaun Newari Khaja Ghar,,Pashupati Sadak,Kathmandu-30,Maitidevi,44605,Kathmandu,Kathmandu,Bagmati Province,Nepal,np,© OpenStreetMap contributors,Open Database License,https://www.openstreetmap.org/copyright
52668855,250,2019-12-10 10:05:06,27.708381666666668,85.33263166666667,15.08,3.6354255723475304,"Maitidevi, Kathmandu 44605, Nepal",27.7086373,85.3319646,,,,Kathmandu-30,Maitidevi,44605,Kathmandu,Kathmandu,Bagmati Province,Nepal,np,© OpenStreetMap contributors,Open Database License,https://www.openstreetmap.org/copyright
52669408,250,2019-12-10 10:05:35,27.70918333333333,85.332235,11.42,18.07332418384186,"Attic Bar & Resturant, Gyaneshwar Marg, Maitidevi, Kathmandu 00975, Nepal",27.7089433,85.33229365054419,Attic Bar & Resturant,,Gyaneshwar Marg,Kathmandu-30,Maitidevi,00975,Kathmandu,Kathmandu,Bagmati Province,Nepal,np,© OpenStreetMap contributors,Open Database License,https://www.openstreetmap.org/copyright
52669961,250,2019-12-10 10:06:05,27.710505,85.33315166666667,13.58,32.301916302292284,"Prakash New Generation Motorcycle Workshop, Gyaneshwar Marg, Maitidevi, Kathmandu 00975, Nepal",27.7107895,85.333218,Prakash New Generation Motorcycle Workshop,,Gyaneshwar Marg,Kathmandu-30,Maitidevi,00975,Kathmandu,Kathmandu,Bagmati Province,Nepal,np,© OpenStreetMap contributors,Open Database License,https://www.openstreetmap.org/copyright
54087840,250,2019-12-11 09:29:00,27.710325,85.33302333333333,8.04,12.503145832664831,"ज्ञानेश्वर मार्ग, Kathmandu, Kathmandu 00975, Nepal",27.710215,85.332997,,,ज्ञानेश्वर मार्ग,,,00975,Kathmandu,Kathmandu,Three,Nepal,np,© OpenStreetMap contributors,Open Database License,https://www.openstreetmap.org/copyright
54088359,250,2019-12-11 09:29:29,27.7091,85.33206,8.37,7.451213632651301,"Maitidevi, Kathmandu 44605, Nepal",27.7086839,85.3318427,,,,Kathmandu-30,Maitidevi,44605,Kathmandu,Kathmandu,Bagmati Province,Nepal,np,© OpenStreetMap contributors,Open Database License,https://www.openstreetmap.org/copyright
54088873,250,2019-12-11 09:29:59,27.708406666666665,85.33281333333333,11.73,26.82484193100755,"Shrestha Motorcycle House, Pashupati Sadak, Maitidevi, Kathmandu 44605, Nepal",27.7081758,85.33300173384461,Shrestha Motorcycle House,,Pashupati Sadak,Kathmandu-30,Maitidevi,44605,Kathmandu,Kathmandu,Bagmati Province,Nepal,np,© OpenStreetMap contributors,Open Database License,https://www.openstreetmap.org/copyright
54089382,250,2019-12-11 09:30:29,27.707806666666663,85.33330666666667,9.47,49.36545624893506,"Subidha Travel, Pashupati Marga, Kathmandu, Kathmandu 44605, Nepal",27.708218,85.333118,Subidha Travel,,Pashupati Marga,,,44605,Kathmandu,Kathmandu,Three,Nepal,np,© OpenStreetMap contributors,Open Database License,https://www.openstreetmap.org/copyright
54089901,250,2019-12-11 09:31:00,27.70721,85.33338666666667,6.13,12.729787119184177,"AM/PM Cafe and Bar, Maiti Devi marg, Maitidevi, Kathmandu 44605, Nepal",27.7073033,85.3334616,AM/PM Cafe and Bar,,Maiti Devi marg,Kathmandu-30,Maitidevi,44605,Kathmandu,Kathmandu,Bagmati Province,Nepal,np,© OpenStreetMap contributors,Open Database License,https://www.openstreetmap.org/copyright
54090400,250,2019-12-11 09:31:29,27.706288333333333,85.333775,0.07,14.093486281839445,"Maitidevi Temple stop, Kathmandu, Kathmandu 00446, Nepal",27.706365,85.333661,Maitidevi Temple stop,,,,,00446,Kathmandu,Kathmandu,Three,Nepal,np,© OpenStreetMap contributors,Open Database License,https://www.openstreetmap.org/copyright
54090930,250,2019-12-11 09:31:58,27.70616,85.33387833333333,0.61,7.499753091019565,"Maitidevi Mandir, Kathmandu, Kathmandu 00446, Nepal",27.706095,85.333858,Maitidevi Mandir,,,,,00446,Kathmandu,Kathmandu,Three,Nepal,np,© OpenStreetMap contributors,Open Database License,https://www.openstreetmap.org/copyright
54091437,250,2019-12-11 09:32:28,27.705446666666667,85.333555,9.09,0,"Lord Buddha School, Pancha Kumari Marg, Maitidevi, Kathmandu 00446, Nepal",27.7055504,85.33348949089202,Lord Buddha School,,Pancha Kumari Marg,Kathmandu-30,Maitidevi,00446,Kathmandu,Kathmandu,Bagmati Province,Nepal,np,© OpenStreetMap contributors,Open Database License,https://www.openstreetmap.org/copyright
54091960,250,2019-12-11 09:32:58,27.70451333333333,85.33299166666667,0.13,19.637369535565863,"Western Union Money Transfer, Maiti Devi marg, Maitidevi, Kathmandu 00446, Nepal",27.7046376,85.3331334,Western Union Money Transfer,,Maiti Devi marg,Kathmandu-30,Maitidevi,00446,Kathmandu,Kathmandu,Bagmati Province,Nepal,np,© OpenStreetMap contributors,Open Database License,https://www.openstreetmap.org/copyright
54092529,250,2019-12-11 09:33:29,27.704175,85.332805,3.91,12.62162453499218,"The Pizza Fire, Maiti Devi marg, Maitidevi, Kathmandu 00446, Nepal",27.7042885,85.3328034,The Pizza Fire,,Maiti Devi marg,Kathmandu-30,Maitidevi,00446,Kathmandu,Kathmandu,Bagmati Province,Nepal,np,© OpenStreetMap contributors,Open Database License,https://www.openstreetmap.org/copyright
54093049,250,2019-12-11 09:33:57,27.703948333333333,85.33223166666667,8.37,5.4976552256943565,"Nepal Investment Bank, Kathmandu, Kathmandu 44605, Nepal",27.703955,85.332287,Nepal Investment Bank,,,,,44605,Kathmandu,Kathmandu,Three,Nepal,np,© OpenStreetMap contributors,Open Database License,https://www.openstreetmap.org/copyright
54093616,250,2019-12-11 09:34:27,27.70428833333333,85.33093666666667,0.14,29.626655280242694,"Versatile, Kathmandu, Kathmandu 44605, Nepal",27.704425,85.331195,Versatile,,,,,44605,Kathmandu,Kathmandu,Three,Nepal,np,© OpenStreetMap contributors,Open Database License,https://www.openstreetmap.org/copyright
54094122,250,2019-12-11 09:34:57,27.70461,85.33053666666666,11.03,9.91960495930201,"Nevolution Tech Pvt. Ltd., Dillibazar Sadak, Dillibazar, Kathmandu 44605, Nepal",27.7045265,85.3305012,Nevolution Tech Pvt. Ltd.,,Dillibazar Sadak,Kathmandu-30,Dillibazar,44605,Kathmandu,Kathmandu,Bagmati Province,Nepal,np,© OpenStreetMap contributors,Open Database License,https://www.openstreetmap.org/copyright
54094667,250,2019-12-11 09:35:27,27.704926666666665,85.32927,0.09,6.499873230256067,"Kist Bank, Dillibazar Sadak, Dillibazar, Kathmandu 44605, Nepal",27.7048764,85.3293037,Kist Bank,,Dillibazar Sadak,Kathmandu-30,Dillibazar,44605,Kathmandu,Kathmandu,Bagmati Province,Nepal,np,© OpenStreetMap contributors,Open Database License,https://www.openstreetmap.org/copyright
54095182,250,2019-12-11 09:35:57,27.70521,85.32831833333333,12.05,2.21093907108919,"Destiny Educational Institute, Dillibazar Sadak 30, Kathmandu, Kathmandu 44600, Nepal",27.705194,85.328305,Destiny Educational Institute,30,Dillibazar Sadak,,,44600,Kathmandu,Kathmandu,Three,Nepal,np,© OpenStreetMap contributors,Open Database License,https://www.openstreetmap.org/copyright
54095696,250,2019-12-11 09:36:26,27.70539833333333,85.32718,7.25,29.96905447348459,"Ram Mandir, Kathmandu, Kathmandu 44605, Nepal",27.705502,85.326899,Ram Mandir,,,,,44605,Kathmandu,Kathmandu,Three,Nepal,np,© OpenStreetMap contributors,Open Database License,https://www.openstreetmap.org/copyright
54096207,250,2019-12-11 09:36:56,27.705438333333333,85.32581,0.56,13.934895747359947,"Furniture Trade Link, Dillibazar Sadak, Ghattekulo, Kathmandu 44605, Nepal",27.7055587,85.3257706,Furniture Trade Link,,Dillibazar Sadak,Kathmandu-30,Ghattekulo,44605,Kathmandu,Kathmandu,Bagmati Province,Nepal,np,© OpenStreetMap contributors,Open Database License,https://www.openstreetmap.org/copyright
54096722,250,2019-12-11 09:37:26,27.705535,85.325075,9.62,6.184896794754679,"Swatha Parichyan, Dillibazar Sadak, Ghattekulo, Kathmandu 44605, Nepal",27.7056246,85.3250589,Swatha Parichyan,,Dillibazar Sadak,Kathmandu-30,Ghattekulo,44605,Kathmandu,Kathmandu,Bagmati Province,Nepal,np,© OpenStreetMap contributors,Open Database License,https://www.openstreetmap.org/copyright
54097253,250,2019-12-11 09:37:56,27.70559833333333,85.323745,12.16,32.849940687357275,"Punya Mansion, Dilli Bazaar Road 33, Kathmandu, Kathmandu 00977, Nepal",27.705795,85.323994,Punya Mansion,33,Dilli Bazaar Road,,,00977,Kathmandu,Kathmandu,Three,Nepal,np,© OpenStreetMap contributors,Open Database License,https://www.openstreetmap.org/copyright
54097748,250,2019-12-11 09:38:26,27.70558,85.32322333333333,0.14,30.79054999216699,"Alta-Vista, A school of Spanish Language, Putalisadak Chowk 1306, Kathmandu, Kathmandu GPO 8975 EPC 5067, Nepal",27.705746,85.322973,"Alta-Vista, A school of Spanish Language",1306,Putalisadak Chowk,,,GPO 8975 EPC 5067,Kathmandu,Kathmandu,Three,Nepal,np,© OpenStreetMap contributors,Open Database License,https://www.openstreetmap.org/copyright
54098259,250,2019-12-11 09:38:55,27.705636666666667,85.32304166666667,2.09,13.910353856578554,"Alta-Vista, A school of Spanish Language, Putalisadak Chowk 1306, Kathmandu, Kathmandu GPO 8975 EPC 5067, Nepal",27.705746,85.322973,"Alta-Vista, A school of Spanish Language",1306,Putalisadak Chowk,,,GPO 8975 EPC 5067,Kathmandu,Kathmandu,Three,Nepal,np,© OpenStreetMap contributors,Open Database License,https://www.openstreetmap.org/copyright
54098835,250,2019-12-11 09:39:26,27.705213333333333,85.32286166666667,1.95,2.2216439238278194,"Joshi Photo Process and Digital Studio, Kathmandu, Kathmandu 46600, Nepal",27.705222,85.322882,Joshi Photo Process and Digital Studio,,,,,46600,Kathmandu,Kathmandu,Three,Nepal,np,© OpenStreetMap contributors,Open Database License,https://www.openstreetmap.org/copyright
54099371,250,2019-12-11 09:39:55,27.70401,85.32259666666667,13.5,3.7098671770840705,"Prabhu Bank ATM, Kathmandu, Kathmandu 44605, Nepal",27.704009,85.322559,Prabhu Bank ATM,,,,,44605,Kathmandu,Kathmandu,Three,Nepal,np,© OpenStreetMap contributors,Open Database License,https://www.openstreetmap.org/copyright
54099875,250,2019-12-11 09:40:25,27.703016666666667,85.32244166666666,3.84,7.932605937784011,"Smart Opticals, Putali Sadak, Baghbazar, Kathmandu 44605, Nepal",27.7030317,85.3223629,Smart Opticals,,Putali Sadak,Kathmandu-28,Baghbazar,44605,Kathmandu,Kathmandu,Bagmati Province,Nepal,np,© OpenStreetMap contributors,Open Database License,https://www.openstreetmap.org/copyright
54100417,250,2019-12-11 09:40:55,27.70199,85.322315,2.98,6.666809373076337,"Subh Ultrasound Clinic, Kathmandu, Kathmandu 44605, Nepal",27.701946,85.322269,Subh Ultrasound Clinic,,,,,44605,Kathmandu,Kathmandu,Three,Nepal,np,© OpenStreetMap contributors,Open Database License,https://www.openstreetmap.org/copyright
54100932,250,2019-12-11 09:41:24,27.701381666666663,85.32222666666667,0.09,7.957324505269441,"Jankalyan Stationery And Book Shop, Ram Shah Path, Baghbazar, Kathmandu 44605, Nepal",27.7014181,85.3221571,Jankalyan Stationery And Book Shop,,Ram Shah Path,Kathmandu-28,Baghbazar,44605,Kathmandu,Kathmandu,Bagmati Province,Nepal,np,© OpenStreetMap contributors,Open Database License,https://www.openstreetmap.org/copyright
54101441,250,2019-12-11 09:41:54,27.701296666666668,85.32221,0.08,8.457382429463607,"Aaramba Book Mart, Kathmandu, Kathmandu 44605, Nepal",27.701322,85.322129,Aaramba Book Mart,,,,,44605,Kathmandu,Kathmandu,Three,Nepal,np,© OpenStreetMap contributors,Open Database License,https://www.openstreetmap.org/copyright
54101965,250,2019-12-11 09:42:24,27.70127,85.32219833333333,0.11,8.357470429763465,"Sulab Books And Stationery Suppliers, Kathmandu, Kathmandu 44605, Nepal",27.701301,85.322121,Sulab Books And Stationery Suppliers,,,,,44605,Kathmandu,Kathmandu,Three,Nepal,np,© OpenStreetMap contributors,Open Database License,https://www.openstreetmap.org/copyright
54102500,250,2019-12-11 09:42:54,27.70122333333333,85.32216333333334,0.15,8.56673538158469,"BMC electric Bike, Ram Shah Path, Baghbazar, Kathmandu 44605, Nepal",27.7011753,85.3220953,BMC electric Bike,,Ram Shah Path,Kathmandu-28,Baghbazar,44605,Kathmandu,Kathmandu,Bagmati Province,Nepal,np,© OpenStreetMap contributors,Open Database License,https://www.openstreetmap.org/copyright
54103033,250,2019-12-11 09:43:23,27.701115,85.322135,2.9,7.7472323806609085,"BMC electric Bike, Kathmandu, Kathmandu 44605, Nepal",27.701175,85.322095,BMC electric Bike,,,,,44605,Kathmandu,Kathmandu,Three,Nepal,np,© OpenStreetMap contributors,Open Database License,https://www.openstreetmap.org/copyright
54103560,250,2019-12-11 09:43:53,27.699525,85.32186,15.22,11.991240994109553,"Himalayan White House International College, Baggi Khana Marg, Baghbazar, Kathmandu 44605, Nepal",27.6995798,85.3217551,Himalayan White House International College,,Baggi Khana Marg,Kathmandu-28,Baghbazar,44605,Kathmandu,Kathmandu,Bagmati Province,Nepal,np,© OpenStreetMap contributors,Open Database License,https://www.openstreetmap.org/copyright
54104091,250,2019-12-11 09:44:23,27.697795,85.32149166666666,16.67,22.541130078877035,"Nepal Bar Association, Ram Shah Path, Bansh Ghari, Kathmandu 00446, Nepal",27.697582099999998,85.32172165,Nepal Bar Association,,Ram Shah Path,Kathmandu-29,Bansh Ghari,00446,Kathmandu,Kathmandu,Bagmati Province,Nepal,np,© OpenStreetMap contributors,Open Database License,https://www.openstreetmap.org/copyright
54104609,250,2019-12-11 09:44:53,27.695806666666662,85.32106833333333,13.59,1.5430768332410028,"Singh Durbar, Saras Marg, Ghattekulo, Kathmandu 00446, Nepal",27.696478149999997,85.32461913495442,Singh Durbar,,Saras Marg,Kathmandu-29,Ghattekulo,00446,Kathmandu,Kathmandu,Bagmati Province,Nepal,np,© OpenStreetMap contributors,Open Database License,https://www.openstreetmap.org/copyright
54105136,250,2019-12-11 09:45:23,27.69538,85.32097666666667,0.06,1.0863491679326107,"Singh Durbar, Saras Marg, Ghattekulo, Kathmandu 00446, Nepal",27.696478149999997,85.32461913495442,Singh Durbar,,Saras Marg,Kathmandu-29,Ghattekulo,00446,Kathmandu,Kathmandu,Bagmati Province,Nepal,np,© OpenStreetMap contributors,Open Database License,https://www.openstreetmap.org/copyright
54105677,250,2019-12-11 09:45:54,27.694491666666668,85.320775,11.46,5.229003249306901,"Thapathali, Kathmandu 44617, Nepal",27.6945001,85.3207225,,,,Kathmandu-11,Thapathali,44617,Kathmandu,Kathmandu,Bagmati Province,Nepal,np,© OpenStreetMap contributors,Open Database License,https://www.openstreetmap.org/copyright
54106188,250,2019-12-11 09:46:23,27.693986666666667,85.32103166666667,0.93,0.7414698209943957,"Kathmandu, Kathmandu 44617, Nepal",27.6922553,85.324616,,,,Kathmandu-11,,44617,Kathmandu,Kathmandu,Bagmati Province,Nepal,np,© OpenStreetMap contributors,Open Database License,https://www.openstreetmap.org/copyright
54106691,250,2019-12-11 09:46:52,27.69310833333333,85.322655,13.87,24.533594072174285,"उक्टी मार्गा, Kathmandu, Kathmandu 44617, Nepal",27.693049,85.322415,,,उक्टी मार्गा,,,44617,Kathmandu,Kathmandu,Three,Nepal,np,© OpenStreetMap contributors,Open Database License,https://www.openstreetmap.org/copyright
54107208,250,2019-12-11 09:47:22,27.692398333333333,85.32440833333334,14.83,3.776036212581425,"Kathmandu, Kathmandu 44617, Nepal",27.6922553,85.324616,,,,Kathmandu-11,,44617,Kathmandu,Kathmandu,Bagmati Province,Nepal,np,© OpenStreetMap contributors,Open Database License,https://www.openstreetmap.org/copyright
54107759,250,2019-12-11 09:47:51,27.691715,85.32595666666667,0.42,6.86558364610107,"Kathmandu, Kathmandu 44617, Nepal",27.6921852,85.3264339,,,,Kathmandu-11,,44617,Kathmandu,Kathmandu,Bagmati Province,Nepal,np,© OpenStreetMap contributors,Open Database License,https://www.openstreetmap.org/copyright
54108456,250,2019-12-11 09:48:27,27.69094,85.32762166666667,14.3,9.74560766959995,"Kathmandu, Kathmandu 44617, Nepal",27.6922553,85.324616,,,,Kathmandu-11,,44617,Kathmandu,Kathmandu,Bagmati Province,Nepal,np,© OpenStreetMap contributors,Open Database License,https://www.openstreetmap.org/copyright
54108864,250,2019-12-11 09:48:51,27.690193333333333,85.32898166666666,6.4,5.682534589413687,"Dhobikhola Marga, Kathmandu, Kathmandu 44617, Nepal",27.690229,85.329023,,,Dhobikhola Marga,,,44617,Kathmandu,Kathmandu,Three,Nepal,np,© OpenStreetMap contributors,Open Database License,https://www.openstreetmap.org/copyright
54109453,250,2019-12-11 09:49:22,27.689533333333333,85.33065833333333,13.36,3.658150013941729,"Buddha Nagar, Kathmandu 44617, Nepal",27.6891539,85.3320663,,,,Kathmandu-10,Buddha Nagar,44617,Kathmandu,Kathmandu,Bagmati Province,Nepal,np,© OpenStreetMap contributors,Open Database License,https://www.openstreetmap.org/copyright
54109977,250,2019-12-11 09:49:51,27.689085,85.33274666666667,14.24,4.2377540993492335,"Laxmi capital, Madan Bhandari Path, Buddha Nagar, Kathmandu 44617, Nepal",27.6890469,85.3327477,Laxmi capital,,Madan Bhandari Path,Kathmandu-10,Buddha Nagar,44617,Kathmandu,Kathmandu,Bagmati Province,Nepal,np,© OpenStreetMap contributors,Open Database License,https://www.openstreetmap.org/copyright
54110551,250,2019-12-11 09:50:22,27.688761666666668,85.33369333333333,5.56,3.1803722700611647,"Buddha Nagar, Kathmandu 44617, Nepal",27.6891539,85.3320663,,,,Kathmandu-10,Buddha Nagar,44617,Kathmandu,Kathmandu,Bagmati Province,Nepal,np,© OpenStreetMap contributors,Open Database License,https://www.openstreetmap.org/copyright
54111391,250,2019-12-11 09:51:10,27.688571666666668,85.33463166666667,13.58,0.9701325225208048,"Buddha Nagar, Kathmandu 44617, Nepal",27.6891539,85.3320663,,,,Kathmandu-10,Buddha Nagar,44617,Kathmandu,Kathmandu,Bagmati Province,Nepal,np,© OpenStreetMap contributors,Open Database License,https://www.openstreetmap.org/copyright
54111571,250,2019-12-11 09:51:20,27.688963333333334,85.335705,15.69,13.738138767381407,"Raj Joshi Polyclinic, Naya Baneshwar Sadak, Buddha Nagar, Kathmandu 44617, Nepal",27.6890088,85.33550885,Raj Joshi Polyclinic,,Naya Baneshwar Sadak,Kathmandu-10,Buddha Nagar,44617,Kathmandu,Kathmandu,Bagmati Province,Nepal,np,© OpenStreetMap contributors,Open Database License,https://www.openstreetmap.org/copyright
54112092,250,2019-12-11 09:51:50,27.690645,85.33596833333333,9.57,2.5709291174021778,"पुरानो बानेश्वर सडक, Kathmandu, Kathmandu 44617, Nepal",27.690622,85.335971,,,पुरानो बानेश्वर सडक,,,44617,Kathmandu,Kathmandu,Three,Nepal,np,© OpenStreetMap contributors,Open Database License,https://www.openstreetmap.org/copyright
54112649,250,2019-12-11 09:52:19,27.691625,85.33611666666667,8.19,11.291445569191207,"Jyoti Bikash Bank Ltd, Devkota Sadak, Kathmandu, Kathmandu 00446, Nepal",27.691569,85.336021,Jyoti Bikash Bank Ltd,,Devkota Sadak,,,00446,Kathmandu,Kathmandu,Three,Nepal,np,© OpenStreetMap contributors,Open Database License,https://www.openstreetmap.org/copyright
54113238,250,2019-12-11 09:52:51,27.692668333333334,85.33653666666666,11.0,32.604295745971825,"Yes Informatics, Devkota Sadak 10, Kathmandu, Kathmandu 44600, Nepal",27.692738,85.336215,Yes Informatics,10,Devkota Sadak,,,44600,Kathmandu,Kathmandu,Three,Nepal,np,© OpenStreetMap contributors,Open Database License,https://www.openstreetmap.org/copyright
54113770,250,2019-12-11 09:53:19,27.69333333333333,85.33688333333333,0.05,27.14658991912421,"Sandar MoMo, Devkota Sadak, Baneshwar, Kathmandu 00446, Nepal",27.693657549999998,85.33711741084306,Sandar MoMo,,Devkota Sadak,Kathmandu-10,Baneshwar,00446,Kathmandu,Kathmandu,Bagmati Province,Nepal,np,© OpenStreetMap contributors,Open Database License,https://www.openstreetmap.org/copyright
54114320,250,2019-12-11 09:53:49,27.693466666666662,85.33692333333333,0.73,13.233487484353143,"Sandar MoMo, Devkota Sadak, Baneshwar, Kathmandu 00446, Nepal",27.693657549999998,85.33711741084306,Sandar MoMo,,Devkota Sadak,Kathmandu-10,Baneshwar,00446,Kathmandu,Kathmandu,Bagmati Province,Nepal,np,© OpenStreetMap contributors,Open Database License,https://www.openstreetmap.org/copyright
54114852,250,2019-12-11 09:54:19,27.693595,85.33697333333333,0.08,7.184538458286604,"Sandar MoMo, Devkota Sadak, Baneshwar, Kathmandu 00446, Nepal",27.693657549999998,85.33711741084306,Sandar MoMo,,Devkota Sadak,Kathmandu-10,Baneshwar,00446,Kathmandu,Kathmandu,Bagmati Province,Nepal,np,© OpenStreetMap contributors,Open Database License,https://www.openstreetmap.org/copyright
54115402,250,2019-12-11 09:54:48,27.693728333333333,85.33702333333333,1.58,5.611294140796634,"prabu, Devkota Sadak, Baneshwar, Kathmandu 00446, Nepal",27.6938377,85.33694297071918,prabu,,Devkota Sadak,Kathmandu-10,Baneshwar,00446,Kathmandu,Kathmandu,Bagmati Province,Nepal,np,© OpenStreetMap contributors,Open Database License,https://www.openstreetmap.org/copyright
54115923,250,2019-12-11 09:55:18,27.693715,85.33707333333334,1.65,2.6892105467041385,"Sandar MoMo, Devkota Sadak, Baneshwar, Kathmandu 00446, Nepal",27.693657549999998,85.33711741084306,Sandar MoMo,,Devkota Sadak,Kathmandu-10,Baneshwar,00446,Kathmandu,Kathmandu,Bagmati Province,Nepal,np,© OpenStreetMap contributors,Open Database License,https://www.openstreetmap.org/copyright
54116460,250,2019-12-11 09:55:48,27.693875,85.33711,1.6,6.003190153335001,"Barahi Furniture, Devkota Sadak, Baneshwar, Kathmandu 00446, Nepal",27.693848,85.3371628,Barahi Furniture,,Devkota Sadak,Kathmandu-10,Baneshwar,00446,Kathmandu,Kathmandu,Bagmati Province,Nepal,np,© OpenStreetMap contributors,Open Database License,https://www.openstreetmap.org/copyright
54117026,250,2019-12-11 09:56:18,27.69395833333333,85.337105,0.41,5.194933174924247,"Old Whitehouse International College, Devkota Sadak, Baneshwar, Kathmandu 00446, Nepal",27.69402185,85.33730716567752,Old Whitehouse International College,,Devkota Sadak,Kathmandu-10,Baneshwar,00446,Kathmandu,Kathmandu,Bagmati Province,Nepal,np,© OpenStreetMap contributors,Open Database License,https://www.openstreetmap.org/copyright
54117547,250,2019-12-11 09:56:48,27.694076666666668,85.337115,1.26,5.013235282881644,"Old Whitehouse International College, Devkota Sadak, Baneshwar, Kathmandu 00446, Nepal",27.69402185,85.33730716567752,Old Whitehouse International College,,Devkota Sadak,Kathmandu-10,Baneshwar,00446,Kathmandu,Kathmandu,Bagmati Province,Nepal,np,© OpenStreetMap contributors,Open Database License,https://www.openstreetmap.org/copyright
54118090,250,2019-12-11 09:57:17,27.694306666666662,85.33712166666666,2.59,4.352270684978426,"Bharosa Pharmacy, Devkota Sadak, Baneshwar, Kathmandu 00446, Nepal",27.6943458,85.3371208,Bharosa Pharmacy,,Devkota Sadak,Kathmandu-10,Baneshwar,00446,Kathmandu,Kathmandu,Bagmati Province,Nepal,np,© OpenStreetMap contributors,Open Database License,https://www.openstreetmap.org/copyright
54118637,250,2019-12-11 09:57:47,27.694511666666667,85.33730666666666,3.59,8.415342399653575,"Global IME Bank, Balbhadra Marg, Naya Baneshwar, Kathmandu 44703, Nepal",27.6944391,85.3372824,Global IME Bank,,Balbhadra Marg,Kathmandu-10,Naya Baneshwar,44703,Kathmandu,Kathmandu,Bagmati Province,Nepal,np,© OpenStreetMap contributors,Open Database License,https://www.openstreetmap.org/copyright
54119169,250,2019-12-11 09:58:17,27.695206666666667,85.33741166666667,3.96,18.24489297919869,"Chicken Station, Kathmandu, Kathmandu 44703, Nepal",27.695193,85.337227,Chicken Station,,,,,44703,Kathmandu,Kathmandu,Three,Nepal,np,© OpenStreetMap contributors,Open Database License,https://www.openstreetmap.org/copyright
54119684,250,2019-12-11 09:58:47,27.695805,85.33764833333333,3.19,12.205702864702303,"Banabanga Dhungadhara, Kathmandu, Kathmandu 44703, Nepal",27.695698,85.337676,Banabanga Dhungadhara,,,,,44703,Kathmandu,Kathmandu,Three,Nepal,np,© OpenStreetMap contributors,Open Database License,https://www.openstreetmap.org/copyright
54120225,250,2019-12-11 09:59:17,27.696336666666667,85.33764166666667,0.88,1.295700314194261,"Sunway International Business School, Devkota Sadak, Baneshwar, Kathmandu 44703, Nepal",27.6962397,85.3377140452759,Sunway International Business School,,Devkota Sadak,Kathmandu-10,Baneshwar,44703,Kathmandu,Kathmandu,Bagmati Province,Nepal,np,© OpenStreetMap contributors,Open Database License,https://www.openstreetmap.org/copyright
54120771,250,2019-12-11 09:59:46,27.696661666666667,85.33766833333334,0.63,8.869037064010797,"The Pizza Cutter, Kathmandu, Kathmandu 44703, Nepal",27.696637,85.337754,The Pizza Cutter,,,,,44703,Kathmandu,Kathmandu,Three,Nepal,np,© OpenStreetMap contributors,Open Database License,https://www.openstreetmap.org/copyright
54121324,250,2019-12-11 10:00:16,27.697446666666668,85.337925,10.74,11.31222380755537,"Mata Pathivara Girls Hostel, Devkota Sadak, Baneshwar, Kathmandu 44703, Nepal",27.69748155,85.3380922194014,Mata Pathivara Girls Hostel,,Devkota Sadak,Kathmandu-10,Baneshwar,44703,Kathmandu,Kathmandu,Bagmati Province,Nepal,np,© OpenStreetMap contributors,Open Database License,https://www.openstreetmap.org/copyright
54121858,250,2019-12-11 10:00:47,27.698888333333333,85.33839166666667,9.33,5.0315964732624705,"Serene, Kathmandu, Kathmandu 44703, Nepal",27.698899,85.338342,Serene,,,,,44703,Kathmandu,Kathmandu,Three,Nepal,np,© OpenStreetMap contributors,Open Database License,https://www.openstreetmap.org/copyright
54122393,250,2019-12-11 10:01:16,27.69919833333333,85.33845166666667,1.21,5.4163676295074925,"Ever Green Restaurant and Cafe, Kathmandu, Kathmandu 44703, Nepal",27.699247,85.338454,Ever Green Restaurant and Cafe,,,,,44703,Kathmandu,Kathmandu,Three,Nepal,np,© OpenStreetMap contributors,Open Database License,https://www.openstreetmap.org/copyright
54122923,250,2019-12-11 10:01:46,27.69998,85.338745,12.75,13.990097102779005,"Cherry on Top, Devkota Sadak, Baneshwar, Kathmandu 44703, Nepal",27.7000706,85.3386464,Cherry on Top,,Devkota Sadak,Kathmandu-10,Baneshwar,44703,Kathmandu,Kathmandu,Bagmati Province,Nepal,np,© OpenStreetMap contributors,Open Database License,https://www.openstreetmap.org/copyright
54123433,250,2019-12-11 10:02:15,27.700376666666667,85.33907833333333,0.27,15.951601711189392,"SAIM College, Devkota Sadak, Baneshwar, Kathmandu 44703, Nepal",27.7004709,85.3392005,SAIM College,,Devkota Sadak,Kathmandu-10,Baneshwar,44703,Kathmandu,Kathmandu,Bagmati Province,Nepal,np,© OpenStreetMap contributors,Open Database License,https://www.openstreetmap.org/copyright
54123958,250,2019-12-11 10:02:45,27.700441666666663,85.33908166666667,0.38,12.142451366307277,"SAIM College, Devkota Sadak, Baneshwar, Kathmandu 44703, Nepal",27.7004709,85.3392005,SAIM College,,Devkota Sadak,Kathmandu-10,Baneshwar,44703,Kathmandu,Kathmandu,Bagmati Province,Nepal,np,© OpenStreetMap contributors,Open Database License,https://www.openstreetmap.org/copyright
54124481,250,2019-12-11 10:03:15,27.700445,85.33905833333333,0.29,14.289673261549037,"SAIM College, Devkota Sadak, Baneshwar, Kathmandu 44703, Nepal",27.7004709,85.3392005,SAIM College,,Devkota Sadak,Kathmandu-10,Baneshwar,44703,Kathmandu,Kathmandu,Bagmati Province,Nepal,np,© OpenStreetMap contributors,Open Database License,https://www.openstreetmap.org/copyright
54124999,250,2019-12-11 10:03:45,27.70042833333333,85.33904333333334,0.63,16.180966105255866,"SAIM College, Devkota Sadak, Baneshwar, Kathmandu 44703, Nepal",27.7004709,85.3392005,SAIM College,,Devkota Sadak,Kathmandu-10,Baneshwar,44703,Kathmandu,Kathmandu,Bagmati Province,Nepal,np,© OpenStreetMap contributors,Open Database License,https://www.openstreetmap.org/copyright
54125529,250,2019-12-11 10:04:14,27.700366666666667,85.33906833333333,0.06,17.425390825331224,"SAIM College, Devkota Sadak, Baneshwar, Kathmandu 44703, Nepal",27.7004709,85.3392005,SAIM College,,Devkota Sadak,Kathmandu-10,Baneshwar,44703,Kathmandu,Kathmandu,Bagmati Province,Nepal,np,© OpenStreetMap contributors,Open Database License,https://www.openstreetmap.org/copyright
54126051,250,2019-12-11 10:04:44,27.70039833333333,85.339075,0.07,14.757052738885806,"SAIM College, Devkota Sadak, Baneshwar, Kathmandu 44703, Nepal",27.7004709,85.3392005,SAIM College,,Devkota Sadak,Kathmandu-10,Baneshwar,44703,Kathmandu,Kathmandu,Bagmati Province,Nepal,np,© OpenStreetMap contributors,Open Database License,https://www.openstreetmap.org/copyright
54126587,250,2019-12-11 10:05:14,27.700423333333333,85.33905833333333,0.12,14.962489492200087,"SAIM College, Devkota Sadak, Baneshwar, Kathmandu 44703, Nepal",27.7004709,85.3392005,SAIM College,,Devkota Sadak,Kathmandu-10,Baneshwar,44703,Kathmandu,Kathmandu,Bagmati Province,Nepal,np,© OpenStreetMap contributors,Open Database License,https://www.openstreetmap.org/copyright
54127122,250,2019-12-11 10:05:44,27.70044,85.33907,0.11,13.299361138618645,"SAIM College, Devkota Sadak, Baneshwar, Kathmandu 44703, Nepal",27.7004709,85.3392005,SAIM College,,Devkota Sadak,Kathmandu-10,Baneshwar,44703,Kathmandu,Kathmandu,Bagmati Province,Nepal,np,© OpenStreetMap contributors,Open Database License,https://www.openstreetmap.org/copyright
54127663,250,2019-12-11 10:06:14,27.70048166666667,85.33931166666666,3.81,10.959611978468356,"SAIM College, Kathmandu, Kathmandu 44703, Nepal",27.700471,85.339201,SAIM College,,,,,44703,Kathmandu,Kathmandu,Three,Nepal,np,© OpenStreetMap contributors,Open Database License,https://www.openstreetmap.org/copyright
54128308,250,2019-12-11 10:06:48,27.700533333333333,85.33943666666667,1.08,16.028241006193277,"Mankamana Store, Devkota Sadak, Baneshwar, Kathmandu 44703, Nepal",27.700514,85.339598,Mankamana Store,,Devkota Sadak,Kathmandu-10,Baneshwar,44703,Kathmandu,Kathmandu,Bagmati Province,Nepal,np,© OpenStreetMap contributors,Open Database License,https://www.openstreetmap.org/copyright
54128786,250,2019-12-11 10:07:15,27.700575,85.339585,0.84,6.902592103611807,"Mankamana Store, Devkota Sadak, Baneshwar, Kathmandu 44703, Nepal",27.700514,85.339598,Mankamana Store,,Devkota Sadak,Kathmandu-10,Baneshwar,44703,Kathmandu,Kathmandu,Bagmati Province,Nepal,np,© OpenStreetMap contributors,Open Database License,https://www.openstreetmap.org/copyright
54129287,250,2019-12-11 10:07:43,27.700578333333333,85.339645,0.45,3.4114033706235793,"Tempo Stop Near Old Baneshwar, Kathmandu, Kathmandu 44703, Nepal",27.700609,85.339644,Tempo Stop Near Old Baneshwar,,,,,44703,Kathmandu,Kathmandu,Three,Nepal,np,© OpenStreetMap contributors,Open Database License,https://www.openstreetmap.org/copyright
54129832,250,2019-12-11 10:08:13,27.700591666666668,85.339645,0.29,1.929894193800826,"Tempo Stop Near Old Baneshwar, Kathmandu, Kathmandu 44703, Nepal",27.700609,85.339644,Tempo Stop Near Old Baneshwar,,,,,44703,Kathmandu,Kathmandu,Three,Nepal,np,© OpenStreetMap contributors,Open Database License,https://www.openstreetmap.org/copyright
54130367,250,2019-12-11 10:08:43,27.70059833333333,85.339585,0.07,5.928459974740883,"Tempo Stop Near Old Baneshwar, Kathmandu, Kathmandu 44703, Nepal",27.700609,85.339644,Tempo Stop Near Old Baneshwar,,,,,44703,Kathmandu,Kathmandu,Three,Nepal,np,© OpenStreetMap contributors,Open Database License,https://www.openstreetmap.org/copyright
54130907,250,2019-12-11 10:09:13,27.700606666666665,85.339555,0.63,8.765967674530875,"Tempo Stop Near Old Baneshwar, Kathmandu, Kathmandu 44703, Nepal",27.700609,85.339644,Tempo Stop Near Old Baneshwar,,,,,44703,Kathmandu,Kathmandu,Three,Nepal,np,© OpenStreetMap contributors,Open Database License,https://www.openstreetmap.org/copyright
54131445,250,2019-12-11 10:09:42,27.700595,85.33959,0.05,5.539581053870905,"Tempo Stop Near Old Baneshwar, Kathmandu, Kathmandu 44703, Nepal",27.700609,85.339644,Tempo Stop Near Old Baneshwar,,,,,44703,Kathmandu,Kathmandu,Three,Nepal,np,© OpenStreetMap contributors,Open Database License,https://www.openstreetmap.org/copyright
54131999,250,2019-12-11 10:10:12,27.700565,85.33958666666666,0.17,5.779673203967898,"Mankamana Store, Devkota Sadak, Baneshwar, Kathmandu 44703, Nepal",27.700514,85.339598,Mankamana Store,,Devkota Sadak,Kathmandu-10,Baneshwar,44703,Kathmandu,Kathmandu,Bagmati Province,Nepal,np,© OpenStreetMap contributors,Open Database License,https://www.openstreetmap.org/copyright
54132704,250,2019-12-11 10:10:52,27.70053833333333,85.33960666666667,1.31,2.837091398314673,"Mankamana Store, Devkota Sadak, Baneshwar, Kathmandu 44703, Nepal",27.700514,85.339598,Mankamana Store,,Devkota Sadak,Kathmandu-10,Baneshwar,44703,Kathmandu,Kathmandu,Bagmati Province,Nepal,np,© OpenStreetMap contributors,Open Database License,https://www.openstreetmap.org/copyright
54133042,250,2019-12-11 10:11:11,27.70057333333333,85.33961333333333,0.19,4.984390751575937,"Tempo Stop Near Old Baneshwar, Kathmandu, Kathmandu 44703, Nepal",27.700609,85.339644,Tempo Stop Near Old Baneshwar,,,,,44703,Kathmandu,Kathmandu,Three,Nepal,np,© OpenStreetMap contributors,Open Database License,https://www.openstreetmap.org/copyright
54133557,250,2019-12-11 10:11:41,27.700615,85.33965166666667,0.64,1.007384891764263,"Tempo Stop Near Old Baneshwar, Kathmandu, Kathmandu 44703, Nepal",27.700609,85.339644,Tempo Stop Near Old Baneshwar,,,,,44703,Kathmandu,Kathmandu,Three,Nepal,np,© OpenStreetMap contributors,Open Database License,https://www.openstreetmap.org/copyright
54134141,250,2019-12-11 10:12:14,27.701056666666663,85.33979666666667,5.22,9.149762900359173,"Priya Beauty Parlor, Old Baneshwor, Kathmandu, Kathmandu 44600, Nepal",27.701005,85.339869,Priya Beauty Parlor,,Old Baneshwor,,,44600,Kathmandu,Kathmandu,Three,Nepal,np,© OpenStreetMap contributors,Open Database License,https://www.openstreetmap.org/copyright
54134619,250,2019-12-11 10:12:41,27.7013,85.33996,2.07,12.025368874994491,"burger king, Kathmandu, Kathmandu 44703, Nepal",27.701209,85.340026,burger king,,,,,44703,Kathmandu,Kathmandu,Three,Nepal,np,© OpenStreetMap contributors,Open Database License,https://www.openstreetmap.org/copyright
54140552,250,2019-12-11 10:18:08,27.7079,85.33919666666667,14.65,19.291885767669612,"Wigan & Leigh College, Pashupati Sadak, Chabahil, Kathmandu 44660, Nepal",27.70814345,85.33914129437514,Wigan & Leigh College,,Pashupati Sadak,Kathmandu-07,Chabahil,44660,Kathmandu,Kathmandu,Bagmati Province,Nepal,np,© OpenStreetMap contributors,Open Database License,https://www.openstreetmap.org/copyright
54141087,250,2019-12-11 10:18:38,27.70797,85.33738666666666,10.34,8.616540461407302,"Maitidevi, Kathmandu 00446, Nepal",27.7056104,85.3364598,,,,Kathmandu-30,Maitidevi,00446,Kathmandu,Kathmandu,Bagmati Province,Nepal,np,© OpenStreetMap contributors,Open Database License,https://www.openstreetmap.org/copyright
54141768,250,2019-12-11 10:19:16,27.708113333333333,85.33541166666667,16.18,2.190460955443643,"Welcare Hospital and Research Centre, Pashupati Sadak, Maitidevi, Kathmandu 44605, Nepal",27.70797695,85.33527921821374,Welcare Hospital and Research Centre,,Pashupati Sadak,Kathmandu-30,Maitidevi,44605,Kathmandu,Kathmandu,Bagmati Province,Nepal,np,© OpenStreetMap contributors,Open Database License,https://www.openstreetmap.org/copyright
54142169,250,2019-12-11 10:19:40,27.708236666666668,85.33312166666667,12.9,2.0939704133011174,"Subidha Travel, Pashupati Marga, Maitidevi, Kathmandu 44605, Nepal",27.7082182,85.3331175,Subidha Travel,,Pashupati Marga,Kathmandu-30,Maitidevi,44605,Kathmandu,Kathmandu,Bagmati Province,Nepal,np,© OpenStreetMap contributors,Open Database License,https://www.openstreetmap.org/copyright
54142673,250,2019-12-11 10:20:08,27.708646666666667,85.331935,2.9,1.377647713970721,"Maitidevi, Kathmandu 44605, Nepal",27.7086373,85.3319646,,,,Kathmandu-30,Maitidevi,44605,Kathmandu,Kathmandu,Bagmati Province,Nepal,np,© OpenStreetMap contributors,Open Database License,https://www.openstreetmap.org/copyright
54143229,250,2019-12-11 10:20:39,27.709895,85.33277333333334,14.95,0,"German Embassy, Gyaneshwar Marg, Maitidevi, Kathmandu 00975, Nepal",27.709540949999997,85.33348460677628,German Embassy,,Gyaneshwar Marg,Kathmandu-30,Maitidevi,00975,Kathmandu,Kathmandu,Bagmati Province,Nepal,np,© OpenStreetMap contributors,Open Database License,https://www.openstreetmap.org/copyright
55543540,250,2019-12-12 09:29:28,27.710201666666663,85.33288666666667,10.62,10.962177910154134,"ज्ञानेश्वर मार्ग, Kathmandu, Kathmandu 00975, Nepal",27.710215,85.332997,,,ज्ञानेश्वर मार्ग,,,00975,Kathmandu,Kathmandu,Three,Nepal,np,© OpenStreetMap contributors,Open Database License,https://www.openstreetmap.org/copyright
55544066,250,2019-12-12 09:29:58,27.709046666666666,85.33207833333333,4.07,2.6924783830825896,"Maitidevi, Kathmandu 44605, Nepal",27.7086839,85.3318427,,,,Kathmandu-30,Maitidevi,44605,Kathmandu,Kathmandu,Bagmati Province,Nepal,np,© OpenStreetMap contributors,Open Database License,https://www.openstreetmap.org/copyright
55544576,250,2019-12-12 09:30:27,27.70838,85.33296333333334,9.39,17.29051411218921,"Shrestha Motorcycle House, Pashupati Sadak, Maitidevi, Kathmandu 44605, Nepal",27.7081758,85.33300173384461,Shrestha Motorcycle House,,Pashupati Sadak,Kathmandu-30,Maitidevi,44605,Kathmandu,Kathmandu,Bagmati Province,Nepal,np,© OpenStreetMap contributors,Open Database License,https://www.openstreetmap.org/copyright
55545086,250,2019-12-12 09:30:57,27.708305,85.33336666666666,3.69,0.6378959164424732,"Bishnu paudel marg, Maitidevi, Kathmandu 00975, Nepal",27.7090831,85.3338723,Bishnu paudel marg,,Bishnu paudel marg,Kathmandu-30,Maitidevi,00975,Kathmandu,Kathmandu,Bagmati Province,Nepal,np,© OpenStreetMap contributors,Open Database License,https://www.openstreetmap.org/copyright
55545625,250,2019-12-12 09:31:27,27.70753,85.33326166666667,1.85,31.98180136390779,"AM/PM Cafe and Bar, Maiti Devi marg, Maitidevi, Kathmandu 44605, Nepal",27.7073033,85.3334616,AM/PM Cafe and Bar,,Maiti Devi marg,Kathmandu-30,Maitidevi,44605,Kathmandu,Kathmandu,Bagmati Province,Nepal,np,© OpenStreetMap contributors,Open Database License,https://www.openstreetmap.org/copyright
55546151,250,2019-12-12 09:31:57,27.706516666666666,85.333615,8.66,17.462004255652918,"Maitidevi Temple stop, Kathmandu, Kathmandu 00446, Nepal",27.706365,85.333661,Maitidevi Temple stop,,,,,00446,Kathmandu,Kathmandu,Three,Nepal,np,© OpenStreetMap contributors,Open Database License,https://www.openstreetmap.org/copyright
55546658,250,2019-12-12 09:32:26,27.70615,85.33379166666667,0.81,6.9335806625917735,"Maitidevi Sweet House, Maiti Devi marg, Maitidevi, Kathmandu 00446, Nepal",27.7061676,85.3337241,Maitidevi Sweet House,,Maiti Devi marg,Kathmandu-30,Maitidevi,00446,Kathmandu,Kathmandu,Bagmati Province,Nepal,np,© OpenStreetMap contributors,Open Database License,https://www.openstreetmap.org/copyright
55547166,250,2019-12-12 09:32:56,27.705441666666665,85.33354,8.27,0.17959585172373346,"Lord Buddha School, Pancha Kumari Marg, Maitidevi, Kathmandu 00446, Nepal",27.7055504,85.33348949089202,Lord Buddha School,,Pancha Kumari Marg,Kathmandu-30,Maitidevi,00446,Kathmandu,Kathmandu,Bagmati Province,Nepal,np,© OpenStreetMap contributors,Open Database License,https://www.openstreetmap.org/copyright
55547664,250,2019-12-12 09:33:26,27.704281666666667,85.33294333333333,0.59,13.797032459968529,"The Pizza Fire, Maiti Devi marg, Maitidevi, Kathmandu 00446, Nepal",27.7042885,85.3328034,The Pizza Fire,,Maiti Devi marg,Kathmandu-30,Maitidevi,00446,Kathmandu,Kathmandu,Bagmati Province,Nepal,np,© OpenStreetMap contributors,Open Database License,https://www.openstreetmap.org/copyright
55548184,250,2019-12-12 09:33:56,27.704186666666665,85.33285,2.99,12.217414380144854,"The Pizza Fire, Maiti Devi marg, Maitidevi, Kathmandu 00446, Nepal",27.7042885,85.3328034,The Pizza Fire,,Maiti Devi marg,Kathmandu-30,Maitidevi,00446,Kathmandu,Kathmandu,Bagmati Province,Nepal,np,© OpenStreetMap contributors,Open Database License,https://www.openstreetmap.org/copyright
55548697,250,2019-12-12 09:34:26,27.703975,85.332545,0.22,7.50609534570649,"APOLLO POLYCLINIC एपोलो पोलि क्लिनिक ।, Dillibazar Sadak, Dillibazar, Kathmandu 44605, Nepal",27.7040415,85.3325581,APOLLO POLYCLINIC एपोलो पोलि क्लिनिक ।,,Dillibazar Sadak,Kathmandu-30,Dillibazar,44605,Kathmandu,Kathmandu,Bagmati Province,Nepal,np,© OpenStreetMap contributors,Open Database License,https://www.openstreetmap.org/copyright
55549198,250,2019-12-12 09:34:55,27.704066666666662,85.33166166666666,12.55,27.23598940459637,"Western Union Money Transfer, Kathmandu, Kathmandu 44605, Nepal",27.704241,85.331856,Western Union Money Transfer,,,,,44605,Kathmandu,Kathmandu,Three,Nepal,np,© OpenStreetMap contributors,Open Database License,https://www.openstreetmap.org/copyright
55549740,250,2019-12-12 09:35:25,27.704406666666667,85.330805,0.31,18.394442595365618,"Bank of Asia, Kathmandu, Kathmandu 44605, Nepal",27.704567,85.330759,Bank of Asia,,,,,44605,Kathmandu,Kathmandu,Three,Nepal,np,© OpenStreetMap contributors,Open Database License,https://www.openstreetmap.org/copyright
55550250,250,2019-12-12 09:35:55,27.704765,85.32991166666666,12.94,31.221155416466477,"Ncell Shop, Kathmandu, Kathmandu 44605, Nepal",27.704792,85.329596,Ncell Shop,,,,,44605,Kathmandu,Kathmandu,Three,Nepal,np,© OpenStreetMap contributors,Open Database License,https://www.openstreetmap.org/copyright
55550790,250,2019-12-12 09:36:25,27.70495333333333,85.32915333333334,4.91,15.1202874816725,"Radha Krishna Temple, Dillibazar Sadak, Dillibazar, Kathmandu 44605, Nepal",27.7048779,85.3290020480224,Radha Krishna Temple,,Dillibazar Sadak,Kathmandu-29,Dillibazar,44605,Kathmandu,Kathmandu,Bagmati Province,Nepal,np,© OpenStreetMap contributors,Open Database License,https://www.openstreetmap.org/copyright
55551315,250,2019-12-12 09:36:55,27.705325,85.32785166666666,0.75,46.94620542516876,"Destiny Educational Institute, Dillibazar Sadak 30, Kathmandu, Kathmandu 44600, Nepal",27.705194,85.328305,Destiny Educational Institute,30,Dillibazar Sadak,,,44600,Kathmandu,Kathmandu,Three,Nepal,np,© OpenStreetMap contributors,Open Database License,https://www.openstreetmap.org/copyright
55551874,250,2019-12-12 09:37:24,27.705246666666667,85.327065,6.57,0,"Bijaya Smarak Higher Secondary School, Dillibazar Sadak, Ghattekulo, Kathmandu 44605, Nepal",27.70502425,85.32693955170585,Bijaya Smarak Higher Secondary School,,Dillibazar Sadak,Kathmandu-29,Ghattekulo,44605,Kathmandu,Kathmandu,Bagmati Province,Nepal,np,© OpenStreetMap contributors,Open Database License,https://www.openstreetmap.org/copyright
55552518,250,2019-12-12 09:38:02,27.70534,85.32587833333334,0.86,7.906502369858133,"Padmakanya Vidyashram H.S. School and College, Kathmandu, Kathmandu 44605, Nepal",27.705349,85.325958,Padmakanya Vidyashram H.S. School and College,,,,,44605,Kathmandu,Kathmandu,Three,Nepal,np,© OpenStreetMap contributors,Open Database License,https://www.openstreetmap.org/copyright
55552887,250,2019-12-12 09:38:24,27.70553333333333,85.32491833333333,13.24,9.16694138347417,"Dillibazar Sadak, Kathmandu, Kathmandu 44605, Nepal",27.705544,85.324826,,,Dillibazar Sadak,,,44605,Kathmandu,Kathmandu,Three,Nepal,np,© OpenStreetMap contributors,Open Database License,https://www.openstreetmap.org/copyright
55553394,250,2019-12-12 09:38:54,27.705528333333334,85.32362833333333,8.26,46.63836137298079,"Punya Mansion, Dilli Bazaar Road 33, Kathmandu, Kathmandu 00977, Nepal",27.705795,85.323994,Punya Mansion,33,Dilli Bazaar Road,,,00977,Kathmandu,Kathmandu,Three,Nepal,np,© OpenStreetMap contributors,Open Database License,https://www.openstreetmap.org/copyright
55553956,250,2019-12-12 09:39:24,27.705421666666663,85.32295666666667,7.04,4.617342006163391,"NaryanDaii Ko Famous MoMo, Kathmandu, Kathmandu 46600, Nepal",27.705409,85.322912,NaryanDaii Ko Famous MoMo,,,,,46600,Kathmandu,Kathmandu,Three,Nepal,np,© OpenStreetMap contributors,Open Database License,https://www.openstreetmap.org/copyright
55554496,250,2019-12-12 09:39:54,27.704811666666668,85.322755,5.77,5.693606510999199,"Makalu Education Consultancy Pvt.Ltd, Kathmandu, Kathmandu 46600, Nepal",27.70483,85.322701,Makalu Education Consultancy Pvt.Ltd,,,,,46600,Kathmandu,Kathmandu,Three,Nepal,np,© OpenStreetMap contributors,Open Database License,https://www.openstreetmap.org/copyright
55555025,250,2019-12-12 09:40:23,27.70317,85.32247833333334,2.28,7.9227487784281205,"Govinda Bhawan, Kathmandu, Kathmandu 46600, Nepal",27.70312,85.322421,Govinda Bhawan,,,,,46600,Kathmandu,Kathmandu,Three,Nepal,np,© OpenStreetMap contributors,Open Database License,https://www.openstreetmap.org/copyright
55555576,250,2019-12-12 09:40:53,27.702245,85.32233333333333,4.83,4.076840327144914,"Darwin Education Foundation PVT.LTD, Kathmandu, Kathmandu 44605, Nepal",27.70228,85.322321,Darwin Education Foundation PVT.LTD,,,,,44605,Kathmandu,Kathmandu,Three,Nepal,np,© OpenStreetMap contributors,Open Database License,https://www.openstreetmap.org/copyright
55556109,250,2019-12-12 09:41:23,27.701115,85.32220333333333,13.2,6.798542668626755,"Deoch an Doris, Ram Shah Path, Baghbazar, Kathmandu 44605, Nepal",27.70116135,85.32233142926742,Deoch an Doris,,Ram Shah Path,Kathmandu-29,Baghbazar,44605,Kathmandu,Kathmandu,Bagmati Province,Nepal,np,© OpenStreetMap contributors,Open Database License,https://www.openstreetmap.org/copyright
55556622,250,2019-12-12 09:41:52,27.699005,85.32177166666666,13.03,15.00322420287786,"Global IME Bank ATM, Ram Shah Path, Baghbazar, Kathmandu 44605, Nepal",27.6990074,85.3216193,Global IME Bank ATM,,Ram Shah Path,Kathmandu-28,Baghbazar,44605,Kathmandu,Kathmandu,Bagmati Province,Nepal,np,© OpenStreetMap contributors,Open Database License,https://www.openstreetmap.org/copyright
55557155,250,2019-12-12 09:42:22,27.697135,85.32134833333333,14.02,29.344118133607022,"Supreme Court of Nepal, Ram Shah Path, Bansh Ghari, Kathmandu 00446, Nepal",27.696805750000003,85.32174221625255,Supreme Court of Nepal,,Ram Shah Path,Kathmandu-29,Bansh Ghari,00446,Kathmandu,Kathmandu,Bagmati Province,Nepal,np,© OpenStreetMap contributors,Open Database License,https://www.openstreetmap.org/copyright
55557673,250,2019-12-12 09:42:52,27.69610833333333,85.32113166666667,0.01,2.008689587170432,"Singh Durbar, Saras Marg, Ghattekulo, Kathmandu 00446, Nepal",27.696478149999997,85.32461913495442,Singh Durbar,,Saras Marg,Kathmandu-29,Ghattekulo,00446,Kathmandu,Kathmandu,Bagmati Province,Nepal,np,© OpenStreetMap contributors,Open Database License,https://www.openstreetmap.org/copyright
55558203,250,2019-12-12 09:43:22,27.695571666666662,85.32102166666667,7.49,0.9226020702739638,"Singh Durbar, Saras Marg, Ghattekulo, Kathmandu 00446, Nepal",27.696478149999997,85.32461913495442,Singh Durbar,,Saras Marg,Kathmandu-29,Ghattekulo,00446,Kathmandu,Kathmandu,Bagmati Province,Nepal,np,© OpenStreetMap contributors,Open Database License,https://www.openstreetmap.org/copyright
55558724,250,2019-12-12 09:43:52,27.69459,85.32080166666667,6.87,5.1712858296840905,"Thapathali, Kathmandu 44617, Nepal",27.6949897,85.3208456,,,,Kathmandu-11,Thapathali,44617,Kathmandu,Kathmandu,Bagmati Province,Nepal,np,© OpenStreetMap contributors,Open Database License,https://www.openstreetmap.org/copyright
55559266,250,2019-12-12 09:44:22,27.69341333333333,85.322405,17.38,4.323118559359422,"शहरी बिकास तथा भवन निर्माण विभाग, Tanka Prasad Ghumti Sadak, Bansh Ghari, Kathmandu 44617, Nepal",27.69372645,85.32333557287294,शहरी बिकास तथा भवन निर्माण विभाग,,Tanka Prasad Ghumti Sadak,Kathmandu-11,Bansh Ghari,44617,Kathmandu,Kathmandu,Bagmati Province,Nepal,np,© OpenStreetMap contributors,Open Database License,https://www.openstreetmap.org/copyright
55559881,250,2019-12-12 09:44:57,27.69233833333333,85.32472166666666,17.52,13.018161602718562,"Kathmandu, Kathmandu 44617, Nepal",27.6922553,85.324616,,,,Kathmandu-11,,44617,Kathmandu,Kathmandu,Bagmati Province,Nepal,np,© OpenStreetMap contributors,Open Database License,https://www.openstreetmap.org/copyright
55560305,250,2019-12-12 09:45:21,27.691761666666668,85.32604166666667,7.26,2.5385483206216177,"Kathmandu, Kathmandu 44617, Nepal",27.6921852,85.3264339,,,,Kathmandu-11,,44617,Kathmandu,Kathmandu,Bagmati Province,Nepal,np,© OpenStreetMap contributors,Open Database License,https://www.openstreetmap.org/copyright
55560836,250,2019-12-12 09:45:52,27.6908,85.327965,6.04,25.22876213136475,"Bhairav Lumbini Fast Food And Tandoori bhojanalaya, Kathmandu, Kathmandu 44617, Nepal",27.690982,85.327812,Bhairav Lumbini Fast Food And Tandoori bhojanalaya,,,,,44617,Kathmandu,Kathmandu,Three,Nepal,np,© OpenStreetMap contributors,Open Database License,https://www.openstreetmap.org/copyright
55561334,250,2019-12-12 09:46:20,27.690241666666665,85.32911333333334,7.57,2.3083194653775316,"Nepal Bangladesh Bank Head Office, Kathmandu, Kathmandu 44617, Nepal",27.690252,85.329093,Nepal Bangladesh Bank Head Office,,,,,44617,Kathmandu,Kathmandu,Three,Nepal,np,© OpenStreetMap contributors,Open Database License,https://www.openstreetmap.org/copyright
55561870,250,2019-12-12 09:46:50,27.689408333333333,85.33129666666666,17.29,7.997772945295842,"Buddha Nagar, Kathmandu 44617, Nepal",27.6891539,85.3320663,,,,Kathmandu-10,Buddha Nagar,44617,Kathmandu,Kathmandu,Bagmati Province,Nepal,np,© OpenStreetMap contributors,Open Database License,https://www.openstreetmap.org/copyright
55562395,250,2019-12-12 09:47:20,27.688955,85.33299333333333,0.43,0.4466632708060192,"Buddha Nagar, Kathmandu 44617, Nepal",27.6891539,85.3320663,,,,Kathmandu-10,Buddha Nagar,44617,Kathmandu,Kathmandu,Bagmati Province,Nepal,np,© OpenStreetMap contributors,Open Database License,https://www.openstreetmap.org/copyright
55563000,250,2019-12-12 09:47:54,27.688711666666663,85.33416333333334,0.28,2.978272295863507,"Buddha Nagar, Kathmandu 44617, Nepal",27.6891539,85.3320663,,,,Kathmandu-10,Buddha Nagar,44617,Kathmandu,Kathmandu,Bagmati Province,Nepal,np,© OpenStreetMap contributors,Open Database License,https://www.openstreetmap.org/copyright
55563456,250,2019-12-12 09:48:20,27.688446666666668,85.33542,3.12,4.062280492879853,"Buddha Nagar, Kathmandu 44617, Nepal",27.6891539,85.3320663,,,,Kathmandu-10,Buddha Nagar,44617,Kathmandu,Kathmandu,Bagmati Province,Nepal,np,© OpenStreetMap contributors,Open Database License,https://www.openstreetmap.org/copyright
55563976,250,2019-12-12 09:48:50,27.689968333333333,85.33583166666666,14.9,15.729251902925103,"ChhakkuBakku Park, Naya Baneshwar Sadak New Baneshwor, Kathmandu, Kathmandu 44617, Nepal",27.689996,85.335675,ChhakkuBakku Park,New Baneshwor,Naya Baneshwar Sadak,,,44617,Kathmandu,Kathmandu,Three,Nepal,np,© OpenStreetMap contributors,Open Database License,https://www.openstreetmap.org/copyright
55564491,250,2019-12-12 09:49:19,27.69074833333333,85.33597833333333,0.83,14.066189025016437,"पुरानो बानेश्वर सडक, Kathmandu, Kathmandu 44617, Nepal",27.690622,85.335971,,,पुरानो बानेश्वर सडक,,,44617,Kathmandu,Kathmandu,Three,Nepal,np,© OpenStreetMap contributors,Open Database License,https://www.openstreetmap.org/copyright
55565024,250,2019-12-12 09:49:50,27.692026666666667,85.33613333333334,4.88,79.22703019035319,"Yes Informatics, Devkota Sadak 10, Baneshwar, Kathmandu 44600, Nepal",27.69273655,85.33620229628806,Yes Informatics,10,Devkota Sadak,Kathmandu-10,Baneshwar,44600,Kathmandu,Kathmandu,Bagmati Province,Nepal,np,© OpenStreetMap contributors,Open Database License,https://www.openstreetmap.org/copyright
55565529,250,2019-12-12 09:50:19,27.69251333333333,85.33633,0.78,27.427992307763162,"Yes Informatics, Devkota Sadak 10, Kathmandu, Kathmandu 44600, Nepal",27.692738,85.336215,Yes Informatics,10,Devkota Sadak,,,44600,Kathmandu,Kathmandu,Three,Nepal,np,© OpenStreetMap contributors,Open Database License,https://www.openstreetmap.org/copyright
55566060,250,2019-12-12 09:50:48,27.692926666666665,85.33661333333333,7.66,44.47746172960719,"Yes Informatics, Devkota Sadak 10, Kathmandu, Kathmandu 44600, Nepal",27.692738,85.336215,Yes Informatics,10,Devkota Sadak,,,44600,Kathmandu,Kathmandu,Three,Nepal,np,© OpenStreetMap contributors,Open Database License,https://www.openstreetmap.org/copyright
55566590,250,2019-12-12 09:51:18,27.693521666666665,85.336955,0.74,7.530298839305086,"Sandar MoMo, Devkota Sadak, Baneshwar, Kathmandu 00446, Nepal",27.693657549999998,85.33711741084306,Sandar MoMo,,Devkota Sadak,Kathmandu-10,Baneshwar,00446,Kathmandu,Kathmandu,Bagmati Province,Nepal,np,© OpenStreetMap contributors,Open Database License,https://www.openstreetmap.org/copyright
55567109,250,2019-12-12 09:51:48,27.693665,85.33702333333333,1.06,5.329804405337371,"Sandar MoMo, Devkota Sadak, Baneshwar, Kathmandu 00446, Nepal",27.693657549999998,85.33711741084306,Sandar MoMo,,Devkota Sadak,Kathmandu-10,Baneshwar,00446,Kathmandu,Kathmandu,Bagmati Province,Nepal,np,© OpenStreetMap contributors,Open Database License,https://www.openstreetmap.org/copyright
55567620,250,2019-12-12 09:52:18,27.693706666666667,85.33705666666667,0.09,3.89685075514959,"Sandar MoMo, Devkota Sadak, Baneshwar, Kathmandu 00446, Nepal",27.693657549999998,85.33711741084306,Sandar MoMo,,Devkota Sadak,Kathmandu-10,Baneshwar,00446,Kathmandu,Kathmandu,Bagmati Province,Nepal,np,© OpenStreetMap contributors,Open Database License,https://www.openstreetmap.org/copyright
55568180,250,2019-12-12 09:52:48,27.693683333333333,85.33706666666667,1.1,2.0589618046753557,"Sandar MoMo, Devkota Sadak, Baneshwar, Kathmandu 00446, Nepal",27.693657549999998,85.33711741084306,Sandar MoMo,,Devkota Sadak,Kathmandu-10,Baneshwar,00446,Kathmandu,Kathmandu,Bagmati Province,Nepal,np,© OpenStreetMap contributors,Open Database License,https://www.openstreetmap.org/copyright
55568734,250,2019-12-12 09:53:17,27.69370333333333,85.33707833333334,0.18,1.7702661233083736,"Sandar MoMo, Devkota Sadak, Baneshwar, Kathmandu 00446, Nepal",27.693657549999998,85.33711741084306,Sandar MoMo,,Devkota Sadak,Kathmandu-10,Baneshwar,00446,Kathmandu,Kathmandu,Bagmati Province,Nepal,np,© OpenStreetMap contributors,Open Database License,https://www.openstreetmap.org/copyright
55569264,250,2019-12-12 09:53:47,27.69368833333333,85.33710833333333,0.49,0,"Sandar MoMo, Devkota Sadak, Baneshwar, Kathmandu 00446, Nepal",27.693657549999998,85.33711741084306,Sandar MoMo,,Devkota Sadak,Kathmandu-10,Baneshwar,00446,Kathmandu,Kathmandu,Bagmati Province,Nepal,np,© OpenStreetMap contributors,Open Database License,https://www.openstreetmap.org/copyright
55569790,250,2019-12-12 09:54:17,27.69376,85.33711,0.38,2.467822992824138,"Sandar MoMo, Devkota Sadak, Baneshwar, Kathmandu 00446, Nepal",27.693657549999998,85.33711741084306,Sandar MoMo,,Devkota Sadak,Kathmandu-10,Baneshwar,00446,Kathmandu,Kathmandu,Bagmati Province,Nepal,np,© OpenStreetMap contributors,Open Database License,https://www.openstreetmap.org/copyright
55570311,250,2019-12-12 09:54:47,27.693911666666665,85.3371,0.56,9.202013725327957,"Old Whitehouse International College, Devkota Sadak, Baneshwar, Kathmandu 00446, Nepal",27.69402185,85.33730716567752,Old Whitehouse International College,,Devkota Sadak,Kathmandu-10,Baneshwar,00446,Kathmandu,Kathmandu,Bagmati Province,Nepal,np,© OpenStreetMap contributors,Open Database License,https://www.openstreetmap.org/copyright
55570827,250,2019-12-12 09:55:17,27.694351666666662,85.337185,3.06,13.06816219559439,"Bharosa Hospital, Kathmandu, Kathmandu 00446, Nepal",27.694324,85.337056,Bharosa Hospital,,,,,00446,Kathmandu,Kathmandu,Three,Nepal,np,© OpenStreetMap contributors,Open Database License,https://www.openstreetmap.org/copyright
55571339,250,2019-12-12 09:55:47,27.694513333333333,85.33724833333333,0.24,8.90537668359382,"Global IME Bank, Kathmandu, Kathmandu 44703, Nepal",27.694439,85.337282,Global IME Bank,,,,,44703,Kathmandu,Kathmandu,Three,Nepal,np,© OpenStreetMap contributors,Open Database License,https://www.openstreetmap.org/copyright
55571859,250,2019-12-12 09:56:16,27.69475333333333,85.33728,0.8,5.869339512531671,"Dhungedhara, Devkota Sadak, Baneshwar, Kathmandu 44703, Nepal",27.6947997,85.33739752842871,Dhungedhara,,Devkota Sadak,Kathmandu-10,Baneshwar,44703,Kathmandu,Kathmandu,Bagmati Province,Nepal,np,© OpenStreetMap contributors,Open Database License,https://www.openstreetmap.org/copyright
55572371,250,2019-12-12 09:56:46,27.69535833333333,85.33745166666667,9.75,15.470478886534075,"Police bit mid Baneshwar, Kathmandu, Kathmandu 44703, Nepal",27.695491,85.337499,Police bit mid Baneshwar,,,,,44703,Kathmandu,Kathmandu,Three,Nepal,np,© OpenStreetMap contributors,Open Database License,https://www.openstreetmap.org/copyright
55572902,250,2019-12-12 09:57:16,27.696296666666665,85.33757333333334,5.0,7.524077550059116,"Sunway International Business School, Devkota Sadak, Baneshwar, Kathmandu 44703, Nepal",27.6962397,85.3377140452759,Sunway International Business School,,Devkota Sadak,Kathmandu-10,Baneshwar,44703,Kathmandu,Kathmandu,Bagmati Province,Nepal,np,© OpenStreetMap contributors,Open Database License,https://www.openstreetmap.org/copyright
55573415,250,2019-12-12 09:57:46,27.69669,85.337645,0.22,12.243252578322883,"The Pizza Cutter, Kathmandu, Kathmandu 44703, Nepal",27.696637,85.337754,The Pizza Cutter,,,,,44703,Kathmandu,Kathmandu,Three,Nepal,np,© OpenStreetMap contributors,Open Database License,https://www.openstreetmap.org/copyright
55573926,250,2019-12-12 09:58:15,27.69716833333333,85.337835,7.13,8.13268900413781,"Venus Kitchen Restaurant, Kathmandu, Kathmandu 44703, Nepal",27.697107,85.33788,Venus Kitchen Restaurant,,,,,44703,Kathmandu,Kathmandu,Three,Nepal,np,© OpenStreetMap contributors,Open Database License,https://www.openstreetmap.org/copyright
55574442,250,2019-12-12 09:58:45,27.69858,85.33818833333333,9.44,4.7186503394949195,"tej enterprise, Devkota Sadak, Baneshwar, Kathmandu 44703, Nepal",27.69861175,85.3382614701579,tej enterprise,,Devkota Sadak,Kathmandu-10,Baneshwar,44703,Kathmandu,Kathmandu,Bagmati Province,Nepal,np,© OpenStreetMap contributors,Open Database License,https://www.openstreetmap.org/copyright
55574954,250,2019-12-12 09:59:15,27.69906,85.33837833333334,1.4,8.994722959431673,"Apex College Stop, Kathmandu, Kathmandu 44703, Nepal",27.699062,85.338287,Apex College Stop,,,,,44703,Kathmandu,Kathmandu,Three,Nepal,np,© OpenStreetMap contributors,Open Database License,https://www.openstreetmap.org/copyright
55575502,250,2019-12-12 09:59:46,27.69926,85.33842333333334,1.79,3.3420569061924232,"Ever Green Restaurant and Cafe, Basuki Marg, Naya Baneshwar, Kathmandu 44703, Nepal",27.6992473,85.3384541,Ever Green Restaurant and Cafe,,Basuki Marg,Kathmandu-10,Naya Baneshwar,44703,Kathmandu,Kathmandu,Bagmati Province,Nepal,np,© OpenStreetMap contributors,Open Database License,https://www.openstreetmap.org/copyright
55576005,250,2019-12-12 10:00:14,27.70037333333333,85.33915,5.25,11.933898075691827,"SAIM College, Devkota Sadak, Baneshwar, Kathmandu 44703, Nepal",27.7004709,85.3392005,SAIM College,,Devkota Sadak,Kathmandu-10,Baneshwar,44703,Kathmandu,Kathmandu,Bagmati Province,Nepal,np,© OpenStreetMap contributors,Open Database License,https://www.openstreetmap.org/copyright
55576523,250,2019-12-12 10:00:44,27.700835,85.3397,5.52,9.043054117901848,"Lhaphing Centre, Kathmandu, Kathmandu 44703, Nepal",27.700913,85.339726,Lhaphing Centre,,,,,44703,Kathmandu,Kathmandu,Three,Nepal,np,© OpenStreetMap contributors,Open Database License,https://www.openstreetmap.org/copyright
55581870,250,2019-12-12 10:05:42,27.707921666666667,85.33902833333333,14.89,20.785569638227923,"Wigan & Leigh College, Pashupati Sadak, Chabahil, Kathmandu 44660, Nepal",27.70814345,85.33914129437514,Wigan & Leigh College,,Pashupati Sadak,Kathmandu-07,Chabahil,44660,Kathmandu,Kathmandu,Bagmati Province,Nepal,np,© OpenStreetMap contributors,Open Database License,https://www.openstreetmap.org/copyright
55582369,250,2019-12-12 10:06:12,27.70800333333333,85.33704833333333,10.77,14.874029700187478,"Ratopul, Kathmandu, Kathmandu 44660, Nepal",27.708071,85.336918,,,Ratopul,,,44660,Kathmandu,Kathmandu,Three,Nepal,np,© OpenStreetMap contributors,Open Database License,https://www.openstreetmap.org/copyright
55582889,250,2019-12-12 10:06:42,27.708111666666667,85.33544,10.62,2.3002127736855176,"Welcare Hospital and Research Centre, Pashupati Sadak, Maitidevi, Kathmandu 44605, Nepal",27.70797695,85.33527921821374,Welcare Hospital and Research Centre,,Pashupati Sadak,Kathmandu-30,Maitidevi,44605,Kathmandu,Kathmandu,Bagmati Province,Nepal,np,© OpenStreetMap contributors,Open Database License,https://www.openstreetmap.org/copyright
55583561,250,2019-12-12 10:07:17,27.708155,85.33380666666666,5.04,19.13573831003574,"Hero Honda, Pashupati Sadak, Maitidevi, Kathmandu 44605, Nepal",27.70834145,85.33365525495283,Hero Honda,,Pashupati Sadak,Kathmandu-30,Maitidevi,44605,Kathmandu,Kathmandu,Bagmati Province,Nepal,np,© OpenStreetMap contributors,Open Database License,https://www.openstreetmap.org/copyright
55583998,250,2019-12-12 10:07:43,27.708196666666662,85.33346833333333,6.11,19.63075778730152,"Hero Honda, Pashupati Sadak, Maitidevi, Kathmandu 44605, Nepal",27.70834145,85.33365525495283,Hero Honda,,Pashupati Sadak,Kathmandu-30,Maitidevi,44605,Kathmandu,Kathmandu,Bagmati Province,Nepal,np,© OpenStreetMap contributors,Open Database License,https://www.openstreetmap.org/copyright
55584502,250,2019-12-12 10:08:11,27.708616666666668,85.33199833333333,3.91,0.986485649617384,"Maitidevi, Kathmandu 44605, Nepal",27.7086373,85.3319646,,,,Kathmandu-30,Maitidevi,44605,Kathmandu,Kathmandu,Bagmati Province,Nepal,np,© OpenStreetMap contributors,Open Database License,https://www.openstreetmap.org/copyright
55585015,250,2019-12-12 10:08:41,27.709623333333333,85.33252166666666,11.41,12.05156809332962,"German Embassy, Gyaneshwar Marg, Maitidevi, Kathmandu 00975, Nepal",27.709540949999997,85.33348460677628,German Embassy,,Gyaneshwar Marg,Kathmandu-30,Maitidevi,00975,Kathmandu,Kathmandu,Bagmati Province,Nepal,np,© OpenStreetMap contributors,Open Database License,https://www.openstreetmap.org/copyright
55585544,250,2019-12-12 10:09:11,27.710455,85.33307166666667,8.79,27.680568279208263,"ज्ञानेश्वर मार्ग, Kathmandu, Kathmandu 00975, Nepal",27.710215,85.332997,,,ज्ञानेश्वर मार्ग,,,00975,Kathmandu,Kathmandu,Three,Nepal,np,© OpenStreetMap contributors,Open Database License,https://www.openstreetmap.org/copyright
57049943,250,2019-12-13 09:28:38,27.71038666666667,85.33311666666667,4.95,22.430882046231876,"ज्ञानेश्वर मार्ग, Kathmandu, Kathmandu 00975, Nepal",27.710215,85.332997,,,ज्ञानेश्वर मार्ग,,,00975,Kathmandu,Kathmandu,Three,Nepal,np,© OpenStreetMap contributors,Open Database License,https://www.openstreetmap.org/copyright
57050471,250,2019-12-13 09:29:08,27.709535,85.332415,8.99,25.726612762476538,"German Embassy, Gyaneshwar Marg, Maitidevi, Kathmandu 00975, Nepal",27.709540949999997,85.33348460677628,German Embassy,,Gyaneshwar Marg,Kathmandu-30,Maitidevi,00975,Kathmandu,Kathmandu,Bagmati Province,Nepal,np,© OpenStreetMap contributors,Open Database License,https://www.openstreetmap.org/copyright
57051025,250,2019-12-13 09:29:38,27.708811666666666,85.33221666666667,6.53,8.555661079216845,"Institute of International Management Science, Gyaneshwar Marg, Maitidevi, Kathmandu 00975, Nepal",27.7087943,85.332132,Institute of International Management Science,,Gyaneshwar Marg,Kathmandu-30,Maitidevi,00975,Kathmandu,Kathmandu,Bagmati Province,Nepal,np,© OpenStreetMap contributors,Open Database License,https://www.openstreetmap.org/copyright
57051577,250,2019-12-13 09:30:08,27.70817333333333,85.33334166666667,4.8,22.57186332422867,"Subidha Travel, Pashupati Marga, Kathmandu, Kathmandu 44605, Nepal",27.708218,85.333118,Subidha Travel,,Pashupati Marga,,,44605,Kathmandu,Kathmandu,Three,Nepal,np,© OpenStreetMap contributors,Open Database License,https://www.openstreetmap.org/copyright
57052164,250,2019-12-13 09:30:39,27.707505,85.33336833333334,1.11,24.23467199939505,"AM/PM Cafe and Bar, Maiti Devi marg, Maitidevi, Kathmandu 44605, Nepal",27.7073033,85.3334616,AM/PM Cafe and Bar,,Maiti Devi marg,Kathmandu-30,Maitidevi,44605,Kathmandu,Kathmandu,Bagmati Province,Nepal,np,© OpenStreetMap contributors,Open Database License,https://www.openstreetmap.org/copyright
57052668,250,2019-12-13 09:31:08,27.706705,85.333565,6.54,38.96967324729265,"Maitidevi Temple stop, Kathmandu, Kathmandu 00446, Nepal",27.706365,85.333661,Maitidevi Temple stop,,,,,00446,Kathmandu,Kathmandu,Three,Nepal,np,© OpenStreetMap contributors,Open Database License,https://www.openstreetmap.org/copyright
