original_id,original_deviceid,original_servertime,original_latitude,original_longitude,original_speed,distance,formatted,lat,lon,name,housenumber,street,postcode,district,suburb,city,county,state,country,country_code,attribution,attribution_license,attribution_url
52669562,268,2019-12-10 10:05:44,27.693691666666663,85.319,22.15,12.2661606207581,"Sunita Chamena House, Thapathali Road, Thapathali, Kathmandu 00779, Nepal",27.693681,85.319124,Sunita Chamena House,,Thapathali Road,00779,Kathmandu-11,Thapathali,Kathmandu,Kathmandu,Bagmati Province,Nepal,np,© OpenStreetMap contributors,Open Database License,https://www.openstreetmap.org/copyright
52670117,268,2019-12-10 10:06:14,27.69469833333333,85.32012166666667,6.75,2.613090998650046,"Thapathali, Kathmandu 44617, Nepal",27.6944768,85.3197665,,,,44617,Kathmandu-11,Thapathali,Kathmandu,Kathmandu,Bagmati Province,Nepal,np,© OpenStreetMap contributors,Open Database License,https://www.openstreetmap.org/copyright
52670656,268,2019-12-10 10:06:45,27.69655833333333,85.31931833333333,23.21,0.01634528188359166,"Thapathali, Kathmandu 44617, Nepal",27.6963827,85.3194066,,,,44617,Kathmandu-11,Thapathali,Kathmandu,Kathmandu,Bagmati Province,Nepal,np,© OpenStreetMap contributors,Open Database License,https://www.openstreetmap.org/copyright
58590261,268,2019-12-14 10:21:48,27.69852333333333,85.32121333333333,0.05,39.56630647019888,"Prithivi Narayan Shah, Kathmandu, Kathmandu 44605, Nepal",27.698461,85.321609,Prithivi Narayan Shah,,,44605,,,Kathmandu,Kathmandu,Three,Nepal,np,© OpenStreetMap contributors,Open Database License,https://www.openstreetmap.org/copyright
58590770,268,2019-12-14 10:22:18,27.698526666666663,85.32123166666666,0.02,37.86030609447698,"Prithivi Narayan Shah, Kathmandu, Kathmandu 44605, Nepal",27.698461,85.321609,Prithivi Narayan Shah,,,44605,,,Kathmandu,Kathmandu,Three,Nepal,np,© OpenStreetMap contributors,Open Database License,https://www.openstreetmap.org/copyright
58591276,268,2019-12-14 10:22:47,27.698501666666665,85.32134833333333,8.31,26.05870092355398,"Prithivi Narayan Shah, Kathmandu, Kathmandu 44605, Nepal",27.698461,85.321609,Prithivi Narayan Shah,,,44605,,,Kathmandu,Kathmandu,Three,Nepal,np,© OpenStreetMap contributors,Open Database License,https://www.openstreetmap.org/copyright
58591789,268,2019-12-14 10:23:17,27.69583,85.32101666666667,23.28,1.1872390515229188,"Ram Shah Path, Bansh Ghari, Kathmandu 00446, Nepal",27.695921,85.321048,Ram Shah Path,,Ram Shah Path,00446,Kathmandu-29,Bansh Ghari,Kathmandu,Kathmandu,Bagmati Province,Nepal,np,© OpenStreetMap contributors,Open Database License,https://www.openstreetmap.org/copyright
58592274,268,2019-12-14 10:23:47,27.693896666666667,85.3211,15.41,14.313655649055196,"Maitighar Bus Stop, Madan Bhandari Path, Kathmandu, Kathmandu 44617, Nepal",27.6938924,85.3212453,Maitighar Bus Stop,,Madan Bhandari Path,44617,Kathmandu-11,,Kathmandu,Kathmandu,Bagmati Province,Nepal,np,© OpenStreetMap contributors,Open Database License,https://www.openstreetmap.org/copyright
58592779,268,2019-12-14 10:24:17,27.692326666666663,85.32432833333333,25.79,10.868430445970283,"Babarmahal Stop, Kathmandu, Kathmandu 44617, Nepal",27.692229,85.324324,Babarmahal Stop,,,44617,,,Kathmandu,Kathmandu,Three,Nepal,np,© OpenStreetMap contributors,Open Database License,https://www.openstreetmap.org/copyright
58593298,268,2019-12-14 10:24:46,27.690636666666663,85.32789166666667,7.63,18.748898175727664,"NH34, Kathmandu, Kathmandu 44617, Nepal",27.690498,85.328,,,NH34,44617,,,Kathmandu,Kathmandu,Three,Nepal,np,© OpenStreetMap contributors,Open Database License,https://www.openstreetmap.org/copyright
58593791,268,2019-12-14 10:25:16,27.69006,85.329115,12.34,20.86124999718988,"Dhobikhola Marga, Kathmandu, Kathmandu 44617, Nepal",27.690229,85.329023,,,Dhobikhola Marga,44617,,,Kathmandu,Kathmandu,Three,Nepal,np,© OpenStreetMap contributors,Open Database License,https://www.openstreetmap.org/copyright
58594297,268,2019-12-14 10:25:46,27.68912333333333,85.33194666666667,20.35,3.457429335304237,"Madan Bhandari Path, Buddha Nagar, Kathmandu 44617, Nepal",27.6895205,85.3302754,Madan Bhandari Path,,Madan Bhandari Path,44617,Kathmandu-10,Buddha Nagar,Kathmandu,Kathmandu,Bagmati Province,Nepal,np,© OpenStreetMap contributors,Open Database License,https://www.openstreetmap.org/copyright
58594791,268,2019-12-14 10:26:16,27.688586666666662,85.334255,1.0,24.370298552042918,"Nature Care Hospital, Kathmandu, Kathmandu 44617, Nepal",27.688783,85.334145,Nature Care Hospital,,,44617,,,Kathmandu,Kathmandu,Three,Nepal,np,© OpenStreetMap contributors,Open Database License,https://www.openstreetmap.org/copyright
58595306,268,2019-12-14 10:26:46,27.688425,85.33500333333333,7.09,18.685705060765972,"G4S, Madan Bhandari Path, Buddha Nagar, Kathmandu 44617, Nepal",27.68861815,85.33515885120235,G4S,,Madan Bhandari Path,44617,Kathmandu-10,Buddha Nagar,Kathmandu,Kathmandu,Bagmati Province,Nepal,np,© OpenStreetMap contributors,Open Database License,https://www.openstreetmap.org/copyright
58595804,268,2019-12-14 10:27:15,27.687931666666667,85.33715833333333,15.56,0.367731277947777,"Madan Bhandari Path, Minbhawan, Kathmandu 44617, Nepal",27.6879663,85.3369901,Madan Bhandari Path,,Madan Bhandari Path,44617,Kathmandu-31,Minbhawan,Kathmandu,Kathmandu,Bagmati Province,Nepal,np,© OpenStreetMap contributors,Open Database License,https://www.openstreetmap.org/copyright
58798062,268,2019-12-14 13:44:50,27.68793,85.33685833333334,19.09,11.239652643874535,"Madan Bhandari Path, Kathmandu, Kathmandu 44617, Nepal",27.687894,85.336965,,,Madan Bhandari Path,44617,,,Kathmandu,Kathmandu,Three,Nepal,np,© OpenStreetMap contributors,Open Database License,https://www.openstreetmap.org/copyright
58798563,268,2019-12-14 13:45:20,27.688425,85.33463666666667,18.32,9.193789157791198,"Naya Baneshwar Bus Station, Kathmandu, Kathmandu 44617, Nepal",27.68847,85.334715,Naya Baneshwar Bus Station,,,44617,,,Kathmandu,Kathmandu,Three,Nepal,np,© OpenStreetMap contributors,Open Database License,https://www.openstreetmap.org/copyright
58799067,268,2019-12-14 13:45:50,27.689011666666666,85.33202333333334,22.92,46.145382607844624,"Let Me in, Madan Bhandari Path 10, Buddha Nagar, Kathmandu 44617, Nepal",27.6891653,85.3324587,Let Me in,10,Madan Bhandari Path,44617,Kathmandu-10,Buddha Nagar,Kathmandu,Kathmandu,Bagmati Province,Nepal,np,© OpenStreetMap contributors,Open Database License,https://www.openstreetmap.org/copyright
58799566,268,2019-12-14 13:46:20,27.69018833333333,85.32867166666666,20.29,11.683782238559171,"Buddhanagar Stop, Kathmandu, Kathmandu 44617, Nepal",27.69027,85.328597,Buddhanagar Stop,,,44617,,,Kathmandu,Kathmandu,Three,Nepal,np,© OpenStreetMap contributors,Open Database License,https://www.openstreetmap.org/copyright
58800162,268,2019-12-14 13:46:55,27.69185,85.32521166666666,24.72,44.64188381852239,"Kathmandu district court, Madan Bhandari Path, Kathmandu, Kathmandu 44617, Nepal",27.692107,85.32556,Kathmandu district court,,Madan Bhandari Path,44617,,,Kathmandu,Kathmandu,Three,Nepal,np,© OpenStreetMap contributors,Open Database License,https://www.openstreetmap.org/copyright
58800560,268,2019-12-14 13:47:19,27.693601666666662,85.32152333333333,24.28,42.36108804379491,"Maitighar Bus Stop, Madan Bhandari Path, Kathmandu, Kathmandu 44617, Nepal",27.6938924,85.3212453,Maitighar Bus Stop,,Madan Bhandari Path,44617,Kathmandu-11,,Kathmandu,Kathmandu,Bagmati Province,Nepal,np,© OpenStreetMap contributors,Open Database License,https://www.openstreetmap.org/copyright
58801069,268,2019-12-14 13:47:49,27.69471833333333,85.32019833333334,8.44,0.5440499729874979,"Thapathali, Kathmandu 44617, Nepal",27.6944768,85.3197665,,,,44617,Kathmandu-11,Thapathali,Kathmandu,Kathmandu,Bagmati Province,Nepal,np,© OpenStreetMap contributors,Open Database License,https://www.openstreetmap.org/copyright
58801579,268,2019-12-14 13:48:19,27.696875,85.319165,6.63,1.0882246130694995,"Thapathali, Kathmandu 44066, Nepal",27.6967997,85.3191966,,,,44066,Kathmandu-11,Thapathali,Kathmandu,Kathmandu,Bagmati Province,Nepal,np,© OpenStreetMap contributors,Open Database License,https://www.openstreetmap.org/copyright
66466181,268,2019-12-19 14:20:01,27.707988333333333,85.33951666666667,20.31,2.4685067191416015,"Baram and Basel Furniture Showroom, Kathmandu, Kathmandu 44660, Nepal",27.708,85.339538,Baram and Basel Furniture Showroom,,,44660,,,Kathmandu,Kathmandu,Three,Nepal,np,© OpenStreetMap contributors,Open Database License,https://www.openstreetmap.org/copyright
66466690,268,2019-12-19 14:20:31,27.70808333333333,85.33671333333334,15.02,14.628520432301494,"Ratopul, Chabahil, Kathmandu 44660, Nepal",27.708086,85.3368619,Ratopul,,Ratopul,44660,Kathmandu-30,Chabahil,Kathmandu,Kathmandu,Bagmati Province,Nepal,np,© OpenStreetMap contributors,Open Database License,https://www.openstreetmap.org/copyright
66467201,268,2019-12-19 14:21:01,27.708255,85.33417,19.5,18.890443349306285,"Shanta Plaza, Pashupati Sadak, Maitidevi, Kathmandu 44605, Nepal",27.7080902,85.3342166,Shanta Plaza,,Pashupati Sadak,44605,Kathmandu-30,Maitidevi,Kathmandu,Kathmandu,Bagmati Province,Nepal,np,© OpenStreetMap contributors,Open Database License,https://www.openstreetmap.org/copyright
66467703,268,2019-12-19 14:21:31,27.7086,85.3322,12.74,4.228084010571898,"Maitidevi, Kathmandu 44605, Nepal",27.7086373,85.3319646,,,,44605,Kathmandu-30,Maitidevi,Kathmandu,Kathmandu,Bagmati Province,Nepal,np,© OpenStreetMap contributors,Open Database License,https://www.openstreetmap.org/copyright
66468208,268,2019-12-19 14:22:00,27.71006833333333,85.33287166666666,10.83,2.5710655508157307,"German Embassy, Gyaneshwar Marg, Maitidevi, Kathmandu 00975, Nepal",27.709540949999997,85.33348460677628,German Embassy,,Gyaneshwar Marg,00975,Kathmandu-30,Maitidevi,Kathmandu,Kathmandu,Bagmati Province,Nepal,np,© OpenStreetMap contributors,Open Database License,https://www.openstreetmap.org/copyright
66468707,268,2019-12-19 14:22:30,27.71023,85.33297,0.85,3.1379321982561033,"ज्ञानेश्वर मार्ग, Kathmandu, Kathmandu 00975, Nepal",27.710215,85.332997,,,ज्ञानेश्वर मार्ग,00975,,,Kathmandu,Kathmandu,Three,Nepal,np,© OpenStreetMap contributors,Open Database License,https://www.openstreetmap.org/copyright
66479252,268,2019-12-19 14:32:56,27.70959833333333,85.33724,13.56,8.098971002487628,"manju and anuska khaja ghar, Kathmandu, Kathmandu 44660, Nepal",27.709638,85.337309,manju and anuska khaja ghar,,,44660,,,Kathmandu,Kathmandu,Three,Nepal,np,© OpenStreetMap contributors,Open Database License,https://www.openstreetmap.org/copyright
66479764,268,2019-12-19 14:33:25,27.708101666666668,85.33743666666666,9.96,8.502342299248703,"Ratopul Stop, Kathmandu, Kathmandu 44660, Nepal",27.708052,85.337371,Ratopul Stop,,,44660,,,Kathmandu,Kathmandu,Three,Nepal,np,© OpenStreetMap contributors,Open Database License,https://www.openstreetmap.org/copyright
66480315,268,2019-12-19 14:33:56,27.707971666666666,85.339785,18.04,7.986794896339501,"Cosmos Diagonosis and Research Centre, Pashupati Sadak, Chabahil, Kathmandu 44660, Nepal",27.70814865,85.33979338472814,Cosmos Diagonosis and Research Centre,,Pashupati Sadak,44660,Kathmandu-07,Chabahil,Kathmandu,Kathmandu,Bagmati Province,Nepal,np,© OpenStreetMap contributors,Open Database License,https://www.openstreetmap.org/copyright
66482829,268,2019-12-19 14:36:24,27.69988833333333,85.33868166666667,14.22,15.467943166604543,"Pipalbot, Kathmandu, Kathmandu 44703, Nepal",27.699765,85.338609,Pipalbot,,,44703,,,Kathmandu,Kathmandu,Three,Nepal,np,© OpenStreetMap contributors,Open Database License,https://www.openstreetmap.org/copyright
66483422,268,2019-12-19 14:36:59,27.697785,85.33798333333333,17.77,12.293065842776944,"Samyak Diagnostic Private Limited, Devkota Sadak, Baneshwar, Kathmandu 44703, Nepal",27.697973599999997,85.33785953908827,Samyak Diagnostic Private Limited,,Devkota Sadak,44703,Kathmandu-10,Baneshwar,Kathmandu,Kathmandu,Bagmati Province,Nepal,np,© OpenStreetMap contributors,Open Database License,https://www.openstreetmap.org/copyright
66483853,268,2019-12-19 14:37:24,27.69584,85.33758666666667,15.34,7.214548522753977,"Sungava Digital Photo Studio, Devkota Sadak, Baneshwar, Kathmandu 44703, Nepal",27.6958906,85.3375408,Sungava Digital Photo Studio,,Devkota Sadak,44703,Kathmandu-10,Baneshwar,Kathmandu,Kathmandu,Bagmati Province,Nepal,np,© OpenStreetMap contributors,Open Database License,https://www.openstreetmap.org/copyright
66484347,268,2019-12-19 14:37:53,27.69429,85.33716166666666,9.14,2.845067669535762,"Nic Asia, Devkota Sadak, Baneshwar, Kathmandu 00446, Nepal",27.6943038,85.337186,Nic Asia,,Devkota Sadak,00446,Kathmandu-10,Baneshwar,Kathmandu,Kathmandu,Bagmati Province,Nepal,np,© OpenStreetMap contributors,Open Database License,https://www.openstreetmap.org/copyright
66484844,268,2019-12-19 14:38:23,27.693411666666663,85.33684833333334,8.25,22.82068982505247,"Sandar MoMo, Devkota Sadak, Baneshwar, Kathmandu 00446, Nepal",27.693657549999998,85.33711741084306,Sandar MoMo,,Devkota Sadak,00446,Kathmandu-10,Baneshwar,Kathmandu,Kathmandu,Bagmati Province,Nepal,np,© OpenStreetMap contributors,Open Database License,https://www.openstreetmap.org/copyright
66485352,268,2019-12-19 14:38:53,27.69327833333333,85.33675333333333,0.36,15.378160335434275,"Fusemachines Nepal, Kathmandu, Kathmandu 00446, Nepal",27.693252,85.3366,Fusemachines Nepal,,,00446,,,Kathmandu,Kathmandu,Three,Nepal,np,© OpenStreetMap contributors,Open Database License,https://www.openstreetmap.org/copyright
66485864,268,2019-12-19 14:39:23,27.694026666666662,85.33706166666667,2.16,6.7228496433376375,"RDX Cafe, Lakhe Chaur Marg, Baneshwar, Kathmandu 00446, Nepal",27.6941129,85.33695927534359,RDX Cafe,,Lakhe Chaur Marg,00446,Kathmandu-10,Baneshwar,Kathmandu,Kathmandu,Bagmati Province,Nepal,np,© OpenStreetMap contributors,Open Database License,https://www.openstreetmap.org/copyright
66486379,268,2019-12-19 14:39:53,27.694033333333334,85.33705,0.37,5.465565474643513,"RDX Cafe, Lakhe Chaur Marg, Baneshwar, Kathmandu 00446, Nepal",27.6941129,85.33695927534359,RDX Cafe,,Lakhe Chaur Marg,00446,Kathmandu-10,Baneshwar,Kathmandu,Kathmandu,Bagmati Province,Nepal,np,© OpenStreetMap contributors,Open Database License,https://www.openstreetmap.org/copyright
66486888,268,2019-12-19 14:40:22,27.694983333333333,85.33725666666666,15.04,17.00855748526353,"Dhungedhara, Devkota Sadak, Baneshwar, Kathmandu 44703, Nepal",27.6947997,85.33739752842871,Dhungedhara,,Devkota Sadak,44703,Kathmandu-10,Baneshwar,Kathmandu,Kathmandu,Bagmati Province,Nepal,np,© OpenStreetMap contributors,Open Database License,https://www.openstreetmap.org/copyright
66487389,268,2019-12-19 14:40:52,27.69654833333333,85.33760333333333,12.53,12.098551200014777,"Central Cafe, Devkota Sadak, Baneshwar, Kathmandu 44703, Nepal",27.6965573,85.3377258,Central Cafe,,Devkota Sadak,44703,Kathmandu-10,Baneshwar,Kathmandu,Kathmandu,Bagmati Province,Nepal,np,© OpenStreetMap contributors,Open Database License,https://www.openstreetmap.org/copyright
66487890,268,2019-12-19 14:41:22,27.698335,85.33806,8.55,12.206054061171402,"everest bank limited, Devkota Sadak, Baneshwar, Kathmandu 44703, Nepal",27.6983199,85.3381828,everest bank limited,,Devkota Sadak,44703,Kathmandu-10,Baneshwar,Kathmandu,Kathmandu,Bagmati Province,Nepal,np,© OpenStreetMap contributors,Open Database License,https://www.openstreetmap.org/copyright
66488394,268,2019-12-19 14:41:52,27.699215,85.33832,5.55,12.083830114620735,"The Bakery Shop, Devkota Sadak, Baneshwar, Kathmandu 44703, Nepal",27.6993226,85.3383372,The Bakery Shop,,Devkota Sadak,44703,Kathmandu-10,Baneshwar,Kathmandu,Kathmandu,Bagmati Province,Nepal,np,© OpenStreetMap contributors,Open Database License,https://www.openstreetmap.org/copyright
66488905,268,2019-12-19 14:42:22,27.700335,85.33905833333333,11.96,15.668411576389849,"Global College, Devkota Sadak, Baneshwar, Kathmandu 44703, Nepal",27.7001962,85.3390309,Global College,,Devkota Sadak,44703,Kathmandu-10,Baneshwar,Kathmandu,Kathmandu,Bagmati Province,Nepal,np,© OpenStreetMap contributors,Open Database License,https://www.openstreetmap.org/copyright
66595072,268,2019-12-19 16:27:13,27.69995,85.338805,12.96,20.582535454858373,"Cherry on Top, Devkota Sadak, Baneshwar, Kathmandu 44703, Nepal",27.7000706,85.3386464,Cherry on Top,,Devkota Sadak,44703,Kathmandu-10,Baneshwar,Kathmandu,Kathmandu,Bagmati Province,Nepal,np,© OpenStreetMap contributors,Open Database License,https://www.openstreetmap.org/copyright
66595567,268,2019-12-19 16:27:43,27.697558333333333,85.337975,18.0,8.77616310687517,"Mata Pathivara Girls Hostel, Devkota Sadak, Baneshwar, Kathmandu 44703, Nepal",27.69748155,85.3380922194014,Mata Pathivara Girls Hostel,,Devkota Sadak,44703,Kathmandu-10,Baneshwar,Kathmandu,Kathmandu,Bagmati Province,Nepal,np,© OpenStreetMap contributors,Open Database License,https://www.openstreetmap.org/copyright
66596059,268,2019-12-19 16:28:13,27.695186666666668,85.33742666666667,18.38,19.670942414716016,"Chicken Station, Kathmandu, Kathmandu 44703, Nepal",27.695193,85.337227,Chicken Station,,,44703,,,Kathmandu,Kathmandu,Three,Nepal,np,© OpenStreetMap contributors,Open Database License,https://www.openstreetmap.org/copyright
66596554,268,2019-12-19 16:28:42,27.694095,85.336605,9.87,7.231064437649639,"S & K media pvt ltd, Lakhe Chaur Marg, Baneshwar, Kathmandu 00446, Nepal",27.69399925,85.33663862239047,S & K media pvt ltd,,Lakhe Chaur Marg,00446,Kathmandu-10,Baneshwar,Kathmandu,Kathmandu,Bagmati Province,Nepal,np,© OpenStreetMap contributors,Open Database License,https://www.openstreetmap.org/copyright
66597033,268,2019-12-19 16:29:12,27.69411,85.33636833333334,0.56,18.35288112025302,"Om Shivasakti Offset Press, Lakhe Chaur Marg, Baneshwar, Kathmandu 00446, Nepal",27.6940643,85.33613793480279,Om Shivasakti Offset Press,,Lakhe Chaur Marg,00446,Kathmandu-10,Baneshwar,Kathmandu,Kathmandu,Bagmati Province,Nepal,np,© OpenStreetMap contributors,Open Database License,https://www.openstreetmap.org/copyright
66597531,268,2019-12-19 16:29:42,27.694296666666663,85.33435,17.86,106.55688701054697,"Pashupati Boys Hostel, Lakhe Chaur Marg 202, Baneshwar, Kathmandu 00446, Nepal",27.6942013,85.3354269,Pashupati Boys Hostel,202,Lakhe Chaur Marg,00446,Kathmandu-10,Baneshwar,Kathmandu,Kathmandu,Bagmati Province,Nepal,np,© OpenStreetMap contributors,Open Database License,https://www.openstreetmap.org/copyright
66598021,268,2019-12-19 16:30:12,27.69395,85.33271,17.5,37.77108368805092,"Marie Gold Boarding School, Lakhe Chaur Marg, Buddha Nagar, Kathmandu 00446, Nepal",27.693519799999997,85.33272820470273,Marie Gold Boarding School,,Lakhe Chaur Marg,00446,Kathmandu-10,Buddha Nagar,Kathmandu,Kathmandu,Bagmati Province,Nepal,np,© OpenStreetMap contributors,Open Database License,https://www.openstreetmap.org/copyright
66598512,268,2019-12-19 16:30:42,27.691735,85.33214166666667,4.85,29.788944104606053,"Deneb International School, Kathmandu, Kathmandu 44617, Nepal",27.691599,85.331881,Deneb International School,,,44617,,,Kathmandu,Kathmandu,Three,Nepal,np,© OpenStreetMap contributors,Open Database License,https://www.openstreetmap.org/copyright
66598999,268,2019-12-19 16:31:11,27.69233833333333,85.329395,18.23,13.366289142923025,"Bhaktithapa Road, Kathmandu, Kathmandu 44617, Nepal",27.692351,85.32926,,,Bhaktithapa Road,44617,,,Kathmandu,Kathmandu,Three,Nepal,np,© OpenStreetMap contributors,Open Database License,https://www.openstreetmap.org/copyright
66599558,268,2019-12-19 16:31:45,27.693621666666665,85.326345,18.88,4.462579374048302,"HLCIT (High Level Commission of Information and Technology), Tanka Prasad Ghumti Sadak, Bansh Ghari, Kathmandu 44617, Nepal",27.694038900000002,85.3267477374001,HLCIT (High Level Commission of Information and Technology),,Tanka Prasad Ghumti Sadak,44617,Kathmandu-29,Bansh Ghari,Kathmandu,Kathmandu,Bagmati Province,Nepal,np,© OpenStreetMap contributors,Open Database License,https://www.openstreetmap.org/copyright
66599977,268,2019-12-19 16:32:11,27.69453333333333,85.32357666666667,24.23,7.616342490055198,"शहरी बिकास तथा भवन निर्माण विभाग, Tanka Prasad Ghumti Sadak, Bansh Ghari, Kathmandu 44617, Nepal",27.69372645,85.32333557287294,शहरी बिकास तथा भवन निर्माण विभाग,,Tanka Prasad Ghumti Sadak,44617,Kathmandu-11,Bansh Ghari,Kathmandu,Kathmandu,Bagmati Province,Nepal,np,© OpenStreetMap contributors,Open Database License,https://www.openstreetmap.org/copyright
66600532,268,2019-12-19 16:32:45,27.694896666666665,85.32088166666666,11.08,4.516692057110887,"Chinamasta Law Firm, Kathmandu, Kathmandu 44617, Nepal",27.69491,85.320925,Chinamasta Law Firm,,,44617,,,Kathmandu,Kathmandu,Three,Nepal,np,© OpenStreetMap contributors,Open Database License,https://www.openstreetmap.org/copyright
66600963,268,2019-12-19 16:33:11,27.695361666666667,85.31997166666666,22.09,2.823194256493712,"Thapathali, Kathmandu 44617, Nepal",27.6963827,85.3194066,,,,44617,Kathmandu-11,Thapathali,Kathmandu,Kathmandu,Bagmati Province,Nepal,np,© OpenStreetMap contributors,Open Database License,https://www.openstreetmap.org/copyright
67751575,268,2019-12-20 10:53:01,27.698915,85.31925833333334,10.2,45.91593688311955,"Rastriya Samachar Samiti, Prithvi Path, Baghbazar, Kathmandu 44066, Nepal",27.6984478,85.31935297575043,Rastriya Samachar Samiti,,Prithvi Path,44066,Kathmandu-28,Baghbazar,Kathmandu,Kathmandu,Bagmati Province,Nepal,np,© OpenStreetMap contributors,Open Database License,https://www.openstreetmap.org/copyright
67752134,268,2019-12-20 10:53:31,27.698765,85.320025,0.02,14.160705215819304,"Prithvi Path, Kathmandu, Kathmandu 44066, Nepal",27.698828,85.3199,,,Prithvi Path,44066,,,Kathmandu,Kathmandu,Three,Nepal,np,© OpenStreetMap contributors,Open Database License,https://www.openstreetmap.org/copyright
67752676,268,2019-12-20 10:54:01,27.698765,85.320065,0.78,3.4000579152230217,"Prithvi Path, Baghbazar, Kathmandu 00446, Nepal",27.698554,85.3213247,Prithvi Path,,Prithvi Path,00446,Kathmandu-28,Baghbazar,Kathmandu,Kathmandu,Bagmati Province,Nepal,np,© OpenStreetMap contributors,Open Database License,https://www.openstreetmap.org/copyright
67753221,268,2019-12-20 10:54:30,27.69875333333333,85.32008833333333,0.03,20.315861719831844,"Prithvi Path, Kathmandu, Kathmandu 44066, Nepal",27.698828,85.3199,,,Prithvi Path,44066,,,Kathmandu,Kathmandu,Three,Nepal,np,© OpenStreetMap contributors,Open Database License,https://www.openstreetmap.org/copyright
67753761,268,2019-12-20 10:55:00,27.698751666666663,85.320075,0.05,19.206489518094394,"Prithvi Path, Kathmandu, Kathmandu 44066, Nepal",27.698828,85.3199,,,Prithvi Path,44066,,,Kathmandu,Kathmandu,Three,Nepal,np,© OpenStreetMap contributors,Open Database License,https://www.openstreetmap.org/copyright
67754294,268,2019-12-20 10:55:30,27.698755,85.32008,0.03,19.492034886901482,"Prithvi Path, Kathmandu, Kathmandu 44066, Nepal",27.698828,85.3199,,,Prithvi Path,44066,,,Kathmandu,Kathmandu,Three,Nepal,np,© OpenStreetMap contributors,Open Database License,https://www.openstreetmap.org/copyright
67754835,268,2019-12-20 10:56:00,27.698751666666663,85.32008166666667,0.01,19.79739358124199,"Prithvi Path, Kathmandu, Kathmandu 44066, Nepal",27.698828,85.3199,,,Prithvi Path,44066,,,Kathmandu,Kathmandu,Three,Nepal,np,© OpenStreetMap contributors,Open Database License,https://www.openstreetmap.org/copyright
67755371,268,2019-12-20 10:56:30,27.698745,85.32007666666667,0.02,19.690202008405635,"Prithvi Path, Kathmandu, Kathmandu 44066, Nepal",27.698828,85.3199,,,Prithvi Path,44066,,,Kathmandu,Kathmandu,Three,Nepal,np,© OpenStreetMap contributors,Open Database License,https://www.openstreetmap.org/copyright
67755896,268,2019-12-20 10:56:59,27.69864833333333,85.32056,6.6,22.58246761473637,"Prithvi Path, Kathmandu, Kathmandu 00446, Nepal",27.69858,85.320776,,,Prithvi Path,00446,,,Kathmandu,Kathmandu,Three,Nepal,np,© OpenStreetMap contributors,Open Database License,https://www.openstreetmap.org/copyright
67756463,268,2019-12-20 10:57:30,27.698476666666668,85.32139333333333,3.05,21.17966524940712,"Prithvi Path, Kathmandu, Kathmandu 44605, Nepal",27.698418,85.321598,,,Prithvi Path,44605,,,Kathmandu,Kathmandu,Three,Nepal,np,© OpenStreetMap contributors,Open Database License,https://www.openstreetmap.org/copyright
67757011,268,2019-12-20 10:57:59,27.697766666666663,85.32146166666666,14.54,23.158873877130098,"Nepal Bar Association, Ram Shah Path, Bansh Ghari, Kathmandu 00446, Nepal",27.697582099999998,85.32172165,Nepal Bar Association,,Ram Shah Path,00446,Kathmandu-29,Bansh Ghari,Kathmandu,Kathmandu,Bagmati Province,Nepal,np,© OpenStreetMap contributors,Open Database License,https://www.openstreetmap.org/copyright
67757606,268,2019-12-20 10:58:29,27.69603833333333,85.321095,11.03,1.869334278672193,"Ram Shah Path, Bansh Ghari, Kathmandu 00446, Nepal",27.695921,85.321048,Ram Shah Path,,Ram Shah Path,00446,Kathmandu-29,Bansh Ghari,Kathmandu,Kathmandu,Bagmati Province,Nepal,np,© OpenStreetMap contributors,Open Database License,https://www.openstreetmap.org/copyright
67758147,268,2019-12-20 10:58:58,27.695005,85.32086166666667,6.41,0.30744171530568304,"Thapathali, Kathmandu 44617, Nepal",27.6950438,85.3209247,,,,44617,Kathmandu-11,Thapathali,Kathmandu,Kathmandu,Bagmati Province,Nepal,np,© OpenStreetMap contributors,Open Database License,https://www.openstreetmap.org/copyright
67758684,268,2019-12-20 10:59:28,27.694296666666663,85.32042833333334,0.09,11.076615980836552,"माइतिघर सडक, Kathmandu, Kathmandu 44617, Nepal",27.694265,85.320535,,,माइतिघर सडक,44617,,,Kathmandu,Kathmandu,Three,Nepal,np,© OpenStreetMap contributors,Open Database License,https://www.openstreetmap.org/copyright
67759234,268,2019-12-20 10:59:58,27.69429166666667,85.32042666666666,0.06,11.070624825949206,"माइतिघर सडक, Kathmandu, Kathmandu 44617, Nepal",27.694265,85.320535,,,माइतिघर सडक,44617,,,Kathmandu,Kathmandu,Three,Nepal,np,© OpenStreetMap contributors,Open Database License,https://www.openstreetmap.org/copyright
67759792,268,2019-12-20 11:00:28,27.69441833333333,85.31990333333333,2.03,15.967639344306034,"Janaastha Lawyers Services Pvt.Ltd, Thapathali Marg, Thapathali, Kathmandu 44617, Nepal",27.6942864,85.3198393,Janaastha Lawyers Services Pvt.Ltd,,Thapathali Marg,44617,Kathmandu-11,Thapathali,Kathmandu,Kathmandu,Bagmati Province,Nepal,np,© OpenStreetMap contributors,Open Database License,https://www.openstreetmap.org/copyright
67760343,268,2019-12-20 11:00:58,27.694403333333334,85.31974333333334,0.84,9.70383031800431,"Thapathali Engineering Campus, Thapathali Road, Thapathali, Kathmandu 44617, Nepal",27.694567499999998,85.3189885018991,Thapathali Engineering Campus,,Thapathali Road,44617,Kathmandu-11,Thapathali,Kathmandu,Kathmandu,Bagmati Province,Nepal,np,© OpenStreetMap contributors,Open Database License,https://www.openstreetmap.org/copyright
67760870,268,2019-12-20 11:01:27,27.694115,85.31940833333333,1.47,7.191404234370821,"Nepal Food Corporation, Thapathali Road, Thapathali, Kathmandu 44617, Nepal",27.6932088,85.319650891967,Nepal Food Corporation,,Thapathali Road,44617,Kathmandu-11,Thapathali,Kathmandu,Kathmandu,Bagmati Province,Nepal,np,© OpenStreetMap contributors,Open Database License,https://www.openstreetmap.org/copyright
67761412,268,2019-12-20 11:01:57,27.693891666666666,85.31923,2.88,14.579632053541644,"Maitighar Bus Stop, Thapathali Road, Thapathali, Kathmandu 00779, Nepal",27.693971,85.3193479,Maitighar Bus Stop,,Thapathali Road,00779,Kathmandu-11,Thapathali,Kathmandu,Kathmandu,Bagmati Province,Nepal,np,© OpenStreetMap contributors,Open Database License,https://www.openstreetmap.org/copyright
67761948,268,2019-12-20 11:02:27,27.693376666666666,85.31887333333333,4.01,3.0716460419871585,"Nepal Food Corporation, Thapathali Road, Thapathali, Kathmandu 44617, Nepal",27.6932088,85.319650891967,Nepal Food Corporation,,Thapathali Road,44617,Kathmandu-11,Thapathali,Kathmandu,Kathmandu,Bagmati Province,Nepal,np,© OpenStreetMap contributors,Open Database License,https://www.openstreetmap.org/copyright
67814257,268,2019-12-20 11:50:36,27.694515,85.31984,8.02,0.18282850668007342,"Thapathali, Kathmandu 44617, Nepal",27.6944768,85.3197665,,,,44617,Kathmandu-11,Thapathali,Kathmandu,Kathmandu,Bagmati Province,Nepal,np,© OpenStreetMap contributors,Open Database License,https://www.openstreetmap.org/copyright
67814783,268,2019-12-20 11:51:06,27.69562833333333,85.32091666666666,16.38,6.870274812742486,"Ministry of Health and Population, Ram Shah Path, Thapathali, Kathmandu 00446, Nepal",27.69575425,85.320351378028,Ministry of Health and Population,,Ram Shah Path,00446,Kathmandu-11,Thapathali,Kathmandu,Kathmandu,Bagmati Province,Nepal,np,© OpenStreetMap contributors,Open Database License,https://www.openstreetmap.org/copyright
67815343,268,2019-12-20 11:51:36,27.697536666666668,85.32138333333333,0.22,23.88244051467096,"Nepal Bar Association, Ram Shah Path, Bansh Ghari, Kathmandu 00446, Nepal",27.697582099999998,85.32172165,Nepal Bar Association,,Ram Shah Path,00446,Kathmandu-29,Bansh Ghari,Kathmandu,Kathmandu,Bagmati Province,Nepal,np,© OpenStreetMap contributors,Open Database License,https://www.openstreetmap.org/copyright
67815876,268,2019-12-20 11:52:06,27.697566666666667,85.32139833333333,0.05,22.622616739010184,"Nepal Bar Association, Ram Shah Path, Bansh Ghari, Kathmandu 00446, Nepal",27.697582099999998,85.32172165,Nepal Bar Association,,Ram Shah Path,00446,Kathmandu-29,Bansh Ghari,Kathmandu,Kathmandu,Bagmati Province,Nepal,np,© OpenStreetMap contributors,Open Database License,https://www.openstreetmap.org/copyright
67816423,268,2019-12-20 11:52:35,27.697691666666667,85.32144166666667,7.92,22.10948588186925,"Nepal Bar Association, Ram Shah Path, Bansh Ghari, Kathmandu 00446, Nepal",27.697582099999998,85.32172165,Nepal Bar Association,,Ram Shah Path,00446,Kathmandu-29,Bansh Ghari,Kathmandu,Kathmandu,Bagmati Province,Nepal,np,© OpenStreetMap contributors,Open Database License,https://www.openstreetmap.org/copyright
67816949,268,2019-12-20 11:53:05,27.69853833333333,85.32160166666667,8.73,8.620786420208395,"Prithivi Narayan Shah, Prithvi Path, Bansh Ghari, Kathmandu 00446, Nepal",27.6984611,85.3216093,Prithivi Narayan Shah,,Prithvi Path,00446,Kathmandu-28,Bansh Ghari,Kathmandu,Kathmandu,Bagmati Province,Nepal,np,© OpenStreetMap contributors,Open Database License,https://www.openstreetmap.org/copyright
67817470,268,2019-12-20 11:53:35,27.6999,85.3219,11.43,7.323205359518716,"Shree Saii Digital Photo Studio, Ram Shah Path, Baghbazar, Kathmandu 44605, Nepal",27.6999246,85.321831,Shree Saii Digital Photo Studio,,Ram Shah Path,44605,Kathmandu-28,Baghbazar,Kathmandu,Kathmandu,Bagmati Province,Nepal,np,© OpenStreetMap contributors,Open Database License,https://www.openstreetmap.org/copyright
67818004,268,2019-12-20 11:54:05,27.70081,85.32210666666667,2.06,7.35444427140695,"Manjusiri Pustak Griha, Ram Shah Path, Baghbazar, Kathmandu 44605, Nepal",27.700846,85.322044,Manjusiri Pustak Griha,,Ram Shah Path,44605,Kathmandu-28,Baghbazar,Kathmandu,Kathmandu,Bagmati Province,Nepal,np,© OpenStreetMap contributors,Open Database License,https://www.openstreetmap.org/copyright
67818548,268,2019-12-20 11:54:34,27.70164833333333,85.32223333333333,7.58,4.254139953137085,"Exhibition Road, Kathmandu, Kathmandu 44605, Nepal",27.701618,85.322207,,,Exhibition Road,44605,,,Kathmandu,Kathmandu,Three,Nepal,np,© OpenStreetMap contributors,Open Database License,https://www.openstreetmap.org/copyright
67819071,268,2019-12-20 11:55:04,27.702808333333333,85.32242833333333,0.99,6.074011393903661,"Excel Education, Putali Sadak, Baghbazar, Kathmandu 44605, Nepal",27.7028389,85.3223772,Excel Education,,Putali Sadak,44605,Kathmandu-28,Baghbazar,Kathmandu,Kathmandu,Bagmati Province,Nepal,np,© OpenStreetMap contributors,Open Database License,https://www.openstreetmap.org/copyright
67819628,268,2019-12-20 11:55:34,27.703671666666665,85.32252833333334,15.97,8.61307235244143,"Putali Sadak, Kathmandu, Kathmandu 46600, Nepal",27.703626,85.322599,,,Putali Sadak,46600,,,Kathmandu,Kathmandu,Three,Nepal,np,© OpenStreetMap contributors,Open Database License,https://www.openstreetmap.org/copyright
67820152,268,2019-12-20 11:56:04,27.704855,85.32275666666666,1.35,4.683540073214381,"Zozo Hub traders, Putali Sadak, Baghbazar, Kathmandu 46600, Nepal",27.7048665,85.3227109,Zozo Hub traders,,Putali Sadak,46600,Kathmandu-28,Baghbazar,Kathmandu,Kathmandu,Bagmati Province,Nepal,np,© OpenStreetMap contributors,Open Database License,https://www.openstreetmap.org/copyright
67820695,268,2019-12-20 11:56:34,27.705335,85.32281833333333,2.9,6.818619752148079,"Rambos Resturant Tandoori And Fast Food, Putali Sadak, Baghbazar, Kathmandu 46600, Nepal",27.705298,85.3227631,Rambos Resturant Tandoori And Fast Food,,Putali Sadak,46600,Kathmandu-28,Baghbazar,Kathmandu,Kathmandu,Bagmati Province,Nepal,np,© OpenStreetMap contributors,Open Database License,https://www.openstreetmap.org/copyright
67821223,268,2019-12-20 11:57:03,27.70623833333333,85.32273333333333,5.76,0,"Triveni Complex, Kathmandu Metropolitan City, Kathmandu 46600, Nepal",27.70619125,85.3227393003623,Triveni Complex,,,46600,Kathmandu-28,,Kathmandu Metropolitan City,Kathmandu,Bagmati Province,Nepal,np,© OpenStreetMap contributors,Open Database License,https://www.openstreetmap.org/copyright
67821802,268,2019-12-20 11:57:33,27.70737,85.32226,12.07,6.430535351547671,"JTA, Kathmandu, Kathmandu 46000, Nepal",27.707405,85.322312,JTA,,,46000,,,Kathmandu,Kathmandu,Three,Nepal,np,© OpenStreetMap contributors,Open Database License,https://www.openstreetmap.org/copyright
67822359,268,2019-12-20 11:58:03,27.707725,85.32195833333333,0.13,2.103568393981008,"Apply International Education Consultancy, Putali Sadak, Narayan Chaur, Kathmandu 46000, Nepal",27.7077365,85.3219753,Apply International Education Consultancy,,Putali Sadak,46000,Kathmandu-28,Narayan Chaur,Kathmandu,Kathmandu,Bagmati Province,Nepal,np,© OpenStreetMap contributors,Open Database License,https://www.openstreetmap.org/copyright
67822885,268,2019-12-20 11:58:33,27.70783,85.32199833333334,0.52,8.136939926683107,"Hands For Help Education Consultancy, Kathmandu, Kathmandu 46000, Nepal",27.707798,85.321924,Hands For Help Education Consultancy,,,46000,,,Kathmandu,Kathmandu,Three,Nepal,np,© OpenStreetMap contributors,Open Database License,https://www.openstreetmap.org/copyright
67823429,268,2019-12-20 11:59:03,27.70775833333333,85.32194666666666,0.07,0.6378854017395389,"Philips Light Lounge, Putali Sadak, Narayan Chaur, Kathmandu 46000, Nepal",27.7077599,85.3219529,Philips Light Lounge,,Putali Sadak,46000,Kathmandu-28,Narayan Chaur,Kathmandu,Kathmandu,Bagmati Province,Nepal,np,© OpenStreetMap contributors,Open Database License,https://www.openstreetmap.org/copyright
67823959,268,2019-12-20 11:59:32,27.70775666666667,85.32193,0.1,2.282866297725056,"Philips Light Lounge, Putali Sadak, Narayan Chaur, Kathmandu 46000, Nepal",27.7077599,85.3219529,Philips Light Lounge,,Putali Sadak,46000,Kathmandu-28,Narayan Chaur,Kathmandu,Kathmandu,Bagmati Province,Nepal,np,© OpenStreetMap contributors,Open Database License,https://www.openstreetmap.org/copyright
67824490,268,2019-12-20 12:00:02,27.707886666666667,85.32200333333333,0.13,1.1650707129500633,"Radiant Infotech Nepal, Putali Sadak, Narayan Chaur, Kathmandu 46000, Nepal",27.70777975,85.32217929532464,Radiant Infotech Nepal,,Putali Sadak,46000,Kathmandu-01,Narayan Chaur,Kathmandu,Kathmandu,Bagmati Province,Nepal,np,© OpenStreetMap contributors,Open Database License,https://www.openstreetmap.org/copyright
67825020,268,2019-12-20 12:00:32,27.708225,85.32186166666666,6.08,0.49606918775372016,"Baghbazar, Kathmandu 46000, Nepal",27.708932,85.3219638,,,,46000,Kathmandu-28,Baghbazar,Kathmandu,Kathmandu,Bagmati Province,Nepal,np,© OpenStreetMap contributors,Open Database License,https://www.openstreetmap.org/copyright
67825730,268,2019-12-20 12:01:12,27.709561666666666,85.32205333333333,2.18,1.1946284119447856,"Baghbazar, Kathmandu 46000, Nepal",27.708932,85.3219638,,,,46000,Kathmandu-28,Baghbazar,Kathmandu,Kathmandu,Bagmati Province,Nepal,np,© OpenStreetMap contributors,Open Database License,https://www.openstreetmap.org/copyright
67826157,268,2019-12-20 12:01:37,27.709645,85.32206,1.6,8.041388469144316,"Fuse Machine, Tindhara Sadak, Narayan Chaur, Kathmandu 66400, Nepal",27.709607,85.3219905,Fuse Machine,,Tindhara Sadak,66400,Kathmandu-01,Narayan Chaur,Kathmandu,Kathmandu,Bagmati Province,Nepal,np,© OpenStreetMap contributors,Open Database License,https://www.openstreetmap.org/copyright
67826662,268,2019-12-20 12:02:06,27.710176666666666,85.32206,4.52,5.548658662056037,"China Southern, Kathmandu, Kathmandu 46000, Nepal",27.710171,85.322004,China Southern,,,46000,,,Kathmandu,Kathmandu,Three,Nepal,np,© OpenStreetMap contributors,Open Database License,https://www.openstreetmap.org/copyright
68940558,268,2019-12-21 06:10:36,27.70570833333333,85.31965,11.97,3.476124519622102,"Hardik Hotel, Baghbazar Sadak, Baghbazar, Kathmandu 46600, Nepal",27.70561515,85.31970524423247,Hardik Hotel,,Baghbazar Sadak,46600,Kathmandu-28,Baghbazar,Kathmandu,Kathmandu,Bagmati Province,Nepal,np,© OpenStreetMap contributors,Open Database License,https://www.openstreetmap.org/copyright
68941065,268,2019-12-21 06:11:06,27.705736666666667,85.32079333333333,0.06,0.6621003737137025,"Padma Kanya Campus, VIP Marg, Baghbazar, Kathmandu 46600, Nepal",27.70648155,85.32104307173097,Padma Kanya Campus,,VIP Marg,46600,Kathmandu-28,Baghbazar,Kathmandu,Kathmandu,Bagmati Province,Nepal,np,© OpenStreetMap contributors,Open Database License,https://www.openstreetmap.org/copyright
68941555,268,2019-12-21 06:11:36,27.70571,85.32062166666667,8.28,11.07871514929346,"Bagbazar Store, Kathmandu, Kathmandu 46600, Nepal",27.705611,85.320609,Bagbazar Store,,,46600,,,Kathmandu,Kathmandu,Three,Nepal,np,© OpenStreetMap contributors,Open Database License,https://www.openstreetmap.org/copyright
68942048,268,2019-12-21 06:12:06,27.705801666666662,85.31959666666667,4.02,6.058630631223315,"Earth Vision International Education, Baghbazar Sadak, Baghbazar, Kathmandu 46600, Nepal",27.705852,85.3195731,Earth Vision International Education,,Baghbazar Sadak,46600,Kathmandu-28,Baghbazar,Kathmandu,Kathmandu,Bagmati Province,Nepal,np,© OpenStreetMap contributors,Open Database License,https://www.openstreetmap.org/copyright
68942540,268,2019-12-21 06:12:35,27.70585,85.31882333333333,5.62,5.0019484265822385,"New Modern Opticals, Baghbazar Sadak, Baghbazar, Kathmandu 46600, Nepal",27.705894,85.3188339,New Modern Opticals,,Baghbazar Sadak,46600,Kathmandu-28,Baghbazar,Kathmandu,Kathmandu,Bagmati Province,Nepal,np,© OpenStreetMap contributors,Open Database License,https://www.openstreetmap.org/copyright
68965252,268,2019-12-21 06:34:56,27.694738333333333,85.32018333333333,6.25,2.379322094687532,"Thapathali, Kathmandu 44617, Nepal",27.6963827,85.3194066,,,,44617,Kathmandu-11,Thapathali,Kathmandu,Kathmandu,Bagmati Province,Nepal,np,© OpenStreetMap contributors,Open Database License,https://www.openstreetmap.org/copyright
68965772,268,2019-12-21 06:35:26,27.69632,85.32112,17.99,2.1084411418754225,"Ram Shah Path, Bansh Ghari, Kathmandu 00446, Nepal",27.695921,85.321048,Ram Shah Path,,Ram Shah Path,00446,Kathmandu-29,Bansh Ghari,Kathmandu,Kathmandu,Bagmati Province,Nepal,np,© OpenStreetMap contributors,Open Database License,https://www.openstreetmap.org/copyright
68966270,268,2019-12-21 06:35:55,27.696905,85.32127333333334,0.06,23.53594632426523,"Nepal Bank Limited ATM, Ram Shah Path, Kathmandu, Kathmandu 00446, Nepal",27.6967584,85.3211009,Nepal Bank Limited ATM,,Ram Shah Path,00446,Kathmandu-11,,Kathmandu,Kathmandu,Bagmati Province,Nepal,np,© OpenStreetMap contributors,Open Database License,https://www.openstreetmap.org/copyright
68966778,268,2019-12-21 06:36:25,27.697781666666668,85.32146333333333,12.62,23.88912153169499,"Nepal Bar Association, Ram Shah Path, Bansh Ghari, Kathmandu 00446, Nepal",27.697582099999998,85.32172165,Nepal Bar Association,,Ram Shah Path,00446,Kathmandu-29,Bansh Ghari,Kathmandu,Kathmandu,Bagmati Province,Nepal,np,© OpenStreetMap contributors,Open Database License,https://www.openstreetmap.org/copyright
68967278,268,2019-12-21 06:36:55,27.699403333333333,85.32178666666667,12.42,19.866809642884512,"Himalayan White House International College, Baggi Khana Marg, Baghbazar, Kathmandu 44605, Nepal",27.6995798,85.3217551,Himalayan White House International College,,Baggi Khana Marg,44605,Kathmandu-28,Baghbazar,Kathmandu,Kathmandu,Bagmati Province,Nepal,np,© OpenStreetMap contributors,Open Database License,https://www.openstreetmap.org/copyright
68967771,268,2019-12-21 06:37:25,27.70093333333333,85.32215833333333,10.52,13.413671354968628,"Subham International Pvt.Ltd, Kathmandu, Kathmandu 44605, Nepal",27.700884,85.322034,Subham International Pvt.Ltd,,,44605,,,Kathmandu,Kathmandu,Three,Nepal,np,© OpenStreetMap contributors,Open Database License,https://www.openstreetmap.org/copyright
68968264,268,2019-12-21 06:37:55,27.70148333333333,85.32228666666667,0.13,4.679834125013259,"Mangaldeep Multi Business pvt.ltd, Ram Shah Path, Baghbazar, Kathmandu 44605, Nepal",27.7014725,85.3223326,Mangaldeep Multi Business pvt.ltd,,Ram Shah Path,44605,Kathmandu-29,Baghbazar,Kathmandu,Kathmandu,Bagmati Province,Nepal,np,© OpenStreetMap contributors,Open Database License,https://www.openstreetmap.org/copyright
68968888,268,2019-12-21 06:38:31,27.702335,85.3224,11.75,9.857931444675602,"Darwin Education Foundation PVT.LTD, Prashant Galli, Baghbazar, Kathmandu 44605, Nepal",27.7022803,85.3223212,Darwin Education Foundation PVT.LTD,,Prashant Galli,44605,Kathmandu-28,Baghbazar,Kathmandu,Kathmandu,Bagmati Province,Nepal,np,© OpenStreetMap contributors,Open Database License,https://www.openstreetmap.org/copyright
68969277,268,2019-12-21 06:38:54,27.704065,85.32277,16.52,0,"nepal store private ltd., Kathmandu Metropolitan City, Kathmandu 44605, Nepal",27.7040641,85.32280247136259,nepal store private ltd.,,,44605,Kathmandu-29,,Kathmandu Metropolitan City,Kathmandu,Bagmati Province,Nepal,np,© OpenStreetMap contributors,Open Database License,https://www.openstreetmap.org/copyright
68969780,268,2019-12-21 06:39:24,27.705495,85.32297166666666,5.18,5.6037922080108835,"Puskar Sekuwa Corner, Putali Sadak, Bansh Ghari, Kathmandu 46600, Nepal",27.7055169,85.3229204,Puskar Sekuwa Corner,,Putali Sadak,46600,Kathmandu-28,Bansh Ghari,Kathmandu,Kathmandu,Bagmati Province,Nepal,np,© OpenStreetMap contributors,Open Database License,https://www.openstreetmap.org/copyright
68970288,268,2019-12-21 06:39:54,27.706821666666663,85.32284666666666,16.43,8.740605356122499,"Surya Bahuudasiye Sansthan Ltd, Kathmandu, Kathmandu 46600, Nepal",27.706798,85.322762,Surya Bahuudasiye Sansthan Ltd,,,46600,,,Kathmandu,Kathmandu,Three,Nepal,np,© OpenStreetMap contributors,Open Database License,https://www.openstreetmap.org/copyright
68970876,268,2019-12-21 06:40:27,27.708556666666667,85.32195666666667,12.18,0.6583709904626316,"Uma Holidays Travel & Tours, Charbhurja Marg, Narayan Chaur, Kathmandu 46000, Nepal",27.708647,85.32202762713243,Uma Holidays Travel & Tours,,Charbhurja Marg,46000,Kathmandu-28,Narayan Chaur,Kathmandu,Kathmandu,Bagmati Province,Nepal,np,© OpenStreetMap contributors,Open Database License,https://www.openstreetmap.org/copyright
68971333,268,2019-12-21 06:40:53,27.709666666666667,85.322115,3.5,8.61423402561342,"Sun Nepal Life Insurance Company Limited Corporate office, Tin Dhara Sadak, Narayan Chaur, Kathmandu 46000, Nepal",27.7096675,85.3222025,Sun Nepal Life Insurance Company Limited Corporate office,,Tin Dhara Sadak,46000,Kathmandu-01,Narayan Chaur,Kathmandu,Kathmandu,Bagmati Province,Nepal,np,© OpenStreetMap contributors,Open Database License,https://www.openstreetmap.org/copyright
68971842,268,2019-12-21 06:41:23,27.710285,85.32274166666667,8.07,24.180714727800144,"Krishna Bakery, Pashupati Sadak - 3, Narayan Chaur, Kathmandu 46000, Nepal",27.7104124,85.3225426,Krishna Bakery,,Pashupati Sadak - 3,46000,Kathmandu-01,Narayan Chaur,Kathmandu,Kathmandu,Bagmati Province,Nepal,np,© OpenStreetMap contributors,Open Database License,https://www.openstreetmap.org/copyright
68972339,268,2019-12-21 06:41:53,27.71020833333333,85.32419,0.38,4.421054420913137,"Sashi Plumbing, Pashupati Sadak - 3, Narayan Chaur, Kathmandu 46000, Nepal",27.7102328,85.3242254,Sashi Plumbing,,Pashupati Sadak - 3,46000,Kathmandu-01,Narayan Chaur,Kathmandu,Kathmandu,Bagmati Province,Nepal,np,© OpenStreetMap contributors,Open Database License,https://www.openstreetmap.org/copyright
68972830,268,2019-12-21 06:42:23,27.710091666666667,85.32546166666667,14.4,27.854880835391423,"Sandar MoMo, Pashupati Sadak P85G+X8C, Kathmandu, Kathmandu 44600, Nepal",27.709913,85.32566,Sandar MoMo,P85G+X8C,Pashupati Sadak,44600,,,Kathmandu,Kathmandu,Three,Nepal,np,© OpenStreetMap contributors,Open Database License,https://www.openstreetmap.org/copyright
68973397,268,2019-12-21 06:42:56,27.70970833333333,85.32741333333334,15.12,9.52442270282668,"Image Shirting Suiting, Kathmandu, Kathmandu 44605, Nepal",27.709791,85.327388,Image Shirting Suiting,,,44605,,,Kathmandu,Kathmandu,Three,Nepal,np,© OpenStreetMap contributors,Open Database License,https://www.openstreetmap.org/copyright
68973838,268,2019-12-21 06:43:22,27.709276666666668,85.32924666666666,13.4,4.9940576530236935,"Braindigit IT Solution, Pashupati Sadak, Maitidevi, Kathmandu 44605, Nepal",27.70941225,85.32935865659823,Braindigit IT Solution,,Pashupati Sadak,44605,Kathmandu-30,Maitidevi,Kathmandu,Kathmandu,Bagmati Province,Nepal,np,© OpenStreetMap contributors,Open Database License,https://www.openstreetmap.org/copyright
68974333,268,2019-12-21 06:43:52,27.70898,85.33070166666667,1.59,0.6346110260116625,"Maple School, Devi marg, Dillibazar, Kathmandu 44605, Nepal",27.7090186,85.3306848,Maple School,,Devi marg,44605,Kathmandu-30,Dillibazar,Kathmandu,Kathmandu,Bagmati Province,Nepal,np,© OpenStreetMap contributors,Open Database License,https://www.openstreetmap.org/copyright
68974868,268,2019-12-21 06:44:22,27.709891666666667,85.33103,11.25,1.179183373465117,"Devi marg, Maitidevi, Kathmandu 44605, Nepal",27.7103169,85.3311772,Devi marg,,Devi marg,44605,Kathmandu-30,Maitidevi,Kathmandu,Kathmandu,Bagmati Province,Nepal,np,© OpenStreetMap contributors,Open Database License,https://www.openstreetmap.org/copyright
69094152,268,2019-12-21 08:42:31,27.710746666666665,85.32823333333333,8.18,1.737478482053888,"Chito Meetho, Thirbam Sadak 3, Narayan Chaur, Kathmandu 44605, Nepal",27.7107351,85.3282452,Chito Meetho,,Thirbam Sadak 3,44605,Kathmandu-01,Narayan Chaur,Kathmandu,Kathmandu,Bagmati Province,Nepal,np,© OpenStreetMap contributors,Open Database License,https://www.openstreetmap.org/copyright
69094677,268,2019-12-21 08:43:00,27.710626666666663,85.328245,0.09,12.057269275121426,"Chito Meetho, Thirbam Sadak 3, Narayan Chaur, Kathmandu 44605, Nepal",27.7107351,85.3282452,Chito Meetho,,Thirbam Sadak 3,44605,Kathmandu-01,Narayan Chaur,Kathmandu,Kathmandu,Bagmati Province,Nepal,np,© OpenStreetMap contributors,Open Database License,https://www.openstreetmap.org/copyright
69095212,268,2019-12-21 08:43:31,27.710625,85.32824333333333,0.02,12.243957336430112,"Chito Meetho, Thirbam Sadak 3, Narayan Chaur, Kathmandu 44605, Nepal",27.7107351,85.3282452,Chito Meetho,,Thirbam Sadak 3,44605,Kathmandu-01,Narayan Chaur,Kathmandu,Kathmandu,Bagmati Province,Nepal,np,© OpenStreetMap contributors,Open Database License,https://www.openstreetmap.org/copyright
69095781,268,2019-12-21 08:44:00,27.71061333333333,85.32824833333333,0.08,13.543367218980709,"Chito Meetho, Thirbam Sadak 3, Narayan Chaur, Kathmandu 44605, Nepal",27.7107351,85.3282452,Chito Meetho,,Thirbam Sadak 3,44605,Kathmandu-01,Narayan Chaur,Kathmandu,Kathmandu,Bagmati Province,Nepal,np,© OpenStreetMap contributors,Open Database License,https://www.openstreetmap.org/copyright
69096282,268,2019-12-21 08:44:30,27.710591666666662,85.32824666666667,0.05,15.949734511356606,"Chito Meetho, Thirbam Sadak 3, Narayan Chaur, Kathmandu 44605, Nepal",27.7107351,85.3282452,Chito Meetho,,Thirbam Sadak 3,44605,Kathmandu-01,Narayan Chaur,Kathmandu,Kathmandu,Bagmati Province,Nepal,np,© OpenStreetMap contributors,Open Database License,https://www.openstreetmap.org/copyright
69096764,268,2019-12-21 08:45:00,27.710573333333333,85.32824333333333,0.1,14.597353579739783,"Himal Hospital, Thirbam Sadak 3, Narayan Chaur, Kathmandu 44605, Nepal",27.7103119,85.32823583509317,Himal Hospital,,Thirbam Sadak 3,44605,Kathmandu-30,Narayan Chaur,Kathmandu,Kathmandu,Bagmati Province,Nepal,np,© OpenStreetMap contributors,Open Database License,https://www.openstreetmap.org/copyright
69097257,268,2019-12-21 08:45:30,27.710563333333333,85.32820833333334,0.06,12.90090558117001,"Himal Hospital, Thirbam Sadak 3, Narayan Chaur, Kathmandu 44605, Nepal",27.7103119,85.32823583509317,Himal Hospital,,Thirbam Sadak 3,44605,Kathmandu-30,Narayan Chaur,Kathmandu,Kathmandu,Bagmati Province,Nepal,np,© OpenStreetMap contributors,Open Database License,https://www.openstreetmap.org/copyright
69097792,268,2019-12-21 08:45:59,27.710556666666665,85.32820833333334,0.04,12.170991792204072,"Himal Hospital, Thirbam Sadak 3, Narayan Chaur, Kathmandu 44605, Nepal",27.7103119,85.32823583509317,Himal Hospital,,Thirbam Sadak 3,44605,Kathmandu-30,Narayan Chaur,Kathmandu,Kathmandu,Bagmati Province,Nepal,np,© OpenStreetMap contributors,Open Database License,https://www.openstreetmap.org/copyright
69098305,268,2019-12-21 08:46:29,27.71057,85.32823333333333,0.04,14.060517452651215,"Himal Hospital, Thirbam Sadak 3, Narayan Chaur, Kathmandu 44605, Nepal",27.7103119,85.32823583509317,Himal Hospital,,Thirbam Sadak 3,44605,Kathmandu-30,Narayan Chaur,Kathmandu,Kathmandu,Bagmati Province,Nepal,np,© OpenStreetMap contributors,Open Database License,https://www.openstreetmap.org/copyright
69098796,268,2019-12-21 08:46:59,27.710586666666668,85.32824666666667,0.03,16.11447422717853,"Himal Hospital, Thirbam Sadak 3, Narayan Chaur, Kathmandu 44605, Nepal",27.7103119,85.32823583509317,Himal Hospital,,Thirbam Sadak 3,44605,Kathmandu-30,Narayan Chaur,Kathmandu,Kathmandu,Bagmati Province,Nepal,np,© OpenStreetMap contributors,Open Database License,https://www.openstreetmap.org/copyright
69099285,268,2019-12-21 08:47:29,27.71059,85.32825,0.18,16.14132390126087,"Chito Meetho, Thirbam Sadak 3, Narayan Chaur, Kathmandu 44605, Nepal",27.7107351,85.3282452,Chito Meetho,,Thirbam Sadak 3,44605,Kathmandu-01,Narayan Chaur,Kathmandu,Kathmandu,Bagmati Province,Nepal,np,© OpenStreetMap contributors,Open Database License,https://www.openstreetmap.org/copyright
69099806,268,2019-12-21 08:47:58,27.7106,85.32822333333333,0.12,15.175896169323286,"Chito Meetho, Thirbam Sadak 3, Narayan Chaur, Kathmandu 44605, Nepal",27.7107351,85.3282452,Chito Meetho,,Thirbam Sadak 3,44605,Kathmandu-01,Narayan Chaur,Kathmandu,Kathmandu,Bagmati Province,Nepal,np,© OpenStreetMap contributors,Open Database License,https://www.openstreetmap.org/copyright
69100298,268,2019-12-21 08:48:28,27.710608333333333,85.32823,0.11,14.175026389615764,"Chito Meetho, Thirbam Sadak 3, Narayan Chaur, Kathmandu 44605, Nepal",27.7107351,85.3282452,Chito Meetho,,Thirbam Sadak 3,44605,Kathmandu-01,Narayan Chaur,Kathmandu,Kathmandu,Bagmati Province,Nepal,np,© OpenStreetMap contributors,Open Database License,https://www.openstreetmap.org/copyright
69100799,268,2019-12-21 08:48:58,27.71061333333333,85.32825333333334,0.05,13.563506546671071,"Chito Meetho, Thirbam Sadak 3, Narayan Chaur, Kathmandu 44605, Nepal",27.7107351,85.3282452,Chito Meetho,,Thirbam Sadak 3,44605,Kathmandu-01,Narayan Chaur,Kathmandu,Kathmandu,Bagmati Province,Nepal,np,© OpenStreetMap contributors,Open Database License,https://www.openstreetmap.org/copyright
69101324,268,2019-12-21 08:49:28,27.709983333333334,85.32801333333333,10.12,3.8611325770368414,"Tawa, Thirbam Sadak 3, Narayan Chaur, Kathmandu 44605, Nepal",27.7099551,85.3279905,Tawa,,Thirbam Sadak 3,44605,Kathmandu-01,Narayan Chaur,Kathmandu,Kathmandu,Bagmati Province,Nepal,np,© OpenStreetMap contributors,Open Database License,https://www.openstreetmap.org/copyright
69101819,268,2019-12-21 08:49:57,27.709801666666667,85.32704666666666,5.53,10.310320142977327,"Ciy Center Stop, Kathmandu, Kathmandu 44605, Nepal",27.709805,85.326942,Ciy Center Stop,,,44605,,,Kathmandu,Kathmandu,Three,Nepal,np,© OpenStreetMap contributors,Open Database License,https://www.openstreetmap.org/copyright
69102338,268,2019-12-21 08:50:27,27.710003333333333,85.32601333333334,6.65,5.222231395177245,"Kamalpokhari Bus Stop, Kathmandu, Kathmandu 46600, Nepal",27.709981,85.32606,Kamalpokhari Bus Stop,,,46600,,,Kathmandu,Kathmandu,Three,Nepal,np,© OpenStreetMap contributors,Open Database License,https://www.openstreetmap.org/copyright
69102862,268,2019-12-21 08:50:58,27.71017833333333,85.32402,17.13,43.41323220128269,"Om Everest ceramic, Pashupati Marga 29, Narayan Chaur, Kathmandu 46000, Nepal",27.7103644,85.3236323,Om Everest ceramic,29,Pashupati Marga,46000,Kathmandu-01,Narayan Chaur,Kathmandu,Kathmandu,Bagmati Province,Nepal,np,© OpenStreetMap contributors,Open Database License,https://www.openstreetmap.org/copyright
69103421,268,2019-12-21 08:51:31,27.71023333333333,85.32223666666667,2.7,3.7859131687959784,"MTR 1924, Pashupati Marga, Narayan Chaur, Kathmandu 46000, Nepal",27.7102212,85.3222726,MTR 1924,,Pashupati Marga,46000,Kathmandu-01,Narayan Chaur,Kathmandu,Kathmandu,Bagmati Province,Nepal,np,© OpenStreetMap contributors,Open Database License,https://www.openstreetmap.org/copyright
69103850,268,2019-12-21 08:51:57,27.708476666666662,85.32189333333334,13.49,0.7736744338121345,"Baghbazar, Kathmandu 46000, Nepal",27.708932,85.3219638,,,,46000,Kathmandu-28,Baghbazar,Kathmandu,Kathmandu,Bagmati Province,Nepal,np,© OpenStreetMap contributors,Open Database License,https://www.openstreetmap.org/copyright
69104334,268,2019-12-21 08:52:26,27.707996666666663,85.320095,16.22,14.261668147545077,"Yasuko International Education Consultancy Pvt.Ltd, Kamaladi Marg, Baghbazar, Kathmandu 46000, Nepal",27.7079704,85.3199532,Yasuko International Education Consultancy Pvt.Ltd,,Kamaladi Marg,46000,Kathmandu-28,Baghbazar,Kathmandu,Kathmandu,Bagmati Province,Nepal,np,© OpenStreetMap contributors,Open Database License,https://www.openstreetmap.org/copyright
69107790,268,2019-12-21 08:55:55,27.698476666666668,85.32150333333334,0.42,10.54802776889105,"Prithivi Narayan Shah, Kathmandu, Kathmandu 44605, Nepal",27.698461,85.321609,Prithivi Narayan Shah,,,44605,,,Kathmandu,Kathmandu,Three,Nepal,np,© OpenStreetMap contributors,Open Database License,https://www.openstreetmap.org/copyright
69108287,268,2019-12-21 08:56:25,27.69631833333333,85.32115333333333,17.97,1.1422054773904216,"Ram Shah Path, Bansh Ghari, Kathmandu 00446, Nepal",27.695921,85.321048,Ram Shah Path,,Ram Shah Path,00446,Kathmandu-29,Bansh Ghari,Kathmandu,Kathmandu,Bagmati Province,Nepal,np,© OpenStreetMap contributors,Open Database License,https://www.openstreetmap.org/copyright
69108773,268,2019-12-21 08:56:55,27.69435,85.320575,12.62,10.239253220618323,"माइतिघर सडक, Kathmandu, Kathmandu 44617, Nepal",27.694265,85.320535,,,माइतिघर सडक,44617,,,Kathmandu,Kathmandu,Three,Nepal,np,© OpenStreetMap contributors,Open Database License,https://www.openstreetmap.org/copyright
69109261,268,2019-12-21 08:57:24,27.694315,85.31957666666666,13.33,7.568752727326218,"J.R Education Group Pvt.Ltd, Thapathali Road, Thapathali, Kathmandu 44617, Nepal",27.6942714,85.3196357,J.R Education Group Pvt.Ltd,,Thapathali Road,44617,Kathmandu-11,Thapathali,Kathmandu,Kathmandu,Bagmati Province,Nepal,np,© OpenStreetMap contributors,Open Database License,https://www.openstreetmap.org/copyright
69131245,268,2019-12-21 09:19:16,27.698786666666667,85.32017,18.75,1.1487370951094906,"Prithvi Path, Baghbazar, Kathmandu 00446, Nepal",27.698554,85.3213247,Prithvi Path,,Prithvi Path,00446,Kathmandu-28,Baghbazar,Kathmandu,Kathmandu,Bagmati Province,Nepal,np,© OpenStreetMap contributors,Open Database License,https://www.openstreetmap.org/copyright
69131793,268,2019-12-21 09:19:45,27.69833833333333,85.321585,2.18,3.4192854775005737,"Ram Shah Path, Bansh Ghari, Kathmandu 00446, Nepal",27.6984094,85.3216432,Ram Shah Path,,Ram Shah Path,00446,Kathmandu-29,Bansh Ghari,Kathmandu,Kathmandu,Bagmati Province,Nepal,np,© OpenStreetMap contributors,Open Database License,https://www.openstreetmap.org/copyright
69132341,268,2019-12-21 09:20:15,27.69686,85.3213,11.18,1.8037201325558712,"Supreme Court, Ram Shah Path, Kathmandu, Kathmandu 00446, Nepal",27.69680365,85.32167994840998,Supreme Court,,Ram Shah Path,00446,Kathmandu-11,,Kathmandu,Kathmandu,Bagmati Province,Nepal,np,© OpenStreetMap contributors,Open Database License,https://www.openstreetmap.org/copyright
69132930,268,2019-12-21 09:20:48,27.695571666666662,85.32099833333334,7.15,2.278302295836055,"Ram Shah Path, Bansh Ghari, Kathmandu 00446, Nepal",27.695921,85.321048,Ram Shah Path,,Ram Shah Path,00446,Kathmandu-29,Bansh Ghari,Kathmandu,Kathmandu,Bagmati Province,Nepal,np,© OpenStreetMap contributors,Open Database License,https://www.openstreetmap.org/copyright
69133361,268,2019-12-21 09:21:14,27.694621666666663,85.32074833333333,11.34,0.2979558784842181,"Thapathali, Kathmandu 44617, Nepal",27.6948318,85.3207072,,,,44617,Kathmandu-11,Thapathali,Kathmandu,Kathmandu,Bagmati Province,Nepal,np,© OpenStreetMap contributors,Open Database License,https://www.openstreetmap.org/copyright
69133877,268,2019-12-21 09:21:44,27.693238333333333,85.322525,20.49,1.4651799620375605,"Kathmandu, Kathmandu 44617, Nepal",27.6922553,85.324616,,,,44617,Kathmandu-11,,Kathmandu,Kathmandu,Bagmati Province,Nepal,np,© OpenStreetMap contributors,Open Database License,https://www.openstreetmap.org/copyright
69134370,268,2019-12-21 09:22:14,27.69252,85.32360833333334,4.1,25.413677370506942,"Babarmahal, Kathmandu, Kathmandu 44617, Nepal",27.692462,85.323858,Babarmahal,,,44617,,,Kathmandu,Kathmandu,Three,Nepal,np,© OpenStreetMap contributors,Open Database License,https://www.openstreetmap.org/copyright
69134877,268,2019-12-21 09:22:44,27.69281833333333,85.32295666666667,4.43,2.444429153126395,"Ukti Marga, Kathmandu, Kathmandu 44617, Nepal",27.6922121,85.3241468,Ukti Marga,,Ukti Marga,44617,Kathmandu-11,,Kathmandu,Kathmandu,Bagmati Province,Nepal,np,© OpenStreetMap contributors,Open Database License,https://www.openstreetmap.org/copyright
69135366,268,2019-12-21 09:23:13,27.693211666666667,85.32215333333333,7.73,31.478597901772876,"उक्टी मार्गा, Kathmandu, Kathmandu 44617, Nepal",27.693049,85.322415,,,उक्टी मार्गा,44617,,,Kathmandu,Kathmandu,Three,Nepal,np,© OpenStreetMap contributors,Open Database License,https://www.openstreetmap.org/copyright
69135859,268,2019-12-21 09:23:43,27.69374333333333,85.321035,3.81,19.64237668493088,"Maitighar, Kathmandu, Kathmandu 44617, Nepal",27.693875,85.320902,Maitighar,,,44617,,,Kathmandu,Kathmandu,Three,Nepal,np,© OpenStreetMap contributors,Open Database License,https://www.openstreetmap.org/copyright
69136347,268,2019-12-21 09:24:13,27.69405,85.32036833333333,12.69,17.692546740771217,"Madan Bhandari Path, Kathmandu, Kathmandu 44617, Nepal",27.694053,85.320548,,,Madan Bhandari Path,44617,,,Kathmandu,Kathmandu,Three,Nepal,np,© OpenStreetMap contributors,Open Database License,https://www.openstreetmap.org/copyright
69136847,268,2019-12-21 09:24:43,27.69393833333333,85.319205,10.89,14.530814876172805,"Maitighar Bus Stop, Thapathali Road, Thapathali, Kathmandu 00779, Nepal",27.693971,85.3193479,Maitighar Bus Stop,,Thapathali Road,00779,Kathmandu-11,Thapathali,Kathmandu,Kathmandu,Bagmati Province,Nepal,np,© OpenStreetMap contributors,Open Database License,https://www.openstreetmap.org/copyright
69361952,268,2019-12-21 13:06:37,27.688115,85.33600333333334,13.59,50.58567613646663,"Provident Merchant Banking Limited प्रोभिडेन्ट मर्चेन्ट बैंकिङ्ग लिमिटेड, Sankhamul Marg 31, Kathmandu, Kathmandu 44617, Nepal",27.687949,85.335525,Provident Merchant Banking Limited प्रोभिडेन्ट मर्चेन्ट बैंकिङ्ग लिमिटेड,31,Sankhamul Marg,44617,,,Kathmandu,Kathmandu,Three,Nepal,np,© OpenStreetMap contributors,Open Database License,https://www.openstreetmap.org/copyright
69362436,268,2019-12-21 13:07:07,27.688131666666667,85.33588166666667,0.02,40.563876755159335,"Provident Merchant Banking Limited प्रोभिडेन्ट मर्चेन्ट बैंकिङ्ग लिमिटेड, Sankhamul Marg 31, Shankhamul, Kathmandu 44617, Nepal",27.6879494,85.3355248,Provident Merchant Banking Limited प्रोभिडेन्ट मर्चेन्ट बैंकिङ्ग लिमिटेड,31,Sankhamul Marg,44617,Kathmandu-10,Shankhamul,Kathmandu,Kathmandu,Bagmati Province,Nepal,np,© OpenStreetMap contributors,Open Database License,https://www.openstreetmap.org/copyright
69362933,268,2019-12-21 13:07:37,27.688266666666667,85.33532,10.98,40.63497423557323,"Provident Merchant Banking Limited प्रोभिडेन्ट मर्चेन्ट बैंकिङ्ग लिमिटेड, Sankhamul Marg 31, Shankhamul, Kathmandu 44617, Nepal",27.6879494,85.3355248,Provident Merchant Banking Limited प्रोभिडेन्ट मर्चेन्ट बैंकिङ्ग लिमिटेड,31,Sankhamul Marg,44617,Kathmandu-10,Shankhamul,Kathmandu,Kathmandu,Bagmati Province,Nepal,np,© OpenStreetMap contributors,Open Database License,https://www.openstreetmap.org/copyright
69363695,268,2019-12-21 13:08:20,27.68878,85.333115,20.83,77.48972611066633,"Let Me in, Madan Bhandari Path 10, Kathmandu, Kathmandu 44617, Nepal",27.689165,85.332459,Let Me in,10,Madan Bhandari Path,44617,,,Kathmandu,Kathmandu,Three,Nepal,np,© OpenStreetMap contributors,Open Database License,https://www.openstreetmap.org/copyright
69363959,268,2019-12-21 13:08:37,27.689511666666668,85.33022833333334,22.09,32.56109823694179,"Madan Bhandari Path, Kathmandu, Kathmandu 44617, Nepal",27.689591,85.32991,,,Madan Bhandari Path,44617,,,Kathmandu,Kathmandu,Three,Nepal,np,© OpenStreetMap contributors,Open Database License,https://www.openstreetmap.org/copyright
69364478,268,2019-12-21 13:09:06,27.690525,85.32797333333333,17.67,1.4134064680989917,"NH34, Kathmandu, Kathmandu 44617, Nepal",27.6905324,85.3279291,NH34,,NH34,44617,Kathmandu-11,,Kathmandu,Kathmandu,Bagmati Province,Nepal,np,© OpenStreetMap contributors,Open Database License,https://www.openstreetmap.org/copyright
69365029,268,2019-12-21 13:09:38,27.691855,85.32519666666667,21.73,3.2704451661912928,"Madan Bhandari Path, Kathmandu, Kathmandu 44617, Nepal",27.6916763,85.3255084,Madan Bhandari Path,,Madan Bhandari Path,44617,Kathmandu-11,,Kathmandu,Kathmandu,Bagmati Province,Nepal,np,© OpenStreetMap contributors,Open Database License,https://www.openstreetmap.org/copyright
69365489,268,2019-12-21 13:10:06,27.693001666666667,85.32285833333333,19.93,39.132704282560475,"Karki Banquet, Ukti Marga, Kathmandu, Kathmandu 44617, Nepal",27.692654,85.32292,Karki Banquet,,Ukti Marga,44617,,,Kathmandu,Kathmandu,Three,Nepal,np,© OpenStreetMap contributors,Open Database License,https://www.openstreetmap.org/copyright
69365981,268,2019-12-21 13:10:35,27.69408333333333,85.32056666666666,12.22,3.8411326505120855,"Madan Bhandari Path, Kathmandu, Kathmandu 44617, Nepal",27.694053,85.320548,,,Madan Bhandari Path,44617,,,Kathmandu,Kathmandu,Three,Nepal,np,© OpenStreetMap contributors,Open Database License,https://www.openstreetmap.org/copyright
69366479,268,2019-12-21 13:11:05,27.69523166666667,85.32004666666667,15.92,3.455600385661792,"Thapathali, Kathmandu 44617, Nepal",27.6963827,85.3194066,,,,44617,Kathmandu-11,Thapathali,Kathmandu,Kathmandu,Bagmati Province,Nepal,np,© OpenStreetMap contributors,Open Database License,https://www.openstreetmap.org/copyright
69366974,268,2019-12-21 13:11:35,27.69708,85.31904,13.25,1.7179840954849088,"Thapathali, Kathmandu 44066, Nepal",27.6978328,85.3182377,,,,44066,Kathmandu-11,Thapathali,Kathmandu,Kathmandu,Bagmati Province,Nepal,np,© OpenStreetMap contributors,Open Database License,https://www.openstreetmap.org/copyright
70434191,268,2019-12-22 06:34:46,27.69353333333333,85.318905,1.78,16.961655037409106,"Central Bureau of Statistics, Thapathali Road, Thapathali, Kathmandu 00779, Nepal",27.6934101,85.31823183225069,Central Bureau of Statistics,,Thapathali Road,00779,Kathmandu-11,Thapathali,Kathmandu,Kathmandu,Bagmati Province,Nepal,np,© OpenStreetMap contributors,Open Database License,https://www.openstreetmap.org/copyright
70434711,268,2019-12-22 06:35:16,27.693766666666665,85.31902833333334,1.66,13.39618916332297,"Sunita Chamena House, Thapathali Road, Thapathali, Kathmandu 00779, Nepal",27.693681,85.319124,Sunita Chamena House,,Thapathali Road,00779,Kathmandu-11,Thapathali,Kathmandu,Kathmandu,Bagmati Province,Nepal,np,© OpenStreetMap contributors,Open Database License,https://www.openstreetmap.org/copyright
70435240,268,2019-12-22 06:35:46,27.69410833333333,85.31930166666666,1.42,1.0577213678146211,"Thapathali, Kathmandu 44617, Nepal",27.6942618,85.3194402,,,,44617,Kathmandu-11,Thapathali,Kathmandu,Kathmandu,Bagmati Province,Nepal,np,© OpenStreetMap contributors,Open Database License,https://www.openstreetmap.org/copyright
70435768,268,2019-12-22 06:36:16,27.694381666666665,85.31959,2.06,0.6816549152198219,"Thapathali, Kathmandu 44617, Nepal",27.6942618,85.3194402,,,,44617,Kathmandu-11,Thapathali,Kathmandu,Kathmandu,Bagmati Province,Nepal,np,© OpenStreetMap contributors,Open Database License,https://www.openstreetmap.org/copyright
70436290,268,2019-12-22 06:36:46,27.694575,85.31993666666666,0.18,0.50043245219878,"Thapathali, Kathmandu 44617, Nepal",27.6944768,85.3197665,,,,44617,Kathmandu-11,Thapathali,Kathmandu,Kathmandu,Bagmati Province,Nepal,np,© OpenStreetMap contributors,Open Database License,https://www.openstreetmap.org/copyright
70436812,268,2019-12-22 06:37:15,27.69476833333333,85.32016333333334,7.15,4.159496044010139,"Thapathali, Kathmandu 44617, Nepal",27.6963827,85.3194066,,,,44617,Kathmandu-11,Thapathali,Kathmandu,Kathmandu,Bagmati Province,Nepal,np,© OpenStreetMap contributors,Open Database License,https://www.openstreetmap.org/copyright
70437326,268,2019-12-22 06:37:45,27.696836666666663,85.31918,3.81,0.4392277668156367,"Thapathali, Kathmandu 44066, Nepal",27.6967997,85.3191966,,,,44066,Kathmandu-11,Thapathali,Kathmandu,Kathmandu,Bagmati Province,Nepal,np,© OpenStreetMap contributors,Open Database License,https://www.openstreetmap.org/copyright
71905658,268,2019-12-23 06:04:06,27.694001666666665,85.31917333333334,4.41,4.895903215189617,"Thapathali Engineering Campus, Thapathali Road, Thapathali, Kathmandu 44617, Nepal",27.694567499999998,85.3189885018991,Thapathali Engineering Campus,,Thapathali Road,44617,Kathmandu-11,Thapathali,Kathmandu,Kathmandu,Bagmati Province,Nepal,np,© OpenStreetMap contributors,Open Database License,https://www.openstreetmap.org/copyright
71906181,268,2019-12-23 06:04:36,27.6944,85.31961166666666,1.89,1.2168294035208382,"Thapathali, Kathmandu 44617, Nepal",27.6942618,85.3194402,,,,44617,Kathmandu-11,Thapathali,Kathmandu,Kathmandu,Bagmati Province,Nepal,np,© OpenStreetMap contributors,Open Database License,https://www.openstreetmap.org/copyright
71906715,268,2019-12-23 06:05:06,27.69462833333333,85.32002833333334,2.91,0.8111059977157069,"Thapathali, Kathmandu 44617, Nepal",27.6944768,85.3197665,,,,44617,Kathmandu-11,Thapathali,Kathmandu,Kathmandu,Bagmati Province,Nepal,np,© OpenStreetMap contributors,Open Database License,https://www.openstreetmap.org/copyright
71907245,268,2019-12-23 06:05:36,27.69493333333333,85.32058833333333,0.04,0.607355901230286,"Thapathali, Kathmandu 44617, Nepal",27.6950287,85.320728,,,,44617,Kathmandu-11,Thapathali,Kathmandu,Kathmandu,Bagmati Province,Nepal,np,© OpenStreetMap contributors,Open Database License,https://www.openstreetmap.org/copyright
71907781,268,2019-12-23 06:06:06,27.69509,85.32100666666666,6.26,2.362712354587853,"Singh Durbar, Saras Marg, Ghattekulo, Kathmandu 00446, Nepal",27.696478149999997,85.32461913495442,Singh Durbar,,Saras Marg,00446,Kathmandu-29,Ghattekulo,Kathmandu,Kathmandu,Bagmati Province,Nepal,np,© OpenStreetMap contributors,Open Database License,https://www.openstreetmap.org/copyright
71908346,268,2019-12-23 06:06:35,27.694716666666668,85.32283833333334,13.26,0.057268624696703296,"Singh Durbar, Saras Marg, Ghattekulo, Kathmandu 00446, Nepal",27.696478149999997,85.32461913495442,Singh Durbar,,Saras Marg,00446,Kathmandu-29,Ghattekulo,Kathmandu,Kathmandu,Bagmati Province,Nepal,np,© OpenStreetMap contributors,Open Database License,https://www.openstreetmap.org/copyright
71908885,268,2019-12-23 06:07:06,27.694381666666665,85.324595,7.36,0,"Singh Durbar, Saras Marg, Ghattekulo, Kathmandu 00446, Nepal",27.69710745,85.32518686702733,Singh Durbar,,Saras Marg,00446,Kathmandu-29,Ghattekulo,Kathmandu,Kathmandu,Bagmati Province,Nepal,np,© OpenStreetMap contributors,Open Database License,https://www.openstreetmap.org/copyright
71909904,268,2019-12-23 06:08:03,27.69423833333333,85.325385,9.55,0,"Singh Durbar, Saras Marg, Ghattekulo, Kathmandu 00446, Nepal",27.696478149999997,85.32461913495442,Singh Durbar,,Saras Marg,00446,Kathmandu-29,Ghattekulo,Kathmandu,Kathmandu,Bagmati Province,Nepal,np,© OpenStreetMap contributors,Open Database License,https://www.openstreetmap.org/copyright
71909944,268,2019-12-23 06:08:05,27.694145,85.32587333333333,4.35,0,"Singh Durbar, Saras Marg, Ghattekulo, Kathmandu 00446, Nepal",27.69710745,85.32518686702733,Singh Durbar,,Saras Marg,00446,Kathmandu-29,Ghattekulo,Kathmandu,Kathmandu,Bagmati Province,Nepal,np,© OpenStreetMap contributors,Open Database License,https://www.openstreetmap.org/copyright
71910480,268,2019-12-23 06:08:35,27.695085,85.32612666666667,1.65,0,"Singh Durbar, Saras Marg, Ghattekulo, Kathmandu 00446, Nepal",27.69710745,85.32518686702733,Singh Durbar,,Saras Marg,00446,Kathmandu-29,Ghattekulo,Kathmandu,Kathmandu,Bagmati Province,Nepal,np,© OpenStreetMap contributors,Open Database License,https://www.openstreetmap.org/copyright
71911006,268,2019-12-23 06:09:04,27.69575,85.32640166666667,3.02,0,"Singh Durbar, Saras Marg, Ghattekulo, Kathmandu 00446, Nepal",27.69710745,85.32518686702733,Singh Durbar,,Saras Marg,00446,Kathmandu-29,Ghattekulo,Kathmandu,Kathmandu,Bagmati Province,Nepal,np,© OpenStreetMap contributors,Open Database License,https://www.openstreetmap.org/copyright
71911530,268,2019-12-23 06:09:34,27.69567333333333,85.326995,0.75,0,"Singh Durbar, Saras Marg, Ghattekulo, Kathmandu 00446, Nepal",27.69710745,85.32518686702733,Singh Durbar,,Saras Marg,00446,Kathmandu-29,Ghattekulo,Kathmandu,Kathmandu,Bagmati Province,Nepal,np,© OpenStreetMap contributors,Open Database License,https://www.openstreetmap.org/copyright
71912059,268,2019-12-23 06:10:04,27.69557333333333,85.32703,0.07,0,"Singh Durbar, Saras Marg, Ghattekulo, Kathmandu 00446, Nepal",27.69710745,85.32518686702733,Singh Durbar,,Saras Marg,00446,Kathmandu-29,Ghattekulo,Kathmandu,Kathmandu,Bagmati Province,Nepal,np,© OpenStreetMap contributors,Open Database License,https://www.openstreetmap.org/copyright
71912594,268,2019-12-23 06:10:34,27.695571666666662,85.32702666666667,0.13,0,"Singh Durbar, Saras Marg, Ghattekulo, Kathmandu 00446, Nepal",27.69710745,85.32518686702733,Singh Durbar,,Saras Marg,00446,Kathmandu-29,Ghattekulo,Kathmandu,Kathmandu,Bagmati Province,Nepal,np,© OpenStreetMap contributors,Open Database License,https://www.openstreetmap.org/copyright
71913119,268,2019-12-23 06:11:03,27.69554833333333,85.32701,0.04,0,"Singh Durbar, Saras Marg, Ghattekulo, Kathmandu 00446, Nepal",27.69710745,85.32518686702733,Singh Durbar,,Saras Marg,00446,Kathmandu-29,Ghattekulo,Kathmandu,Kathmandu,Bagmati Province,Nepal,np,© OpenStreetMap contributors,Open Database License,https://www.openstreetmap.org/copyright
71913659,268,2019-12-23 06:11:33,27.69553833333333,85.327025,0.01,0,"Singh Durbar, Saras Marg, Ghattekulo, Kathmandu 00446, Nepal",27.69710745,85.32518686702733,Singh Durbar,,Saras Marg,00446,Kathmandu-29,Ghattekulo,Kathmandu,Kathmandu,Bagmati Province,Nepal,np,© OpenStreetMap contributors,Open Database License,https://www.openstreetmap.org/copyright
71914218,268,2019-12-23 06:12:03,27.695545,85.32704,0.04,0,"Singh Durbar, Saras Marg, Ghattekulo, Kathmandu 00446, Nepal",27.69710745,85.32518686702733,Singh Durbar,,Saras Marg,00446,Kathmandu-29,Ghattekulo,Kathmandu,Kathmandu,Bagmati Province,Nepal,np,© OpenStreetMap contributors,Open Database License,https://www.openstreetmap.org/copyright
71914743,268,2019-12-23 06:12:33,27.69556,85.327075,0.0,0,"Singh Durbar, Saras Marg, Ghattekulo, Kathmandu 00446, Nepal",27.69710745,85.32518686702733,Singh Durbar,,Saras Marg,00446,Kathmandu-29,Ghattekulo,Kathmandu,Kathmandu,Bagmati Province,Nepal,np,© OpenStreetMap contributors,Open Database License,https://www.openstreetmap.org/copyright
71915262,268,2019-12-23 06:13:03,27.69557333333333,85.32708166666667,0.03,0,"Singh Durbar, Saras Marg, Ghattekulo, Kathmandu 00446, Nepal",27.69710745,85.32518686702733,Singh Durbar,,Saras Marg,00446,Kathmandu-29,Ghattekulo,Kathmandu,Kathmandu,Bagmati Province,Nepal,np,© OpenStreetMap contributors,Open Database License,https://www.openstreetmap.org/copyright
71915788,268,2019-12-23 06:13:32,27.695575,85.327085,0.0,0,"Singh Durbar, Saras Marg, Ghattekulo, Kathmandu 00446, Nepal",27.69710745,85.32518686702733,Singh Durbar,,Saras Marg,00446,Kathmandu-29,Ghattekulo,Kathmandu,Kathmandu,Bagmati Province,Nepal,np,© OpenStreetMap contributors,Open Database License,https://www.openstreetmap.org/copyright
71916307,268,2019-12-23 06:14:02,27.69555833333333,85.32708166666667,0.05,0,"Singh Durbar, Saras Marg, Ghattekulo, Kathmandu 00446, Nepal",27.69710745,85.32518686702733,Singh Durbar,,Saras Marg,00446,Kathmandu-29,Ghattekulo,Kathmandu,Kathmandu,Bagmati Province,Nepal,np,© OpenStreetMap contributors,Open Database License,https://www.openstreetmap.org/copyright
71916826,268,2019-12-23 06:14:32,27.695576666666668,85.32708666666667,0.02,0,"Singh Durbar, Saras Marg, Ghattekulo, Kathmandu 00446, Nepal",27.69710745,85.32518686702733,Singh Durbar,,Saras Marg,00446,Kathmandu-29,Ghattekulo,Kathmandu,Kathmandu,Bagmati Province,Nepal,np,© OpenStreetMap contributors,Open Database License,https://www.openstreetmap.org/copyright
71917343,268,2019-12-23 06:15:02,27.695586666666667,85.32707166666667,0.02,0,"Singh Durbar, Saras Marg, Ghattekulo, Kathmandu 00446, Nepal",27.69710745,85.32518686702733,Singh Durbar,,Saras Marg,00446,Kathmandu-29,Ghattekulo,Kathmandu,Kathmandu,Bagmati Province,Nepal,np,© OpenStreetMap contributors,Open Database License,https://www.openstreetmap.org/copyright
71917859,268,2019-12-23 06:15:31,27.695591666666665,85.32708833333334,0.09,0,"Singh Durbar, Saras Marg, Ghattekulo, Kathmandu 00446, Nepal",27.69710745,85.32518686702733,Singh Durbar,,Saras Marg,00446,Kathmandu-29,Ghattekulo,Kathmandu,Kathmandu,Bagmati Province,Nepal,np,© OpenStreetMap contributors,Open Database License,https://www.openstreetmap.org/copyright
71918376,268,2019-12-23 06:16:01,27.69558,85.32709166666666,0.06,0,"Singh Durbar, Saras Marg, Ghattekulo, Kathmandu 00446, Nepal",27.69710745,85.32518686702733,Singh Durbar,,Saras Marg,00446,Kathmandu-29,Ghattekulo,Kathmandu,Kathmandu,Bagmati Province,Nepal,np,© OpenStreetMap contributors,Open Database License,https://www.openstreetmap.org/copyright
71918937,268,2019-12-23 06:16:31,27.695555,85.32706166666667,0.02,0,"Singh Durbar, Saras Marg, Ghattekulo, Kathmandu 00446, Nepal",27.69710745,85.32518686702733,Singh Durbar,,Saras Marg,00446,Kathmandu-29,Ghattekulo,Kathmandu,Kathmandu,Bagmati Province,Nepal,np,© OpenStreetMap contributors,Open Database License,https://www.openstreetmap.org/copyright
71919486,268,2019-12-23 06:17:01,27.695551666666667,85.32705333333334,0.07,0,"Singh Durbar, Saras Marg, Ghattekulo, Kathmandu 00446, Nepal",27.69710745,85.32518686702733,Singh Durbar,,Saras Marg,00446,Kathmandu-29,Ghattekulo,Kathmandu,Kathmandu,Bagmati Province,Nepal,np,© OpenStreetMap contributors,Open Database License,https://www.openstreetmap.org/copyright
71920004,268,2019-12-23 06:17:31,27.69555,85.32705666666666,0.01,0,"Singh Durbar, Saras Marg, Ghattekulo, Kathmandu 00446, Nepal",27.69710745,85.32518686702733,Singh Durbar,,Saras Marg,00446,Kathmandu-29,Ghattekulo,Kathmandu,Kathmandu,Bagmati Province,Nepal,np,© OpenStreetMap contributors,Open Database License,https://www.openstreetmap.org/copyright
71920559,268,2019-12-23 06:18:00,27.695561666666663,85.32707166666667,0.08,0,"Singh Durbar, Saras Marg, Ghattekulo, Kathmandu 00446, Nepal",27.69710745,85.32518686702733,Singh Durbar,,Saras Marg,00446,Kathmandu-29,Ghattekulo,Kathmandu,Kathmandu,Bagmati Province,Nepal,np,© OpenStreetMap contributors,Open Database License,https://www.openstreetmap.org/copyright
71921101,268,2019-12-23 06:18:30,27.69556,85.32707166666667,0.01,0,"Singh Durbar, Saras Marg, Ghattekulo, Kathmandu 00446, Nepal",27.69710745,85.32518686702733,Singh Durbar,,Saras Marg,00446,Kathmandu-29,Ghattekulo,Kathmandu,Kathmandu,Bagmati Province,Nepal,np,© OpenStreetMap contributors,Open Database License,https://www.openstreetmap.org/copyright
71921642,268,2019-12-23 06:19:00,27.69556,85.32708166666667,0.02,0,"Singh Durbar, Saras Marg, Ghattekulo, Kathmandu 00446, Nepal",27.69710745,85.32518686702733,Singh Durbar,,Saras Marg,00446,Kathmandu-29,Ghattekulo,Kathmandu,Kathmandu,Bagmati Province,Nepal,np,© OpenStreetMap contributors,Open Database License,https://www.openstreetmap.org/copyright
71922161,268,2019-12-23 06:19:30,27.69557,85.32709166666666,0.02,0,"Singh Durbar, Saras Marg, Ghattekulo, Kathmandu 00446, Nepal",27.69710745,85.32518686702733,Singh Durbar,,Saras Marg,00446,Kathmandu-29,Ghattekulo,Kathmandu,Kathmandu,Bagmati Province,Nepal,np,© OpenStreetMap contributors,Open Database License,https://www.openstreetmap.org/copyright
71922684,268,2019-12-23 06:19:59,27.69556333333333,85.32708833333334,0.02,0,"Singh Durbar, Saras Marg, Ghattekulo, Kathmandu 00446, Nepal",27.69710745,85.32518686702733,Singh Durbar,,Saras Marg,00446,Kathmandu-29,Ghattekulo,Kathmandu,Kathmandu,Bagmati Province,Nepal,np,© OpenStreetMap contributors,Open Database License,https://www.openstreetmap.org/copyright
71923207,268,2019-12-23 06:20:29,27.695551666666667,85.32705666666666,0.01,0,"Singh Durbar, Saras Marg, Ghattekulo, Kathmandu 00446, Nepal",27.69710745,85.32518686702733,Singh Durbar,,Saras Marg,00446,Kathmandu-29,Ghattekulo,Kathmandu,Kathmandu,Bagmati Province,Nepal,np,© OpenStreetMap contributors,Open Database License,https://www.openstreetmap.org/copyright
71923745,268,2019-12-23 06:20:59,27.695553333333333,85.32703166666667,0.05,0,"Singh Durbar, Saras Marg, Ghattekulo, Kathmandu 00446, Nepal",27.69710745,85.32518686702733,Singh Durbar,,Saras Marg,00446,Kathmandu-29,Ghattekulo,Kathmandu,Kathmandu,Bagmati Province,Nepal,np,© OpenStreetMap contributors,Open Database License,https://www.openstreetmap.org/copyright
71924273,268,2019-12-23 06:21:29,27.695566666666668,85.32704,0.0,0,"Singh Durbar, Saras Marg, Ghattekulo, Kathmandu 00446, Nepal",27.69710745,85.32518686702733,Singh Durbar,,Saras Marg,00446,Kathmandu-29,Ghattekulo,Kathmandu,Kathmandu,Bagmati Province,Nepal,np,© OpenStreetMap contributors,Open Database License,https://www.openstreetmap.org/copyright
71924799,268,2019-12-23 06:21:59,27.695566666666668,85.327055,0.02,0,"Singh Durbar, Saras Marg, Ghattekulo, Kathmandu 00446, Nepal",27.69710745,85.32518686702733,Singh Durbar,,Saras Marg,00446,Kathmandu-29,Ghattekulo,Kathmandu,Kathmandu,Bagmati Province,Nepal,np,© OpenStreetMap contributors,Open Database License,https://www.openstreetmap.org/copyright
71925352,268,2019-12-23 06:22:28,27.695576666666668,85.32706333333333,0.05,0,"Singh Durbar, Saras Marg, Ghattekulo, Kathmandu 00446, Nepal",27.69710745,85.32518686702733,Singh Durbar,,Saras Marg,00446,Kathmandu-29,Ghattekulo,Kathmandu,Kathmandu,Bagmati Province,Nepal,np,© OpenStreetMap contributors,Open Database License,https://www.openstreetmap.org/copyright
71925873,268,2019-12-23 06:22:58,27.695575,85.32706166666667,0.06,0,"Singh Durbar, Saras Marg, Ghattekulo, Kathmandu 00446, Nepal",27.69710745,85.32518686702733,Singh Durbar,,Saras Marg,00446,Kathmandu-29,Ghattekulo,Kathmandu,Kathmandu,Bagmati Province,Nepal,np,© OpenStreetMap contributors,Open Database License,https://www.openstreetmap.org/copyright
71926405,268,2019-12-23 06:23:28,27.69558,85.327065,0.02,0,"Singh Durbar, Saras Marg, Ghattekulo, Kathmandu 00446, Nepal",27.69710745,85.32518686702733,Singh Durbar,,Saras Marg,00446,Kathmandu-29,Ghattekulo,Kathmandu,Kathmandu,Bagmati Province,Nepal,np,© OpenStreetMap contributors,Open Database License,https://www.openstreetmap.org/copyright
71926965,268,2019-12-23 06:23:58,27.69557,85.32706833333333,0.02,0,"Singh Durbar, Saras Marg, Ghattekulo, Kathmandu 00446, Nepal",27.69710745,85.32518686702733,Singh Durbar,,Saras Marg,00446,Kathmandu-29,Ghattekulo,Kathmandu,Kathmandu,Bagmati Province,Nepal,np,© OpenStreetMap contributors,Open Database License,https://www.openstreetmap.org/copyright
71927519,268,2019-12-23 06:24:28,27.69556833333333,85.32705333333334,0.04,0,"Singh Durbar, Saras Marg, Ghattekulo, Kathmandu 00446, Nepal",27.69710745,85.32518686702733,Singh Durbar,,Saras Marg,00446,Kathmandu-29,Ghattekulo,Kathmandu,Kathmandu,Bagmati Province,Nepal,np,© OpenStreetMap contributors,Open Database License,https://www.openstreetmap.org/copyright
71928081,268,2019-12-23 06:24:57,27.695571666666662,85.32703666666667,0.04,0,"Singh Durbar, Saras Marg, Ghattekulo, Kathmandu 00446, Nepal",27.69710745,85.32518686702733,Singh Durbar,,Saras Marg,00446,Kathmandu-29,Ghattekulo,Kathmandu,Kathmandu,Bagmati Province,Nepal,np,© OpenStreetMap contributors,Open Database License,https://www.openstreetmap.org/copyright
71928639,268,2019-12-23 06:25:27,27.695581666666666,85.32703666666667,0.06,0,"Singh Durbar, Saras Marg, Ghattekulo, Kathmandu 00446, Nepal",27.69710745,85.32518686702733,Singh Durbar,,Saras Marg,00446,Kathmandu-29,Ghattekulo,Kathmandu,Kathmandu,Bagmati Province,Nepal,np,© OpenStreetMap contributors,Open Database License,https://www.openstreetmap.org/copyright
71929163,268,2019-12-23 06:25:57,27.69558333333333,85.32704666666666,0.0,0,"Singh Durbar, Saras Marg, Ghattekulo, Kathmandu 00446, Nepal",27.69710745,85.32518686702733,Singh Durbar,,Saras Marg,00446,Kathmandu-29,Ghattekulo,Kathmandu,Kathmandu,Bagmati Province,Nepal,np,© OpenStreetMap contributors,Open Database License,https://www.openstreetmap.org/copyright
71929800,268,2019-12-23 06:26:34,27.69561,85.32705666666666,0.01,0,"Singh Durbar, Saras Marg, Ghattekulo, Kathmandu 00446, Nepal",27.69710745,85.32518686702733,Singh Durbar,,Saras Marg,00446,Kathmandu-29,Ghattekulo,Kathmandu,Kathmandu,Bagmati Province,Nepal,np,© OpenStreetMap contributors,Open Database License,https://www.openstreetmap.org/copyright
71930272,268,2019-12-23 06:27:00,27.69561333333333,85.32704666666666,0.03,0,"Singh Durbar, Saras Marg, Ghattekulo, Kathmandu 00446, Nepal",27.69710745,85.32518686702733,Singh Durbar,,Saras Marg,00446,Kathmandu-29,Ghattekulo,Kathmandu,Kathmandu,Bagmati Province,Nepal,np,© OpenStreetMap contributors,Open Database License,https://www.openstreetmap.org/copyright
71930739,268,2019-12-23 06:27:27,27.695625,85.327055,0.05,0,"Singh Durbar, Saras Marg, Ghattekulo, Kathmandu 00446, Nepal",27.69710745,85.32518686702733,Singh Durbar,,Saras Marg,00446,Kathmandu-29,Ghattekulo,Kathmandu,Kathmandu,Bagmati Province,Nepal,np,© OpenStreetMap contributors,Open Database License,https://www.openstreetmap.org/copyright
71931274,268,2019-12-23 06:27:56,27.69562,85.32703166666667,0.02,0,"Singh Durbar, Saras Marg, Ghattekulo, Kathmandu 00446, Nepal",27.69710745,85.32518686702733,Singh Durbar,,Saras Marg,00446,Kathmandu-29,Ghattekulo,Kathmandu,Kathmandu,Bagmati Province,Nepal,np,© OpenStreetMap contributors,Open Database License,https://www.openstreetmap.org/copyright
71931801,268,2019-12-23 06:28:26,27.69560833333333,85.32703666666667,0.02,0,"Singh Durbar, Saras Marg, Ghattekulo, Kathmandu 00446, Nepal",27.69710745,85.32518686702733,Singh Durbar,,Saras Marg,00446,Kathmandu-29,Ghattekulo,Kathmandu,Kathmandu,Bagmati Province,Nepal,np,© OpenStreetMap contributors,Open Database License,https://www.openstreetmap.org/copyright
71932350,268,2019-12-23 06:28:56,27.695586666666667,85.32702166666667,0.04,0,"Singh Durbar, Saras Marg, Ghattekulo, Kathmandu 00446, Nepal",27.69710745,85.32518686702733,Singh Durbar,,Saras Marg,00446,Kathmandu-29,Ghattekulo,Kathmandu,Kathmandu,Bagmati Province,Nepal,np,© OpenStreetMap contributors,Open Database License,https://www.openstreetmap.org/copyright
71932872,268,2019-12-23 06:29:26,27.695588333333333,85.327005,0.01,0,"Singh Durbar, Saras Marg, Ghattekulo, Kathmandu 00446, Nepal",27.69710745,85.32518686702733,Singh Durbar,,Saras Marg,00446,Kathmandu-29,Ghattekulo,Kathmandu,Kathmandu,Bagmati Province,Nepal,np,© OpenStreetMap contributors,Open Database License,https://www.openstreetmap.org/copyright
71933388,268,2019-12-23 06:29:55,27.695636666666665,85.32696833333333,1.52,0,"Singh Durbar, Saras Marg, Ghattekulo, Kathmandu 00446, Nepal",27.69710745,85.32518686702733,Singh Durbar,,Saras Marg,00446,Kathmandu-29,Ghattekulo,Kathmandu,Kathmandu,Bagmati Province,Nepal,np,© OpenStreetMap contributors,Open Database License,https://www.openstreetmap.org/copyright
71933919,268,2019-12-23 06:30:25,27.695566666666668,85.32702833333333,0.55,0,"Singh Durbar, Saras Marg, Ghattekulo, Kathmandu 00446, Nepal",27.69710745,85.32518686702733,Singh Durbar,,Saras Marg,00446,Kathmandu-29,Ghattekulo,Kathmandu,Kathmandu,Bagmati Province,Nepal,np,© OpenStreetMap contributors,Open Database License,https://www.openstreetmap.org/copyright
71934441,268,2019-12-23 06:30:55,27.695566666666668,85.32702666666667,0.03,0,"Singh Durbar, Saras Marg, Ghattekulo, Kathmandu 00446, Nepal",27.69710745,85.32518686702733,Singh Durbar,,Saras Marg,00446,Kathmandu-29,Ghattekulo,Kathmandu,Kathmandu,Bagmati Province,Nepal,np,© OpenStreetMap contributors,Open Database License,https://www.openstreetmap.org/copyright
71934985,268,2019-12-23 06:31:25,27.695566666666668,85.32706166666667,0.06,0,"Singh Durbar, Saras Marg, Ghattekulo, Kathmandu 00446, Nepal",27.69710745,85.32518686702733,Singh Durbar,,Saras Marg,00446,Kathmandu-29,Ghattekulo,Kathmandu,Kathmandu,Bagmati Province,Nepal,np,© OpenStreetMap contributors,Open Database License,https://www.openstreetmap.org/copyright
71935507,268,2019-12-23 06:31:54,27.695561666666663,85.32708666666667,0.04,0,"Singh Durbar, Saras Marg, Ghattekulo, Kathmandu 00446, Nepal",27.69710745,85.32518686702733,Singh Durbar,,Saras Marg,00446,Kathmandu-29,Ghattekulo,Kathmandu,Kathmandu,Bagmati Province,Nepal,np,© OpenStreetMap contributors,Open Database License,https://www.openstreetmap.org/copyright
71936035,268,2019-12-23 06:32:24,27.69555,85.32707666666667,0.02,0,"Singh Durbar, Saras Marg, Ghattekulo, Kathmandu 00446, Nepal",27.69710745,85.32518686702733,Singh Durbar,,Saras Marg,00446,Kathmandu-29,Ghattekulo,Kathmandu,Kathmandu,Bagmati Province,Nepal,np,© OpenStreetMap contributors,Open Database License,https://www.openstreetmap.org/copyright
71936617,268,2019-12-23 06:32:54,27.695533333333334,85.327045,0.01,0,"Singh Durbar, Saras Marg, Ghattekulo, Kathmandu 00446, Nepal",27.69710745,85.32518686702733,Singh Durbar,,Saras Marg,00446,Kathmandu-29,Ghattekulo,Kathmandu,Kathmandu,Bagmati Province,Nepal,np,© OpenStreetMap contributors,Open Database License,https://www.openstreetmap.org/copyright
71937280,268,2019-12-23 06:33:24,27.695535,85.32702166666667,0.08,0,"Singh Durbar, Saras Marg, Ghattekulo, Kathmandu 00446, Nepal",27.69710745,85.32518686702733,Singh Durbar,,Saras Marg,00446,Kathmandu-29,Ghattekulo,Kathmandu,Kathmandu,Bagmati Province,Nepal,np,© OpenStreetMap contributors,Open Database License,https://www.openstreetmap.org/copyright
71937951,268,2019-12-23 06:33:54,27.695536666666666,85.32701833333333,0.04,0,"Singh Durbar, Saras Marg, Ghattekulo, Kathmandu 00446, Nepal",27.69710745,85.32518686702733,Singh Durbar,,Saras Marg,00446,Kathmandu-29,Ghattekulo,Kathmandu,Kathmandu,Bagmati Province,Nepal,np,© OpenStreetMap contributors,Open Database License,https://www.openstreetmap.org/copyright
71938608,268,2019-12-23 06:34:23,27.695535,85.32702,0.03,0,"Singh Durbar, Saras Marg, Ghattekulo, Kathmandu 00446, Nepal",27.69710745,85.32518686702733,Singh Durbar,,Saras Marg,00446,Kathmandu-29,Ghattekulo,Kathmandu,Kathmandu,Bagmati Province,Nepal,np,© OpenStreetMap contributors,Open Database License,https://www.openstreetmap.org/copyright
71939245,268,2019-12-23 06:34:53,27.69551833333333,85.32701833333333,0.08,0,"Singh Durbar, Saras Marg, Ghattekulo, Kathmandu 00446, Nepal",27.69710745,85.32518686702733,Singh Durbar,,Saras Marg,00446,Kathmandu-29,Ghattekulo,Kathmandu,Kathmandu,Bagmati Province,Nepal,np,© OpenStreetMap contributors,Open Database License,https://www.openstreetmap.org/copyright
71939892,268,2019-12-23 06:35:23,27.69552,85.32700833333334,0.08,0,"Singh Durbar, Saras Marg, Ghattekulo, Kathmandu 00446, Nepal",27.69710745,85.32518686702733,Singh Durbar,,Saras Marg,00446,Kathmandu-29,Ghattekulo,Kathmandu,Kathmandu,Bagmati Province,Nepal,np,© OpenStreetMap contributors,Open Database License,https://www.openstreetmap.org/copyright
71940544,268,2019-12-23 06:35:53,27.69552333333333,85.327015,0.05,0,"Singh Durbar, Saras Marg, Ghattekulo, Kathmandu 00446, Nepal",27.69710745,85.32518686702733,Singh Durbar,,Saras Marg,00446,Kathmandu-29,Ghattekulo,Kathmandu,Kathmandu,Bagmati Province,Nepal,np,© OpenStreetMap contributors,Open Database License,https://www.openstreetmap.org/copyright
71941209,268,2019-12-23 06:36:22,27.69552333333333,85.32705833333333,0.13,0,"Singh Durbar, Saras Marg, Ghattekulo, Kathmandu 00446, Nepal",27.69710745,85.32518686702733,Singh Durbar,,Saras Marg,00446,Kathmandu-29,Ghattekulo,Kathmandu,Kathmandu,Bagmati Province,Nepal,np,© OpenStreetMap contributors,Open Database License,https://www.openstreetmap.org/copyright
71941841,268,2019-12-23 06:36:52,27.69554,85.32707,0.02,0,"Singh Durbar, Saras Marg, Ghattekulo, Kathmandu 00446, Nepal",27.69710745,85.32518686702733,Singh Durbar,,Saras Marg,00446,Kathmandu-29,Ghattekulo,Kathmandu,Kathmandu,Bagmati Province,Nepal,np,© OpenStreetMap contributors,Open Database License,https://www.openstreetmap.org/copyright
71942477,268,2019-12-23 06:37:22,27.695533333333334,85.32705166666666,0.02,0,"Singh Durbar, Saras Marg, Ghattekulo, Kathmandu 00446, Nepal",27.69710745,85.32518686702733,Singh Durbar,,Saras Marg,00446,Kathmandu-29,Ghattekulo,Kathmandu,Kathmandu,Bagmati Province,Nepal,np,© OpenStreetMap contributors,Open Database License,https://www.openstreetmap.org/copyright
71943119,268,2019-12-23 06:37:52,27.695536666666666,85.327035,0.07,0,"Singh Durbar, Saras Marg, Ghattekulo, Kathmandu 00446, Nepal",27.69710745,85.32518686702733,Singh Durbar,,Saras Marg,00446,Kathmandu-29,Ghattekulo,Kathmandu,Kathmandu,Bagmati Province,Nepal,np,© OpenStreetMap contributors,Open Database License,https://www.openstreetmap.org/copyright
71943775,268,2019-12-23 06:38:22,27.695546666666665,85.32703333333333,0.15,0,"Singh Durbar, Saras Marg, Ghattekulo, Kathmandu 00446, Nepal",27.69710745,85.32518686702733,Singh Durbar,,Saras Marg,00446,Kathmandu-29,Ghattekulo,Kathmandu,Kathmandu,Bagmati Province,Nepal,np,© OpenStreetMap contributors,Open Database License,https://www.openstreetmap.org/copyright
71944399,268,2019-12-23 06:38:51,27.695541666666667,85.32703166666667,0.07,0,"Singh Durbar, Saras Marg, Ghattekulo, Kathmandu 00446, Nepal",27.69710745,85.32518686702733,Singh Durbar,,Saras Marg,00446,Kathmandu-29,Ghattekulo,Kathmandu,Kathmandu,Bagmati Province,Nepal,np,© OpenStreetMap contributors,Open Database License,https://www.openstreetmap.org/copyright
71945048,268,2019-12-23 06:39:21,27.69554833333333,85.32703666666667,0.1,0,"Singh Durbar, Saras Marg, Ghattekulo, Kathmandu 00446, Nepal",27.69710745,85.32518686702733,Singh Durbar,,Saras Marg,00446,Kathmandu-29,Ghattekulo,Kathmandu,Kathmandu,Bagmati Province,Nepal,np,© OpenStreetMap contributors,Open Database License,https://www.openstreetmap.org/copyright
71945771,268,2019-12-23 06:39:55,27.695533333333334,85.32701333333333,0.01,0,"Singh Durbar, Saras Marg, Ghattekulo, Kathmandu 00446, Nepal",27.69710745,85.32518686702733,Singh Durbar,,Saras Marg,00446,Kathmandu-29,Ghattekulo,Kathmandu,Kathmandu,Bagmati Province,Nepal,np,© OpenStreetMap contributors,Open Database License,https://www.openstreetmap.org/copyright
71946322,268,2019-12-23 06:40:21,27.695543333333333,85.32701166666666,0.02,0,"Singh Durbar, Saras Marg, Ghattekulo, Kathmandu 00446, Nepal",27.69710745,85.32518686702733,Singh Durbar,,Saras Marg,00446,Kathmandu-29,Ghattekulo,Kathmandu,Kathmandu,Bagmati Province,Nepal,np,© OpenStreetMap contributors,Open Database License,https://www.openstreetmap.org/copyright
71946971,268,2019-12-23 06:40:51,27.695526666666662,85.32701,0.04,0,"Singh Durbar, Saras Marg, Ghattekulo, Kathmandu 00446, Nepal",27.69710745,85.32518686702733,Singh Durbar,,Saras Marg,00446,Kathmandu-29,Ghattekulo,Kathmandu,Kathmandu,Bagmati Province,Nepal,np,© OpenStreetMap contributors,Open Database License,https://www.openstreetmap.org/copyright
71947593,268,2019-12-23 06:41:20,27.69551333333333,85.327025,0.0,0,"Singh Durbar, Saras Marg, Ghattekulo, Kathmandu 00446, Nepal",27.69710745,85.32518686702733,Singh Durbar,,Saras Marg,00446,Kathmandu-29,Ghattekulo,Kathmandu,Kathmandu,Bagmati Province,Nepal,np,© OpenStreetMap contributors,Open Database License,https://www.openstreetmap.org/copyright
71948210,268,2019-12-23 06:41:50,27.695526666666662,85.327025,0.05,0,"Singh Durbar, Saras Marg, Ghattekulo, Kathmandu 00446, Nepal",27.69710745,85.32518686702733,Singh Durbar,,Saras Marg,00446,Kathmandu-29,Ghattekulo,Kathmandu,Kathmandu,Bagmati Province,Nepal,np,© OpenStreetMap contributors,Open Database License,https://www.openstreetmap.org/copyright
71948835,268,2019-12-23 06:42:20,27.69552833333333,85.32702166666667,0.03,0,"Singh Durbar, Saras Marg, Ghattekulo, Kathmandu 00446, Nepal",27.69710745,85.32518686702733,Singh Durbar,,Saras Marg,00446,Kathmandu-29,Ghattekulo,Kathmandu,Kathmandu,Bagmati Province,Nepal,np,© OpenStreetMap contributors,Open Database License,https://www.openstreetmap.org/copyright
71949484,268,2019-12-23 06:42:50,27.695531666666668,85.32702333333333,0.08,0,"Singh Durbar, Saras Marg, Ghattekulo, Kathmandu 00446, Nepal",27.69710745,85.32518686702733,Singh Durbar,,Saras Marg,00446,Kathmandu-29,Ghattekulo,Kathmandu,Kathmandu,Bagmati Province,Nepal,np,© OpenStreetMap contributors,Open Database License,https://www.openstreetmap.org/copyright
71950149,268,2019-12-23 06:43:19,27.695536666666666,85.32703166666667,0.03,0,"Singh Durbar, Saras Marg, Ghattekulo, Kathmandu 00446, Nepal",27.69710745,85.32518686702733,Singh Durbar,,Saras Marg,00446,Kathmandu-29,Ghattekulo,Kathmandu,Kathmandu,Bagmati Province,Nepal,np,© OpenStreetMap contributors,Open Database License,https://www.openstreetmap.org/copyright
71950796,268,2019-12-23 06:43:49,27.695535,85.32703833333333,0.08,0,"Singh Durbar, Saras Marg, Ghattekulo, Kathmandu 00446, Nepal",27.69710745,85.32518686702733,Singh Durbar,,Saras Marg,00446,Kathmandu-29,Ghattekulo,Kathmandu,Kathmandu,Bagmati Province,Nepal,np,© OpenStreetMap contributors,Open Database License,https://www.openstreetmap.org/copyright
71951451,268,2019-12-23 06:44:19,27.695526666666662,85.32703666666667,0.01,0,"Singh Durbar, Saras Marg, Ghattekulo, Kathmandu 00446, Nepal",27.69710745,85.32518686702733,Singh Durbar,,Saras Marg,00446,Kathmandu-29,Ghattekulo,Kathmandu,Kathmandu,Bagmati Province,Nepal,np,© OpenStreetMap contributors,Open Database License,https://www.openstreetmap.org/copyright
71952107,268,2019-12-23 06:44:49,27.695526666666662,85.32702333333333,0.04,0,"Singh Durbar, Saras Marg, Ghattekulo, Kathmandu 00446, Nepal",27.69710745,85.32518686702733,Singh Durbar,,Saras Marg,00446,Kathmandu-29,Ghattekulo,Kathmandu,Kathmandu,Bagmati Province,Nepal,np,© OpenStreetMap contributors,Open Database License,https://www.openstreetmap.org/copyright
71952817,268,2019-12-23 06:45:19,27.69553,85.32701166666666,0.01,0,"Singh Durbar, Saras Marg, Ghattekulo, Kathmandu 00446, Nepal",27.69710745,85.32518686702733,Singh Durbar,,Saras Marg,00446,Kathmandu-29,Ghattekulo,Kathmandu,Kathmandu,Bagmati Province,Nepal,np,© OpenStreetMap contributors,Open Database License,https://www.openstreetmap.org/copyright
71953474,268,2019-12-23 06:45:49,27.695535,85.32702833333333,0.02,0,"Singh Durbar, Saras Marg, Ghattekulo, Kathmandu 00446, Nepal",27.69710745,85.32518686702733,Singh Durbar,,Saras Marg,00446,Kathmandu-29,Ghattekulo,Kathmandu,Kathmandu,Bagmati Province,Nepal,np,© OpenStreetMap contributors,Open Database License,https://www.openstreetmap.org/copyright
71954118,268,2019-12-23 06:46:18,27.695543333333333,85.32704833333334,0.03,0,"Singh Durbar, Saras Marg, Ghattekulo, Kathmandu 00446, Nepal",27.69710745,85.32518686702733,Singh Durbar,,Saras Marg,00446,Kathmandu-29,Ghattekulo,Kathmandu,Kathmandu,Bagmati Province,Nepal,np,© OpenStreetMap contributors,Open Database License,https://www.openstreetmap.org/copyright
71954880,268,2019-12-23 06:46:52,27.695545,85.32705666666666,0.03,0,"Singh Durbar, Saras Marg, Ghattekulo, Kathmandu 00446, Nepal",27.69710745,85.32518686702733,Singh Durbar,,Saras Marg,00446,Kathmandu-29,Ghattekulo,Kathmandu,Kathmandu,Bagmati Province,Nepal,np,© OpenStreetMap contributors,Open Database License,https://www.openstreetmap.org/copyright
71955451,268,2019-12-23 06:47:18,27.69554833333333,85.32703666666667,0.05,0,"Singh Durbar, Saras Marg, Ghattekulo, Kathmandu 00446, Nepal",27.69710745,85.32518686702733,Singh Durbar,,Saras Marg,00446,Kathmandu-29,Ghattekulo,Kathmandu,Kathmandu,Bagmati Province,Nepal,np,© OpenStreetMap contributors,Open Database License,https://www.openstreetmap.org/copyright
71956106,268,2019-12-23 06:47:48,27.695541666666667,85.32703166666667,0.03,0,"Singh Durbar, Saras Marg, Ghattekulo, Kathmandu 00446, Nepal",27.69710745,85.32518686702733,Singh Durbar,,Saras Marg,00446,Kathmandu-29,Ghattekulo,Kathmandu,Kathmandu,Bagmati Province,Nepal,np,© OpenStreetMap contributors,Open Database License,https://www.openstreetmap.org/copyright
71956783,268,2019-12-23 06:48:19,27.695536666666666,85.32703833333333,0.02,0,"Singh Durbar, Saras Marg, Ghattekulo, Kathmandu 00446, Nepal",27.69710745,85.32518686702733,Singh Durbar,,Saras Marg,00446,Kathmandu-29,Ghattekulo,Kathmandu,Kathmandu,Bagmati Province,Nepal,np,© OpenStreetMap contributors,Open Database License,https://www.openstreetmap.org/copyright
71957400,268,2019-12-23 06:48:47,27.695535,85.327045,0.08,0,"Singh Durbar, Saras Marg, Ghattekulo, Kathmandu 00446, Nepal",27.69710745,85.32518686702733,Singh Durbar,,Saras Marg,00446,Kathmandu-29,Ghattekulo,Kathmandu,Kathmandu,Bagmati Province,Nepal,np,© OpenStreetMap contributors,Open Database License,https://www.openstreetmap.org/copyright
71958047,268,2019-12-23 06:49:17,27.69554,85.32703833333333,0.03,0,"Singh Durbar, Saras Marg, Ghattekulo, Kathmandu 00446, Nepal",27.69710745,85.32518686702733,Singh Durbar,,Saras Marg,00446,Kathmandu-29,Ghattekulo,Kathmandu,Kathmandu,Bagmati Province,Nepal,np,© OpenStreetMap contributors,Open Database License,https://www.openstreetmap.org/copyright
71958702,268,2019-12-23 06:49:47,27.695541666666667,85.32703833333333,0.05,0,"Singh Durbar, Saras Marg, Ghattekulo, Kathmandu 00446, Nepal",27.69710745,85.32518686702733,Singh Durbar,,Saras Marg,00446,Kathmandu-29,Ghattekulo,Kathmandu,Kathmandu,Bagmati Province,Nepal,np,© OpenStreetMap contributors,Open Database License,https://www.openstreetmap.org/copyright
71959360,268,2019-12-23 06:50:16,27.695541666666667,85.32703333333333,0.06,0,"Singh Durbar, Saras Marg, Ghattekulo, Kathmandu 00446, Nepal",27.69710745,85.32518686702733,Singh Durbar,,Saras Marg,00446,Kathmandu-29,Ghattekulo,Kathmandu,Kathmandu,Bagmati Province,Nepal,np,© OpenStreetMap contributors,Open Database License,https://www.openstreetmap.org/copyright
71959992,268,2019-12-23 06:50:46,27.695555,85.32703833333333,0.04,0,"Singh Durbar, Saras Marg, Ghattekulo, Kathmandu 00446, Nepal",27.69710745,85.32518686702733,Singh Durbar,,Saras Marg,00446,Kathmandu-29,Ghattekulo,Kathmandu,Kathmandu,Bagmati Province,Nepal,np,© OpenStreetMap contributors,Open Database License,https://www.openstreetmap.org/copyright
